{"id": "alba", "name": "Alba", "location": {"latitude": 44.716667, "longitude": 8.083333, "city": "Alba", "country": "IT"}, "href": "/v2/networks/alba", "company": ["Comunicare S.r.l."], "system": "Bicincitt\u00e0", "source": "https://www.bicincitta.com/frmLeStazioni.aspx?ID=139", "stations": [{"id": "10f1d352d29c6eaa8206fab251fa1e36", "name": "07. Langhe", "latitude": 44.68775569083886, "longitude": 8.034524917602539, "timestamp": "2025-05-03T02:54:48.462598+00:00Z", "free_bikes": 5, "empty_slots": 3, "extra": {"uid": "887", "number": 7, "status": "offline", "score": 3.0, "reviews": 2}}, {"id": "19b2b7b9f58d3ab865a06f5d0a19da3d", "name": "02. Savona", "latitude": 44.696648863781725, "longitude": 8.034138679504395, "timestamp": "2025-05-03T02:54:48.462554+00:00Z", "free_bikes": 5, "empty_slots": 3, "extra": {"uid": "883", "number": 2, "status": "offline", "score": 1.0, "reviews": 1}}, {"id": "33a8e2165d8c7db9c7c553842dd819c5", "name": "05. Medford", "latitude": 44.701300837268974, "longitude": 8.031177520751953, "timestamp": "2025-05-03T02:54:48.462566+00:00Z", "free_bikes": 5, "empty_slots": 3, "extra": {"uid": "884", "number": 5, "status": "offline", "score": 1.0, "reviews": 1}}, {"id": "59be529b3eabc7ff00d5ab5e92807fb2", "name": "01. Stazione FF.SS.", "latitude": 44.69767080474566, "longitude": 8.030855655670166, "timestamp": "2025-05-03T02:54:48.462519+00:00Z", "free_bikes": 5, "empty_slots": 3, "extra": {"uid": "881", "number": 1, "status": "offline", "score": 2.5, "reviews": 4}}, {"id": "8ec47d937c1aecb894885e9baa022dae", "name": "06. Piave", "latitude": 44.693491409848015, "longitude": 8.023238182067871, "timestamp": "2025-05-03T02:54:48.462577+00:00Z", "free_bikes": 5, "empty_slots": 3, "extra": {"uid": "885", "number": 6, "status": "offline", "score": 1.0, "reviews": 1}}, {"id": "a91173184ffa212995927044245ea732", "name": "08. S. Barbara", "latitude": 44.69373547039753, "longitude": 8.034889698028564, "timestamp": "2025-05-03T02:54:48.462587+00:00Z", "free_bikes": 5, "empty_slots": 3, "extra": {"uid": "886", "number": 8, "status": "offline", "score": 1.0, "reviews": 1}}, {"id": "b5b453133decc306e1777cc685b7be3d", "name": "03. Savona 2", "latitude": 44.696633610794926, "longitude": 8.034063577651978, "timestamp": "2025-05-03T02:54:48.462609+00:00Z", "free_bikes": 5, "empty_slots": 3, "extra": {"uid": "908", "number": 3, "status": "offline", "score": 1.0, "reviews": 1}}, {"id": "c7a2d968c745a9b14c6ebb432d2a778b", "name": "09. Ferrero", "latitude": 44.696485258437384, "longitude": 8.025896319604499, "timestamp": "2025-05-03T02:54:48.462671+00:00Z", "free_bikes": 5, "empty_slots": 3, "extra": {"uid": "1181", "number": 9, "status": "offline", "score": 1.0, "reviews": 1}}, {"id": "ff2fe52fe221d610ccaf2d6766ae9d87", "name": "04. Municipio", "latitude": 44.700782275127956, "longitude": 8.035662174224854, "timestamp": "2025-05-03T02:54:48.462541+00:00Z", "free_bikes": 5, "empty_slots": 3, "extra": {"uid": "882", "number": 4, "status": "offline", "score": 1.0, "reviews": 1}}]}