{"id": "ascoli-piceno", "name": "Ascoli Piceno", "location": {"latitude": 42.85, "longitude": 13.583333, "city": "Ascoli Piceno", "country": "IT"}, "href": "/v2/networks/ascoli-piceno", "company": ["Comunicare S.r.l."], "system": "Bicincitt\u00e0", "source": "https://www.bicincitta.com/frmLeStazioni.aspx?ID=73", "stations": [{"id": "00e3594956b20e89ef17433af7cd966a", "name": "Stazione", "latitude": 42.86234493039719, "longitude": 13.720207214355469, "timestamp": "2025-05-03T03:03:49.612875+00:00Z", "free_bikes": 5, "empty_slots": 3, "extra": {"uid": "567", "number": 5, "status": "offline", "score": 1.0, "reviews": 1}}, {"id": "0c04919975121703af14e58067b7d39c", "name": "Romana", "latitude": 42.854606140773434, "longitude": 13.56661319732666, "timestamp": "2025-05-03T03:03:49.612842+00:00Z", "free_bikes": 5, "empty_slots": 3, "extra": {"uid": "564", "number": 2, "status": "offline", "score": 2.6, "reviews": 8}}, {"id": "0c9d3f61e33166a333b2e51cddbe5e56", "name": "De Gasperi", "latitude": 42.85309601995448, "longitude": 13.57935905456543, "timestamp": "2025-05-03T03:03:49.612865+00:00Z", "free_bikes": 5, "empty_slots": 3, "extra": {"uid": "566", "number": 4, "status": "offline", "score": 2.5, "reviews": 3}}, {"id": "6d03294f3e1cb3cf37040ea8c2624c69", "name": "Federici", "latitude": 42.860237307379336, "longitude": 13.577384948730469, "timestamp": "2025-05-03T03:03:49.612820+00:00Z", "free_bikes": 5, "empty_slots": 3, "extra": {"uid": "563", "number": 1, "status": "offline", "score": 1.1, "reviews": 9}}, {"id": "8fd9c846d1cce4c6422f071ea678d4c1", "name": "Roma", "latitude": 42.853630858634304, "longitude": 13.575539588928223, "timestamp": "2025-05-03T03:03:49.612854+00:00Z", "free_bikes": 5, "empty_slots": 3, "extra": {"uid": "565", "number": 3, "status": "offline", "score": 1.0, "reviews": 2}}]}