{"id": "baksi-cabis", "name": "\u00c7abis", "location": {"latitude": 40.1531, "longitude": 26.4146, "city": "\u00c7anakkale", "country": "TR"}, "href": "/v2/networks/baksi-cabis", "company": ["Baksi Bike Sharing System"], "system": "Baksi", "stations": [{"id": "27894e63b23c7f482017d26632b5d166", "name": "Y\u00fcr\u00fcy\u00fc\u015f Yolu Alb\u0131rak", "latitude": 40.1664258, "longitude": 26.4199973, "timestamp": "2025-05-02T23:27:45.674636+00:00Z", "free_bikes": 0, "empty_slots": 0, "extra": {"uid": "1122", "online": true}}, {"id": "2b80e75e604c28a8076fcc05f6b265a2", "name": "\u00c7anakkale Belediyesi", "latitude": 40.145695, "longitude": 26.413982, "timestamp": "2025-05-02T23:27:45.674445+00:00Z", "free_bikes": 4, "empty_slots": 2, "extra": {"uid": "1102", "online": true}}, {"id": "4486efc5da81d25388db1947cce28129", "name": "EMN\u0130YET Mobil istasyonu", "latitude": 40.151111, "longitude": 26.420317, "timestamp": "2025-05-02T23:27:45.674562+00:00Z", "free_bikes": 0, "empty_slots": 6, "extra": {"uid": "1115", "online": true}}, {"id": "50b41db069eae6bd0f79ba05b384fabf", "name": "\u0130lahiyat Fak\u00fcltesi", "latitude": 40.1255657, "longitude": 26.4187961, "timestamp": "2025-05-02T23:27:45.674513+00:00Z", "free_bikes": 7, "empty_slots": 0, "extra": {"uid": "1110", "online": true}}, {"id": "75d755f86814cb236ce6da47373192ba", "name": "Bar\u0131\u015f Kordonu", "latitude": 40.133038, "longitude": 26.405649, "timestamp": "2025-05-02T23:27:45.674424+00:00Z", "free_bikes": 12, "empty_slots": 0, "extra": {"uid": "1101", "online": true}}, {"id": "75fe89d381585e515c7c4a132c5dd8c3", "name": "BELDEM\u0130Z", "latitude": 40.1160878, "longitude": 26.4129814, "timestamp": "2025-05-02T23:27:45.674523+00:00Z", "free_bikes": 7, "empty_slots": 2, "extra": {"uid": "1111", "online": true}}, {"id": "7da2e45e4e637bbf20b3c57c65faec6d", "name": "Adnan Menderes Al B\u0131rak", "latitude": 40.160821, "longitude": 26.4241678, "timestamp": "2025-05-02T23:27:45.674646+00:00Z", "free_bikes": 0, "empty_slots": 0, "extra": {"uid": "1123", "online": true}}, {"id": "7fc74c8da753559dc6506d4a4f864c39", "name": "Golf \u00c7ay Bah\u00e7esi", "latitude": 40.155605, "longitude": 26.409533, "timestamp": "2025-05-02T23:27:45.674470+00:00Z", "free_bikes": 3, "empty_slots": 6, "extra": {"uid": "1104", "online": true}}, {"id": "8032c449945352b09643fb87ec6714fa", "name": "\u0130SKELE", "latitude": 40.149681, "longitude": 26.400547, "timestamp": "2025-05-02T23:27:45.674458+00:00Z", "free_bikes": 8, "empty_slots": 4, "extra": {"uid": "1103", "online": true}}, {"id": "908eff1bde41e4f1a77ee25219301cda", "name": "KEPEZ", "latitude": 40.095771, "longitude": 26.392756, "timestamp": "2025-05-02T23:27:45.674552+00:00Z", "free_bikes": 3, "empty_slots": 3, "extra": {"uid": "1114", "online": true}}, {"id": "94e274fc08df46f12ebcd987312880ae", "name": "K\u00d6PR\u00dcBA\u015eI", "latitude": 40.144693, "longitude": 26.407331, "timestamp": "2025-05-02T23:27:45.674543+00:00Z", "free_bikes": 0, "empty_slots": 0, "extra": {"uid": "1113", "online": true}}, {"id": "955a81610bcc162b4a682a3c0477194b", "name": "Dardanos Al-B\u0131rak", "latitude": 40.090134, "longitude": 26.364119, "timestamp": "2025-05-02T23:27:45.674604+00:00Z", "free_bikes": 0, "empty_slots": 0, "extra": {"uid": "1119", "online": true}}, {"id": "978abd479b23cc6e4336d9035eabb7dc", "name": "\u00d6zg\u00fcrl\u00fck Park\u0131", "latitude": 40.1641139, "longitude": 26.40845, "timestamp": "2025-05-02T23:27:45.674492+00:00Z", "free_bikes": 4, "empty_slots": 2, "extra": {"uid": "1106", "online": true}}, {"id": "ae38bdf5727e0540a33a7c61ec2aa224", "name": "Kepez Halk Kafe Mobil \u0130stasyon", "latitude": 40.038247, "longitude": 26.340215, "timestamp": "2025-05-02T23:27:45.674573+00:00Z", "free_bikes": 1, "empty_slots": 5, "extra": {"uid": "1116", "online": true}}, {"id": "b56b5b013bf9ccc62ce996f6e8e8bbf2", "name": "G\u00fczelyal\u0131 Al-B\u0131rak", "latitude": 40.110947, "longitude": 26.405381, "timestamp": "2025-05-02T23:27:45.674625+00:00Z", "free_bikes": 0, "empty_slots": 0, "extra": {"uid": "1121", "online": true}}, {"id": "c2476b8937b61012accbd67195630538", "name": "Troya caddesi", "latitude": 40.1407691, "longitude": 26.4152977, "timestamp": "2025-05-02T23:27:45.674503+00:00Z", "free_bikes": 6, "empty_slots": 0, "extra": {"uid": "1109", "online": true}}, {"id": "e3be28374bfc2b5005fef5bb1ce1b181", "name": "Anafartalar Kamp\u00fcs\u00fc", "latitude": 40.155032, "longitude": 26.411928, "timestamp": "2025-05-02T23:27:45.674532+00:00Z", "free_bikes": 6, "empty_slots": 3, "extra": {"uid": "1112", "online": true}}, {"id": "e82baa324769839d9f574b179ba4df6e", "name": "Yeni Belediye", "latitude": 40.146482, "longitude": 26.409908, "timestamp": "2025-05-02T23:27:45.674595+00:00Z", "free_bikes": 5, "empty_slots": 1, "extra": {"uid": "1118", "online": true}}, {"id": "ebbb051abec6b1c9abc0216ccbe6e194", "name": "75. YIL PARKI", "latitude": 40.126076, "longitude": 26.410364, "timestamp": "2025-05-02T23:27:45.674481+00:00Z", "free_bikes": 9, "empty_slots": 0, "extra": {"uid": "1105", "online": true}}, {"id": "f2c59e7b96434597ae2f4770bfa62bad", "name": "G\u00fczel Sanatlar", "latitude": 40.046455, "longitude": 26.348724, "timestamp": "2025-05-02T23:27:45.674615+00:00Z", "free_bikes": 0, "empty_slots": 0, "extra": {"uid": "1120", "online": false}}, {"id": "f5d47cd3172760c42c49a6f4ad013521", "name": "Yurtlar \u0130stasyon", "latitude": 40.148209, "longitude": 26.445485, "timestamp": "2025-05-02T23:27:45.674584+00:00Z", "free_bikes": 8, "empty_slots": 6, "extra": {"uid": "1117", "online": true}}]}