{"id": "biba", "name": "BiBa", "location": {"latitude": 38.878, "longitude": -6.9701, "city": "Badajoz", "country": "ES"}, "href": "/v2/networks/biba", "company": ["Instituto Tecnol\u00f3gico de Castilla y Le\u00f3n (ITCL)"], "system": "bicicard", "stations": [{"id": "02bf04d97e09e3b60dee4b8e087d9c57", "name": "12 - SAN ROQUE 2", "latitude": 38.878862, "longitude": -6.955413, "timestamp": "2025-05-03T02:57:33.191391+00:00Z", "free_bikes": 1, "empty_slots": 7, "extra": {"uid": 12, "normal_bikes": 1, "ebikes": 0, "slots": 8, "online": false}}, {"id": "05020d7bcc9e505140fd4c258f29151e", "name": "05 - EL CORTE INGL\u00c9S (C/ ENRIQUE SEGURA OTA\u00d1O)", "latitude": 38.872795, "longitude": -6.97445, "timestamp": "2025-05-03T02:57:33.190122+00:00Z", "free_bikes": 0, "empty_slots": 8, "extra": {"uid": 5, "normal_bikes": 0, "ebikes": 0, "slots": 8, "online": false}}, {"id": "0e2389a5174679c7c4f0dc24d47ba687", "name": "30 - IES CASTELAR", "latitude": 38.8793497, "longitude": -6.9773708, "timestamp": "2025-05-03T02:57:33.194803+00:00Z", "free_bikes": 0, "empty_slots": 10, "extra": {"uid": 35, "normal_bikes": 0, "ebikes": 0, "slots": 10, "online": true}}, {"id": "1d69860f1d29adcd50a6ac4a566c2e03", "name": "17 - CC. CONQUISTADORES", "latitude": 38.883122, "longitude": -6.997212, "timestamp": "2025-05-03T02:57:33.192258+00:00Z", "free_bikes": 3, "empty_slots": 5, "extra": {"uid": 17, "normal_bikes": 3, "ebikes": 0, "slots": 8, "online": false}}, {"id": "24bd7b3a69aabca1c0b31d8d59c620c4", "name": "19 - HOSPITAL INFANTA CRISTINA", "latitude": 38.883808, "longitude": -7.000542, "timestamp": "2025-05-03T02:57:33.192565+00:00Z", "free_bikes": 1, "empty_slots": 7, "extra": {"uid": 19, "normal_bikes": 1, "ebikes": 0, "slots": 8, "online": false}}, {"id": "2c6452517a4352c1c6110f4a6ea4c5c8", "name": "22 - URBANIZACI\u00d3N LAS VAGUADAS (CENTRO COMERCIAL)", "latitude": 38.843778, "longitude": -6.968447, "timestamp": "2025-05-03T02:57:33.193197+00:00Z", "free_bikes": 3, "empty_slots": 5, "extra": {"uid": 22, "normal_bikes": 3, "ebikes": 0, "slots": 8, "online": false}}, {"id": "35ac0e176c035bdbdf3f601fbbb7914f", "name": "31 - INTERIOR DE IES SAN JOS\u00c9", "latitude": 38.8908809, "longitude": -6.9776294, "timestamp": "2025-05-03T02:57:33.194992+00:00Z", "free_bikes": 1, "empty_slots": 9, "extra": {"uid": 36, "normal_bikes": 1, "ebikes": 0, "slots": 10, "online": false}}, {"id": "3fe96dd8581d67846227dc7f7bb384c6", "name": "01 - PLAZA DE ESPA\u00d1A", "latitude": 38.878313, "longitude": -6.97042, "timestamp": "2025-05-03T02:57:33.189600+00:00Z", "free_bikes": 0, "empty_slots": 16, "extra": {"uid": 1, "normal_bikes": 0, "ebikes": 0, "slots": 16, "online": false}}, {"id": "41d647a0144901593a6902709da08de0", "name": "20 - RECTORADO UNIVERSIDAD", "latitude": 38.882978, "longitude": -7.005836, "timestamp": "2025-05-03T02:57:33.192762+00:00Z", "free_bikes": 0, "empty_slots": 10, "extra": {"uid": 20, "normal_bikes": 0, "ebikes": 0, "slots": 10, "online": false}}, {"id": "518afb5782ee5774657aeff758336744", "name": "27 - AVD. JUAN CARLOS I", "latitude": 38.8781974, "longitude": -6.9728115, "timestamp": "2025-05-03T02:57:33.194161+00:00Z", "free_bikes": 0, "empty_slots": 10, "extra": {"uid": 32, "normal_bikes": 0, "ebikes": 0, "slots": 10, "online": true}}, {"id": "55f6a6a05f05dcc25ad1e165c0731246", "name": "28 - PLAZA SAN AT\u00d3N", "latitude": 38.8768713, "longitude": -6.9713683, "timestamp": "2025-05-03T02:57:33.194396+00:00Z", "free_bikes": 1, "empty_slots": 9, "extra": {"uid": 33, "normal_bikes": 1, "ebikes": 0, "slots": 10, "online": false}}, {"id": "58649b4ab1d140c99d4b1b1463358114", "name": "15 - AVDA. CAROLINA COLORADO 2 ", "latitude": 38.885588, "longitude": -6.980308, "timestamp": "2025-05-03T02:57:33.191934+00:00Z", "free_bikes": 1, "empty_slots": 7, "extra": {"uid": 15, "normal_bikes": 1, "ebikes": 0, "slots": 8, "online": false}}, {"id": "5f6c8d201f6793270210730d27d0f646", "name": "03 - CORREOS", "latitude": 38.875313, "longitude": -6.97445, "timestamp": "2025-05-03T02:57:33.189809+00:00Z", "free_bikes": 0, "empty_slots": 10, "extra": {"uid": 3, "normal_bikes": 0, "ebikes": 0, "slots": 10, "online": false}}, {"id": "62de561b5088ae7fe7bd7981505fd22c", "name": "29 - PLAZA DE SAN JOS\u00c9", "latitude": 38.8818528, "longitude": -6.9691123, "timestamp": "2025-05-03T02:57:33.194585+00:00Z", "free_bikes": 0, "empty_slots": 10, "extra": {"uid": 34, "normal_bikes": 0, "ebikes": 0, "slots": 10, "online": false}}, {"id": "6ede9b0a21f336f4f82dd506ff21f51d", "name": "06 - TOM\u00c1S ROMERO DE CASTILLA", "latitude": 38.870922, "longitude": -6.9825, "timestamp": "2025-05-03T02:57:33.190275+00:00Z", "free_bikes": 0, "empty_slots": 8, "extra": {"uid": 6, "normal_bikes": 0, "ebikes": 0, "slots": 8, "online": false}}, {"id": "6f8f4f8e8cd3f93f3d5c98dc51b4805c", "name": "16 - CENTRO DEPORTIVO VIEJO VIVERO", "latitude": 38.885547, "longitude": -6.992145, "timestamp": "2025-05-03T02:57:33.192099+00:00Z", "free_bikes": 3, "empty_slots": 5, "extra": {"uid": 16, "normal_bikes": 3, "ebikes": 0, "slots": 8, "online": false}}, {"id": "70b2ba8b32fb4e10785b07fa1848dbbd", "name": "26 - PLAZA DE CERVANTES", "latitude": 38.8779108, "longitude": -6.9666579, "timestamp": "2025-05-03T02:57:33.193899+00:00Z", "free_bikes": 1, "empty_slots": 9, "extra": {"uid": 31, "normal_bikes": 1, "ebikes": 0, "slots": 10, "online": false}}, {"id": "805eef735d0332af7c57445514a5af05", "name": "14 - AVDA. CAROLINA COLORADO 1", "latitude": 38.890203, "longitude": -6.98248, "timestamp": "2025-05-03T02:57:33.191754+00:00Z", "free_bikes": 0, "empty_slots": 8, "extra": {"uid": 14, "normal_bikes": 0, "ebikes": 0, "slots": 8, "online": false}}, {"id": "8234b523a904d68727e42f1345e09dde", "name": "18 - FACULTAD DE MEDICINA", "latitude": 38.887133, "longitude": -6.999542, "timestamp": "2025-05-03T02:57:33.192410+00:00Z", "free_bikes": 0, "empty_slots": 8, "extra": {"uid": 18, "normal_bikes": 0, "ebikes": 0, "slots": 8, "online": false}}, {"id": "831be3e74308d6cc60f2b4d74d27e29e", "name": "04 - AVDA. COLON (JUZGADOS)", "latitude": 38.875983, "longitude": -6.976992, "timestamp": "2025-05-03T02:57:33.189970+00:00Z", "free_bikes": 1, "empty_slots": 7, "extra": {"uid": 4, "normal_bikes": 1, "ebikes": 0, "slots": 8, "online": false}}, {"id": "87081611a4634cb82f8e46016f82a91a", "name": "24 - CENTRO COMERCIAL FARO", "latitude": 38.883617, "longitude": -7.021945, "timestamp": "2025-05-03T02:57:33.193515+00:00Z", "free_bikes": 1, "empty_slots": 9, "extra": {"uid": 24, "normal_bikes": 1, "ebikes": 0, "slots": 10, "online": false}}, {"id": "8e7d9adbed7c73c1b9dd02fabd680f6b", "name": "21 - FACULTAD DE EDUCACI\u00d3N", "latitude": 38.885258, "longitude": -7.011336, "timestamp": "2025-05-03T02:57:33.193016+00:00Z", "free_bikes": 6, "empty_slots": 4, "extra": {"uid": 21, "normal_bikes": 6, "ebikes": 0, "slots": 10, "online": false}}, {"id": "afce57454bed7115686ae2ea9eafa4dd", "name": "08 - SINFONIANO MADRO\u00d1ERO (FUENTE ISABEL PORTUGAL)", "latitude": 38.86618, "longitude": -6.984692, "timestamp": "2025-05-03T02:57:33.190717+00:00Z", "free_bikes": 7, "empty_slots": 1, "extra": {"uid": 8, "normal_bikes": 7, "ebikes": 0, "slots": 8, "online": false}}, {"id": "b606a371b5fc2dd246a4975044c04677", "name": "09 - ESTACION DE AUTOBUSES", "latitude": 38.866863, "longitude": -6.973878, "timestamp": "2025-05-03T02:57:33.190923+00:00Z", "free_bikes": 0, "empty_slots": 10, "extra": {"uid": 9, "normal_bikes": 0, "ebikes": 0, "slots": 10, "online": false}}, {"id": "c33695f0a7459cb08433029da785ff50", "name": "11 - SAN ROQUE 1", "latitude": 38.879262, "longitude": -6.96122, "timestamp": "2025-05-03T02:57:33.191236+00:00Z", "free_bikes": 0, "empty_slots": 8, "extra": {"uid": 11, "normal_bikes": 0, "ebikes": 0, "slots": 8, "online": false}}, {"id": "d9e10375c8aa0450e975a58feda77460", "name": "25 - BARRIADA ILLERA", "latitude": 38.857742, "longitude": -6.98745, "timestamp": "2025-05-03T02:57:33.193676+00:00Z", "free_bikes": 0, "empty_slots": 8, "extra": {"uid": 27, "normal_bikes": 0, "ebikes": 0, "slots": 8, "online": false}}, {"id": "dbc6dfb7fe5f649332c21ead5328e967", "name": "07 - SINFONIANO MADRO\u00d1ERO (PUENTE REAL)", "latitude": 38.870788, "longitude": -6.988805, "timestamp": "2025-05-03T02:57:33.190461+00:00Z", "free_bikes": 0, "empty_slots": 10, "extra": {"uid": 7, "normal_bikes": 0, "ebikes": 0, "slots": 10, "online": false}}, {"id": "e73780046aa3e87175877a7367e7eeae", "name": "10 - CENTRO COMERCIAL LA PLAZA", "latitude": 38.8728, "longitude": -6.965762, "timestamp": "2025-05-03T02:57:33.191082+00:00Z", "free_bikes": 1, "empty_slots": 7, "extra": {"uid": 10, "normal_bikes": 1, "ebikes": 0, "slots": 8, "online": false}}, {"id": "f99cf77186af28b7d49ad3e7243798fd", "name": "13 - ITA", "latitude": 38.895497, "longitude": -6.96975, "timestamp": "2025-05-03T02:57:33.191585+00:00Z", "free_bikes": 0, "empty_slots": 8, "extra": {"uid": 13, "normal_bikes": 0, "ebikes": 0, "slots": 8, "online": false}}]}