{"id": "bici-co", "name": "BICI&CO", "location": {"latitude": 45.8080597, "longitude": 9.0851765, "city": "Como", "country": "IT"}, "href": "/v2/networks/bici-co", "company": ["Comunicare S.r.l."], "system": "Bicincitt\u00e0", "source": "https://www.bicincitta.com/frmLeStazioni.aspx?ID=157", "stations": [{"id": "03ff1198e28d7e94427d85137f8510af", "name": "06 - FN Borghi", "latitude": 45.80479269051391, "longitude": 9.090773463249207, "timestamp": "2025-05-03T03:03:52.142411+00:00Z", "free_bikes": 0, "empty_slots": 0, "extra": {"uid": "996", "number": 6, "status": "offline", "score": 2.9, "reviews": 14}}, {"id": "30931e5c4baa05bf9937315abeecfd9c", "name": "05 - Sant'Abbondio", "latitude": 45.802500291022646, "longitude": 9.0802001953125, "timestamp": "2025-05-03T03:03:52.142400+00:00Z", "free_bikes": 0, "empty_slots": 9, "extra": {"uid": "995", "number": 5, "status": "online", "score": 1.4, "reviews": 9}}, {"id": "4efdf475f893a70cfcfeeac894465243", "name": "14 - Pirellino", "latitude": 45.806972837821576, "longitude": 9.08097407605328, "timestamp": "2025-05-03T03:03:52.142524+00:00Z", "free_bikes": 1, "empty_slots": 8, "extra": {"uid": "1366", "number": 14, "status": "online", "score": 2.4, "reviews": 6}}, {"id": "5ef0fcc87fba5d2832569581a14e49e4", "name": "09 - Villa Olmo", "latitude": 45.818163763981104, "longitude": 9.066306352615356, "timestamp": "2025-05-03T03:03:52.142451+00:00Z", "free_bikes": 1, "empty_slots": 9, "extra": {"uid": "999", "number": 9, "status": "online", "score": 1.1, "reviews": 4}}, {"id": "7b389bf21d7c15682b0e815d86d41c62", "name": "03 - Municipio", "latitude": 45.80969691194616, "longitude": 9.085077792406082, "timestamp": "2025-05-03T03:03:52.142373+00:00Z", "free_bikes": 2, "empty_slots": 8, "extra": {"uid": "993", "number": 3, "status": "online", "score": 2.3, "reviews": 15}}, {"id": "84dbc6d76769313a9768d72e538a23b3", "name": "10 - Santa Chiara", "latitude": 45.801284869668955, "longitude": 9.086487293243408, "timestamp": "2025-05-03T03:03:52.142471+00:00Z", "free_bikes": 2, "empty_slots": 6, "extra": {"uid": "1000", "number": 10, "status": "offline", "score": 2.2, "reviews": 9}}, {"id": "89f32f9575ca6dba3e6ca1b6141692b0", "name": "16 - Universita`", "latitude": 45.801738077253795, "longitude": 9.094778769836466, "timestamp": "2025-05-03T03:03:52.142544+00:00Z", "free_bikes": 1, "empty_slots": 8, "extra": {"uid": "1374", "number": 16, "status": "online", "score": 0.7, "reviews": 2}}, {"id": "9d91f7ca66baf27b1cf9c711a725c927", "name": "13 - Cacciatori delle Alpi", "latitude": 45.81023444879706, "longitude": 9.077003065606732, "timestamp": "2025-05-03T03:03:52.142513+00:00Z", "free_bikes": 0, "empty_slots": 2, "extra": {"uid": "1365", "number": 13, "status": "online", "score": 4.1, "reviews": 6}}, {"id": "b2701e1ad1cc22d2169f3239642af189", "name": "02 - Funicolare", "latitude": 45.81749266944911, "longitude": 9.082643687725067, "timestamp": "2025-05-03T03:03:52.142348+00:00Z", "free_bikes": 1, "empty_slots": 7, "extra": {"uid": "992", "number": 2, "status": "online", "score": 2.3, "reviews": 10}}, {"id": "b67a4b1a0fc2150044361047cc9db8f2", "name": "17 - Cernobbio", "latitude": 45.83740874921035, "longitude": 9.073430301043565, "timestamp": "2025-05-03T03:03:52.142555+00:00Z", "free_bikes": 2, "empty_slots": 7, "extra": {"uid": "1904", "number": 17, "status": "online", "score": 1.0, "reviews": 1}}, {"id": "bc8e4f89159151c8cbac4d8251142ea9", "name": "11 - Como Nord Lago", "latitude": 45.81469276687993, "longitude": 9.083187625131245, "timestamp": "2025-05-03T03:03:52.142489+00:00Z", "free_bikes": 1, "empty_slots": 9, "extra": {"uid": "1363", "number": 11, "status": "offline", "score": 1.4, "reviews": 2}}, {"id": "d21f74b5790ac77d772d83d5caaa8456", "name": "08 - Stadio", "latitude": 45.8146642629522, "longitude": 9.073081612586975, "timestamp": "2025-05-03T03:03:52.142432+00:00Z", "free_bikes": 0, "empty_slots": 10, "extra": {"uid": "998", "number": 8, "status": "online", "score": 1.6, "reviews": 10}}, {"id": "dbd93c5b22189275cf79bfbd2a2b5323", "name": "12 - Tavernola", "latitude": 45.83134638009883, "longitude": 9.072258363529272, "timestamp": "2025-05-03T03:03:52.142501+00:00Z", "free_bikes": 0, "empty_slots": 10, "extra": {"uid": "1364", "number": 12, "status": "online", "score": 3.2, "reviews": 12}}, {"id": "dc4acc350bc2ccf7b75c792a49c533c3", "name": "15 - Caserme", "latitude": 45.79720054081762, "longitude": 9.092374744180233, "timestamp": "2025-05-03T03:03:52.142534+00:00Z", "free_bikes": 0, "empty_slots": 9, "extra": {"uid": "1367", "number": 15, "status": "online", "score": 0.7, "reviews": 2}}, {"id": "dc9afb74570d320be09dd69c912f6e2a", "name": "01 - Cavour", "latitude": 45.81270410980125, "longitude": 9.080782234668732, "timestamp": "2025-05-03T03:03:52.142320+00:00Z", "free_bikes": 1, "empty_slots": 8, "extra": {"uid": "991", "number": 1, "status": "online", "score": 3.2, "reviews": 41}}, {"id": "eecf538e1691b32b2a7ebd9fa4dd03c8", "name": "04 - RFI San Giovanni", "latitude": 45.80869665783844, "longitude": 9.073455780744553, "timestamp": "2025-05-03T03:03:52.142388+00:00Z", "free_bikes": 0, "empty_slots": 10, "extra": {"uid": "994", "number": 4, "status": "online", "score": 1.5, "reviews": 17}}, {"id": "f736c2ef414483da6a18c7c0034fa300", "name": "07 - Vittoria", "latitude": 45.806006165600884, "longitude": 9.085259512066841, "timestamp": "2025-05-03T03:03:52.142421+00:00Z", "free_bikes": 2, "empty_slots": 6, "extra": {"uid": "997", "number": 7, "status": "offline", "score": 2.2, "reviews": 11}}]}