{"id": "bicincitta-trieste", "name": "BiTS", "location": {"latitude": 45.6495, "longitude": 13.7768, "city": "Trieste", "country": "IT"}, "href": "/v2/networks/bicincitta-trieste", "company": ["Comunicare S.r.l."], "system": "Bicincitt\u00e0", "source": "https://www.bicincitta.com/frmLeStazioni.aspx?ID=266", "stations": [{"id": "1c22a4f3279ccbebc095abd5f1b97419", "name": "11. Porto Vecchio Polo Museale", "latitude": 45.66656066741222, "longitude": 13.760504722595217, "timestamp": "2025-05-03T03:03:54.700639+00:00Z", "free_bikes": 0, "empty_slots": 9, "extra": {"uid": "1680", "number": 11, "status": "online", "score": 1.0, "reviews": 1}}, {"id": "24c60b18afe939c829c3ba8ee01a6406", "name": "21. Roiano", "latitude": 45.663519660602255, "longitude": 13.769345286903828, "timestamp": "2025-05-03T03:03:54.700741+00:00Z", "free_bikes": 10, "empty_slots": 2, "extra": {"uid": "1941", "number": 21, "status": "online", "score": 1.0, "reviews": 1}}, {"id": "296647984d165d57cc86d2f41217b876", "name": "24. Porto Vecchio centro per l'impiego", "latitude": 45.65875880521079, "longitude": 13.767462372779848, "timestamp": "2025-05-03T03:03:54.700772+00:00Z", "free_bikes": 8, "empty_slots": 6, "extra": {"uid": "2075", "number": 24, "status": "online", "score": 1.0, "reviews": 1}}, {"id": "3a9d2fd07b40636529466cc91108d15e", "name": "02. Oberdan", "latitude": 45.65391350000003, "longitude": 13.775604199999975, "timestamp": "2025-05-03T03:03:54.700546+00:00Z", "free_bikes": 6, "empty_slots": 5, "extra": {"uid": "1657", "number": 2, "status": "online", "score": 1.0, "reviews": 1}}, {"id": "3e8bb9b9601606b2ac55c266ee932745", "name": "09. Cumano - Musei", "latitude": 45.6394144, "longitude": 13.797849100000008, "timestamp": "2025-05-03T03:03:54.700617+00:00Z", "free_bikes": 4, "empty_slots": 6, "extra": {"uid": "1664", "number": 9, "status": "online", "score": 1.0, "reviews": 1}}, {"id": "4220e7a54ea1b1b99dfd4d612770fe9f", "name": "07. Barcola", "latitude": 45.68268373615165, "longitude": 13.750852944799142, "timestamp": "2025-05-03T03:03:54.700596+00:00Z", "free_bikes": 2, "empty_slots": 10, "extra": {"uid": "1662", "number": 7, "status": "online", "score": 1.0, "reviews": 1}}, {"id": "5812eda7353f9a916f2f533329223fc8", "name": "16. Largo Sonnino", "latitude": 45.64435006244043, "longitude": 13.782672284149951, "timestamp": "2025-05-03T03:03:54.700690+00:00Z", "free_bikes": 9, "empty_slots": 1, "extra": {"uid": "1844", "number": 16, "status": "online", "score": 1.0, "reviews": 1}}, {"id": "58539e1a7323b95d898c0cccc4284623", "name": "04. Stazione Marittima", "latitude": 45.64904529999999, "longitude": 13.76503630000002, "timestamp": "2025-05-03T03:03:54.700567+00:00Z", "free_bikes": 5, "empty_slots": 11, "extra": {"uid": "1659", "number": 4, "status": "online", "score": 1.0, "reviews": 1}}, {"id": "5ca8ccf6651362d7f6b62e2d44ccc95c", "name": "22. Irneri", "latitude": 45.63963008377464, "longitude": 13.759565949440004, "timestamp": "2025-05-03T03:03:54.700752+00:00Z", "free_bikes": 8, "empty_slots": 7, "extra": {"uid": "1942", "number": 22, "status": "online", "score": 1.0, "reviews": 1}}, {"id": "65d80dd03c3747466d8351b2c84f36ca", "name": "19. Campi Elisi", "latitude": 45.639020605198034, "longitude": 13.771650196847812, "timestamp": "2025-05-03T03:03:54.700721+00:00Z", "free_bikes": 1, "empty_slots": 5, "extra": {"uid": "1847", "number": 19, "status": "online", "score": 1.0, "reviews": 1}}, {"id": "80ef7fad3b922f83bc888e585e892a88", "name": "23. Duca degli Abruzzi", "latitude": 45.6536182048315, "longitude": 13.769795894622805, "timestamp": "2025-05-03T03:03:54.700762+00:00Z", "free_bikes": 9, "empty_slots": 2, "extra": {"uid": "1943", "number": 23, "status": "online", "score": 1.0, "reviews": 1}}, {"id": "81572b9a4f93b8cf470c861c8d6eed69", "name": "15. Foro Ulpiano", "latitude": 45.65484809134257, "longitude": 13.778099109933475, "timestamp": "2025-05-03T03:03:54.700679+00:00Z", "free_bikes": 6, "empty_slots": 3, "extra": {"uid": "1843", "number": 15, "status": "online", "score": 1.0, "reviews": 1}}, {"id": "8e05a9d87b9200c0d65257e2e0f63c87", "name": "05. Piazza Hortis", "latitude": 45.64682986904231, "longitude": 13.764611085559439, "timestamp": "2025-05-03T03:03:54.700577+00:00Z", "free_bikes": 0, "empty_slots": 9, "extra": {"uid": "1660", "number": 5, "status": "online", "score": 1.0, "reviews": 1}}, {"id": "93a12115484d3a8827920868e1720e12", "name": "03. Teatro Romano", "latitude": 45.64946239999998, "longitude": 13.772010000000023, "timestamp": "2025-05-03T03:03:54.700557+00:00Z", "free_bikes": 7, "empty_slots": 9, "extra": {"uid": "1658", "number": 3, "status": "online", "score": 1.0, "reviews": 1}}, {"id": "9fc4c30d087e61659462656b1d0b3781", "name": "14. Piazza Foraggi", "latitude": 45.640142053421016, "longitude": 13.788278087081604, "timestamp": "2025-05-03T03:03:54.700669+00:00Z", "free_bikes": 4, "empty_slots": 5, "extra": {"uid": "1842", "number": 14, "status": "online", "score": 1.0, "reviews": 1}}, {"id": "a51c6debf08c89fba546aaa1c826fbe1", "name": "08. Teatro Rossetti", "latitude": 45.652689199999976, "longitude": 13.784454200000027, "timestamp": "2025-05-03T03:03:54.700606+00:00Z", "free_bikes": 4, "empty_slots": 7, "extra": {"uid": "1663", "number": 8, "status": "online", "score": 1.0, "reviews": 1}}, {"id": "aea1cf1efdbf1ed61737edd0b061f2f5", "name": "01. Piazza Liberta` - Stazione", "latitude": 45.657074486622975, "longitude": 13.772298492702172, "timestamp": "2025-05-03T03:03:54.700526+00:00Z", "free_bikes": 13, "empty_slots": 10, "extra": {"uid": "1656", "number": 1, "status": "online", "score": 1.0, "reviews": 1}}, {"id": "b08af0d4f3b167dc9acf67a8740a63e2", "name": "18. Rotonda del Boschetto", "latitude": 45.654612485706195, "longitude": 13.797787417715693, "timestamp": "2025-05-03T03:03:54.700711+00:00Z", "free_bikes": 0, "empty_slots": 9, "extra": {"uid": "1846", "number": 18, "status": "online", "score": 1.0, "reviews": 1}}, {"id": "b14ae0eec0b6320391ef920e47195029", "name": "12. Porto Vecchio Viale Miramare", "latitude": 45.669819005200544, "longitude": 13.758773402092974, "timestamp": "2025-05-03T03:03:54.700649+00:00Z", "free_bikes": 0, "empty_slots": 13, "extra": {"uid": "1681", "number": 12, "status": "online", "score": 1.0, "reviews": 1}}, {"id": "c4877e71100156885965ada5a68102a5", "name": "10. Park Bovedo", "latitude": 45.67529835395013, "longitude": 13.755416089702997, "timestamp": "2025-05-03T03:03:54.700627+00:00Z", "free_bikes": 9, "empty_slots": 2, "extra": {"uid": "1666", "number": 10, "status": "online", "score": 1.0, "reviews": 1}}, {"id": "cdd3855168bfec33a5d7b85846132066", "name": "13. Largo Barriera", "latitude": 45.64830776043931, "longitude": 13.7787312257367, "timestamp": "2025-05-03T03:03:54.700659+00:00Z", "free_bikes": 10, "empty_slots": 1, "extra": {"uid": "1841", "number": 13, "status": "online", "score": 1.0, "reviews": 1}}, {"id": "eb6257263b34e90b926c3b8d835f8796", "name": "06. Stazione Rogers", "latitude": 45.645513600000015, "longitude": 13.757605300000023, "timestamp": "2025-05-03T03:03:54.700586+00:00Z", "free_bikes": 2, "empty_slots": 12, "extra": {"uid": "1661", "number": 6, "status": "online", "score": 1.0, "reviews": 1}}, {"id": "ef5d02942c28593df06adbd6e9427acd", "name": "20. Miramare", "latitude": 45.70148637720898, "longitude": 13.718668524844546, "timestamp": "2025-05-03T03:03:54.700732+00:00Z", "free_bikes": 3, "empty_slots": 10, "extra": {"uid": "1940", "number": 20, "status": "online", "score": 1.0, "reviews": 1}}, {"id": "fb87b8a51af3d7f7b32f4dfdec511e65", "name": "17. Battisti", "latitude": 45.65172596481305, "longitude": 13.77773364903781, "timestamp": "2025-05-03T03:03:54.700700+00:00Z", "free_bikes": 6, "empty_slots": 1, "extra": {"uid": "1845", "number": 17, "status": "online", "score": 1.0, "reviews": 1}}]}