{"id": "biciarteixo", "name": "biciArteixo", "location": {"latitude": 43.3053, "longitude": -8.5069, "city": "Arteixo", "country": "ES"}, "href": "/v2/networks/biciarteixo", "company": ["Servizos Urbanos Municipais de Arteixo, S. A."], "system": "Nextbike", "stations": [{"id": "00dde4567ca7fef8d0a94dde626e248f", "name": "P. SAB\u00d3N - AVDA. DA DEPUTACI\u00d3N P. SAB\u00d3N - AVDA. DA DEPUTACI\u00d3N - PL SABON 75", "latitude": 43.317635, "longitude": -8.499314, "timestamp": "2025-05-03T02:57:44.046879+00:00Z", "free_bikes": 3, "empty_slots": 1, "extra": {"uid": "193709273", "number": "34450", "slots": 4, "bike_uids": ["377597", "377595", "372471"], "virtual": false}}, {"id": "7e08cfb89f065ba962e88db6558ac83c", "name": "OFICINA DE TURISMO OFICINA DE TURISMO - PL SABON 30", "latitude": 43.307001, "longitude": -8.507216, "timestamp": "2025-05-03T02:57:44.046764+00:00Z", "free_bikes": 16, "empty_slots": 0, "extra": {"uid": "193706823", "number": "34453", "slots": 16, "bike_uids": ["377586", "377578", "377576", "377560", "377557", "377535", "377508", "372497", "372496", "372490", "372488", "372486", "372483", "372476", "372475", "372468"], "virtual": false}}, {"id": "b53ee821d94d3fadbb2d7426233bd128", "name": "IGREXARIO DE LOUREDA", "latitude": 43.294193, "longitude": -8.489304, "timestamp": "2025-05-03T02:57:44.047064+00:00Z", "free_bikes": 3, "empty_slots": 1, "extra": {"uid": "427142505", "number": "34457", "slots": 4, "bike_uids": ["377579", "377548", "372481"], "virtual": false}}, {"id": "b645e17b20c70a1a49508d7b2f8a64d1", "name": "CENTRO DE SA\u00daDE - PARQUE CENTRAL CENTRO DE SA\u00daDE - PARQUE CENTRAL - CM CABALOS 1", "latitude": 43.300558, "longitude": -8.50775, "timestamp": "2025-05-03T02:57:44.046834+00:00Z", "free_bikes": 14, "empty_slots": 0, "extra": {"uid": "193708042", "number": "34454", "slots": 10, "bike_uids": ["377592", "377591", "377588", "377561", "377537", "377531", "377520", "377512", "377504", "372493", "372491", "372489", "372485", "372479"], "virtual": false}}, {"id": "b90dfa5f0e87724cd2f6285ee98df5bb", "name": "PRAIA DE SAB\u00d3N", "latitude": 43.329012, "longitude": -8.503771, "timestamp": "2025-05-03T02:57:44.047003+00:00Z", "free_bikes": 9, "empty_slots": 1, "extra": {"uid": "427141525", "number": "34455", "slots": 10, "bike_uids": ["377580", "377564", "377554", "377526", "377505", "377502", "377501", "372470", "372467"], "virtual": false}}, {"id": "b937c7e91d995c7e61dd0c8cc1acfb9e", "name": "PRAIA DE ALBA-SAB\u00d3N PRAIA DE ALBA-SAB\u00d3N Poligono 3 Parcela 396", "latitude": 43.323618, "longitude": -8.509929, "timestamp": "2025-05-03T02:57:44.046915+00:00Z", "free_bikes": 7, "empty_slots": 3, "extra": {"uid": "193709628", "number": "34451", "slots": 10, "bike_uids": ["377581", "377573", "377565", "377515", "377514", "377510", "372477"], "virtual": false}}, {"id": "bc58e6b8fa92cac76f0a823d41d4d501", "name": "CENTRO DE SA\u00daDE DE VILARROD\u00cdS CENTRO DE SA\u00daDE DE VILARROD\u00cdS - R\u00faa Aguceira, 2-8", "latitude": 43.316567, "longitude": -8.48009, "timestamp": "2025-05-03T02:57:44.046958+00:00Z", "free_bikes": 7, "empty_slots": 3, "extra": {"uid": "193709970", "number": "34452", "slots": 10, "bike_uids": ["377566", "377555", "377532", "377523", "377517", "372472", "372469"], "virtual": false}}, {"id": "e757c1b1b12626e56f0173136529892a", "name": "PRAIA DE BARRA\u00d1\u00c1N", "latitude": 43.309362, "longitude": -8.551589, "timestamp": "2025-05-03T02:57:44.047036+00:00Z", "free_bikes": 9, "empty_slots": 1, "extra": {"uid": "427141973", "number": "34456", "slots": 10, "bike_uids": ["377583", "377567", "377549", "377545", "377528", "377524", "377500", "372492", "372484"], "virtual": false}}]}