{"id": "bicincitta-livorno", "name": "Bicincitt\u00e0", "location": {"latitude": 43.548473, "longitude": 10.3105674, "city": "Livorno", "country": "IT"}, "href": "/v2/networks/bicincitta-livorno", "company": ["Comunicare S.r.l."], "system": "Bicincitt\u00e0", "source": "https://www.bicincitta.com/frmLeStazioni.aspx?ID=226", "stations": [{"id": "1775618cc370e0a7997ec3258883405f", "name": "05. Mazzini", "latitude": 43.54516545085783, "longitude": 10.304402817127198, "timestamp": "2025-05-03T03:03:53.538887+00:00Z", "free_bikes": 0, "empty_slots": 3, "extra": {"uid": "1423", "number": 5, "status": "online", "score": 1.0, "reviews": 1}}, {"id": "35cce10d21212ce14b6aba41b6c45d68", "name": "08. Villa Fabbricotti", "latitude": 43.53700752877481, "longitude": 10.318577196017486, "timestamp": "2025-05-03T03:03:53.538910+00:00Z", "free_bikes": 1, "empty_slots": 3, "extra": {"uid": "1511", "number": 8, "status": "online", "score": 1.0, "reviews": 1}}, {"id": "59168cfee974ffe5614c78d34f62ba1b", "name": "03. Repubblica", "latitude": 43.55299081749732, "longitude": 10.313041197342045, "timestamp": "2025-05-03T03:03:53.538815+00:00Z", "free_bikes": 1, "empty_slots": 2, "extra": {"uid": "1421", "number": 3, "status": "online", "score": 1.0, "reviews": 1}}, {"id": "59b2a8a636972daa2816f8c47a3aeb8d", "name": "10. Parco Pertini", "latitude": 43.552972, "longitude": 10.321861, "timestamp": "2025-05-03T03:03:53.538983+00:00Z", "free_bikes": 2, "empty_slots": 3, "extra": {"uid": "1665", "number": 10, "status": "online", "score": 1.0, "reviews": 1}}, {"id": "5bcc94791abc54e5cf2514596166b99d", "name": "02. Cavour", "latitude": 43.54755177389009, "longitude": 10.311418459524475, "timestamp": "2025-05-03T03:03:53.538799+00:00Z", "free_bikes": 2, "empty_slots": 3, "extra": {"uid": "1420", "number": 2, "status": "offline", "score": 1.0, "reviews": 1}}, {"id": "962156c6d73599769129e5d49be11382", "name": "06. Ospedale", "latitude": 43.5487048631854, "longitude": 10.327405641731048, "timestamp": "2025-05-03T03:03:53.538900+00:00Z", "free_bikes": 0, "empty_slots": 5, "extra": {"uid": "1424", "number": 6, "status": "online", "score": 1.0, "reviews": 1}}, {"id": "a2e78736de48d892ff0a971b822e4d43", "name": "01. Municipio", "latitude": 43.55211933346912, "longitude": 10.308314977575947, "timestamp": "2025-05-03T03:03:53.538729+00:00Z", "free_bikes": 2, "empty_slots": 11, "extra": {"uid": "1419", "number": 1, "status": "offline", "score": 0.8, "reviews": 2}}, {"id": "c6e7d9382f04272568965b11165f8845", "name": "04. Stazione", "latitude": 43.55356958677043, "longitude": 10.335602989479867, "timestamp": "2025-05-03T03:03:53.538867+00:00Z", "free_bikes": 2, "empty_slots": 3, "extra": {"uid": "1422", "number": 4, "status": "online", "score": 1.0, "reviews": 1}}, {"id": "e0a7744e9e2a81f2f5a80a5d0bfe2a90", "name": "09. Sant'Jacopo", "latitude": 43.53032574342833, "longitude": 10.306091942397302, "timestamp": "2025-05-03T03:03:53.538967+00:00Z", "free_bikes": 0, "empty_slots": 0, "extra": {"uid": "1512", "number": 9, "status": "offline", "score": 1.0, "reviews": 1}}]}