{"id": "bicimislata", "name": "BiciMislata", "location": {"latitude": 39.4763, "longitude": -0.4182, "city": "Mislata", "country": "ES"}, "href": "/v2/networks/bicimislata", "company": ["Movilidad Urbana Sostenible, S.L"], "system": "Nextbike", "stations": [{"id": "0273d05f9496b1e6abc5bfb9ba4ebfd7", "name": "307 - Parque Canaleta", "latitude": 39.47961, "longitude": -0.414875, "timestamp": "2025-05-03T02:57:41.420960+00:00Z", "free_bikes": 2, "empty_slots": 6, "extra": {"uid": "141787876", "number": "34427", "slots": 8, "bike_uids": ["377035", "377020"], "virtual": false}}, {"id": "098988b03954bd25e45962290f623564", "name": "314 - Constituci\u00f3n", "latitude": 39.475153, "longitude": -0.417661, "timestamp": "2025-05-03T02:57:41.421065+00:00Z", "free_bikes": 2, "empty_slots": 6, "extra": {"uid": "141789286", "number": "34434", "slots": 8, "bike_uids": ["377038", "377029"], "virtual": false}}, {"id": "234485088bcf4a5836da243bbecddd43", "name": "309 - Valencia", "latitude": 39.472894, "longitude": -0.40822, "timestamp": "2025-05-03T02:57:41.420985+00:00Z", "free_bikes": 0, "empty_slots": 4, "extra": {"uid": "141788134", "number": "34429", "slots": 4, "bike_uids": [], "virtual": false}}, {"id": "4938629c80e96c74df1fe8e76e66181f", "name": "303 - Dolores Ibarruri", "latitude": 39.480517, "longitude": -0.423313, "timestamp": "2025-05-03T02:57:41.420917+00:00Z", "free_bikes": 0, "empty_slots": 12, "extra": {"uid": "141786882", "number": "34423", "slots": 12, "bike_uids": [], "virtual": false}}, {"id": "6e9d0cd78a16f09ab70f4fc7041bbbcf", "name": "304 - Pais Valenciano", "latitude": 39.478225, "longitude": -0.422695, "timestamp": "2025-05-03T02:57:41.420928+00:00Z", "free_bikes": 1, "empty_slots": 7, "extra": {"uid": "141787152", "number": "34424", "slots": 10, "bike_uids": ["377017"], "virtual": false}}, {"id": "7f60e7904bb13ddfe9b1e29aa9e0f98a", "name": "311 - Victoria Kent ", "latitude": 39.471319, "longitude": -0.415256, "timestamp": "2025-05-03T02:57:41.421022+00:00Z", "free_bikes": 3, "empty_slots": 7, "extra": {"uid": "141788424", "number": "34431", "slots": 10, "bike_uids": ["377027", "377022", "377012"], "virtual": false}}, {"id": "8c067024e7e35b87f33b1c440e4e2b08", "name": "310 - Palleter", "latitude": 39.471947, "longitude": -0.411777, "timestamp": "2025-05-03T02:57:41.420994+00:00Z", "free_bikes": 1, "empty_slots": 11, "extra": {"uid": "141788261", "number": "34430", "slots": 12, "bike_uids": ["377019"], "virtual": false}}, {"id": "99b235ac324abd0d38fe815e66c48f5d", "name": "312 - Vicente Salvatierra", "latitude": 39.471118, "longitude": -0.420481, "timestamp": "2025-05-03T02:57:41.421038+00:00Z", "free_bikes": 3, "empty_slots": 5, "extra": {"uid": "141789033", "number": "34432", "slots": 8, "bike_uids": ["377036", "377028", "377009"], "virtual": false}}, {"id": "9a18ee7eb3385ef6ee031e06518ba2ef", "name": "315 - Cardenal Benlloch", "latitude": 39.473895, "longitude": -0.421263, "timestamp": "2025-05-03T02:57:41.421079+00:00Z", "free_bikes": 2, "empty_slots": 6, "extra": {"uid": "141789369", "number": "34435", "slots": 8, "bike_uids": ["377023", "377054"], "virtual": false}}, {"id": "c60a10b74b34fdbf6c6f70c505783796", "name": "313 - Alaqu\u00e0s", "latitude": 39.469234, "longitude": -0.427546, "timestamp": "2025-05-03T02:57:41.421051+00:00Z", "free_bikes": 2, "empty_slots": 2, "extra": {"uid": "141789186", "number": "34433", "slots": 4, "bike_uids": ["377024", "377015"], "virtual": false}}, {"id": "cd674bc135f40aae7cd4f6cf4f947386", "name": "308 - Cruz Roja", "latitude": 39.47501, "longitude": -0.411373, "timestamp": "2025-05-03T02:57:41.420974+00:00Z", "free_bikes": 0, "empty_slots": 9, "extra": {"uid": "141788003", "number": "34428", "slots": 10, "bike_uids": [], "virtual": false}}, {"id": "d5fe1136514cc905e887af9627a43448", "name": "301 - Gregorio Gea", "latitude": 39.47401, "longitude": -0.418291, "timestamp": "2025-05-03T02:57:41.420870+00:00Z", "free_bikes": 2, "empty_slots": 8, "extra": {"uid": "141785790", "number": "34421", "slots": 10, "bike_uids": ["377032", "377013"], "virtual": false}}, {"id": "edd0573f664434174218332828bf4168", "name": "302 - Plaza Mayor", "latitude": 39.476, "longitude": -0.423925, "timestamp": "2025-05-03T02:57:41.420904+00:00Z", "free_bikes": 0, "empty_slots": 12, "extra": {"uid": "141786214", "number": "34422", "slots": 12, "bike_uids": [], "virtual": false}}]}