{"id": "bicicletar", "name": "Bicicletar", "location": {"latitude": -3.7321944, "longitude": -38.510347, "city": "Fortaleza", "country": "BR"}, "href": "/v2/networks/bicicletar", "company": ["Mobilicidade Tecnologia LTD", "Grupo Serttel LTDA"], "system": "Samba", "stations": [{"id": "002e19592da1093fd5a5ac419eb12bfc", "name": "Posto do Floresta", "latitude": -3.71756, "longitude": -38.57183, "timestamp": "2024-08-15T11:37:24.173145Z", "free_bikes": 11, "empty_slots": 1, "extra": {"address": "", "description": "Rua Tenente Jos\u00e9 Barreira, 251 - \u00c1lvaro Weyne", "status": "open"}}, {"id": "01025475ee19e319dcece31c46d75ce6", "name": "Shopping RioMar", "latitude": -3.7417049, "longitude": -38.473321, "timestamp": "2024-08-15T11:37:24.167743Z", "free_bikes": 2, "empty_slots": 14, "extra": {"address": "", "description": "Rua Des. Lauro Nogueira, em frente ao Shopping Rio Mar / Oposto ao Coelce - Subesta\u00e7\u00e3o Papicu", "status": "open"}}, {"id": "01b15854500803fdee499450256c5308", "name": "Shopping Del Paseo", "latitude": -3.7367176, "longitude": -38.49683, "timestamp": "2024-08-15T11:37:24.166856Z", "free_bikes": 3, "empty_slots": 13, "extra": {"address": "Shopping Del Paseo", "description": "Avenida Santos Dumont, 3131 (Shopping del Paseo) / Esquina Rua Leonardo Mota", "status": "open"}}, {"id": "020d9c13f6c112d8e963356891e73e6b", "name": "C\u00e2mara Municipal de Fortaleza", "latitude": -3.76782, "longitude": -38.49664, "timestamp": "2024-08-15T11:37:24.172432Z", "free_bikes": 7, "empty_slots": 14, "extra": {"address": "", "description": "Rua Dr. Thompson Bulc\u00e3o com Av. Rogaciano Leite", "status": "open"}}, {"id": "0685b9396b8b81639a9704a9a3751135", "name": "Correios Oliveira Paiva", "latitude": -3.79607, "longitude": -38.48338, "timestamp": "2024-08-15T11:37:24.172510Z", "free_bikes": 0, "empty_slots": 12, "extra": {"address": "", "description": "Avenida Oliveira Paiva 2800", "status": "open"}}, {"id": "077b6a170a4df0f579959a2d616e0839", "name": "Caixa Conjunto Cear\u00e1", "latitude": -3.774751, "longitude": -38.605353, "timestamp": "2024-08-15T11:37:24.172995Z", "free_bikes": 5, "empty_slots": 7, "extra": {"address": "", "description": "Av. H, antes da esquina com Av. A, pr\u00f3ximo ao estacionamento de ve\u00edculos na lateral da quadra. Na pra\u00e7a da Caixa", "status": "open"}}, {"id": "07e1f7a805a3cbf79cccf43614dbb20c", "name": "SENAI Jacarecanga", "latitude": -3.7260305, "longitude": -38.540672, "timestamp": "2024-08-15T11:37:24.167821Z", "free_bikes": 3, "empty_slots": 13, "extra": {"address": "", "description": "Rua Padre Ibiapina, em frente ao SENAI / Esquina com a Rua J\u00falio Pinto", "status": "open"}}, {"id": "0827f7b0b48cf5275f3ffc4cb363a9d6", "name": "Pra\u00e7a Parque das Na\u00e7\u00f5es", "latitude": -3.78445, "longitude": -38.556, "timestamp": "2024-08-15T11:37:24.172814Z", "free_bikes": 7, "empty_slots": 5, "extra": {"address": "", "description": "Rua Per\u00fa, oposto ao n1978. Na pra\u00e7a Parque das na\u00e7\u00f5es", "status": "open"}}, {"id": "0c01bce53a75b49311f0f7eb55f4448e", "name": "Aterro Praia de Iracema", "latitude": -3.722631, "longitude": -38.507242, "timestamp": "2024-08-15T11:37:24.166926Z", "free_bikes": 13, "empty_slots": 7, "extra": {"address": "", "description": "Av. Historiador Raimundo Gir\u00e3o pr\u00f3ximo \u00e0 Rua Carlos Vasconcelos. No cal\u00e7ad\u00e3o", "status": "open"}}, {"id": "0d42ded0886719ca45cc8521506a9c4e", "name": "Lago Jacarey - Minibicicletar", "latitude": -3.8014427, "longitude": -38.490322, "timestamp": "2024-08-15T11:37:24.173281Z", "free_bikes": 4, "empty_slots": 4, "extra": {"address": "", "description": "Av. Viena Weyne, oposto ao n450. Em frente ao Tch\u00eas Burguers.", "status": "open"}}, {"id": "0d6d8a61ae920bf610ca05cc273b768a", "name": "BNB Clube", "latitude": -3.7386073, "longitude": -38.491576, "timestamp": "2024-08-15T11:37:24.166863Z", "free_bikes": 5, "empty_slots": 7, "extra": {"address": "BNB Clube", "description": "Avenida Santos Dumont, oposto ao BNB Clube / Esquina Rua Coronel Juc\u00e1", "status": "open"}}, {"id": "0dddd16fdceabe17abdae7788c56e0b6", "name": "Codisman Rogaciano Leite", "latitude": -3.77095, "longitude": -38.49801, "timestamp": "2024-08-15T11:37:24.172439Z", "free_bikes": 8, "empty_slots": 8, "extra": {"address": "", "description": "Avenida Rogaciano Leite 1815", "status": "open"}}, {"id": "0ee2bf210bd04c81b94e1a7a34110e96", "name": "Nidobox - Des. Praxedes", "latitude": -3.75907, "longitude": -38.55032, "timestamp": "2024-08-15T11:37:24.172699Z", "free_bikes": 6, "empty_slots": 8, "extra": {"address": "", "description": "Rua Desembargador Praxedes com Rua J\u00falio C\u00e9sar", "status": "open"}}, {"id": "0f13728fa1cd325c11519c6e055a69a8", "name": "Centro de Humanidades - UECE", "latitude": -3.7506302, "longitude": -38.531948, "timestamp": "2024-08-15T11:37:24.167608Z", "free_bikes": 2, "empty_slots": 10, "extra": {"address": "", "description": "Rua Ministro Joaquim Bastos, em frente ao Centro de Humanidade / Esquina Rua Monsenhor Liberato", "status": "open"}}, {"id": "0fb6ee3878aabc1f80e4ee126989a458", "name": "Center Box - Cel. Carvalho", "latitude": -3.71407, "longitude": -38.58888, "timestamp": "2024-08-15T11:37:24.173191Z", "free_bikes": 8, "empty_slots": 4, "extra": {"address": "", "description": "Av. Cel. Carvalho esquina com a Av. Desembargador Hermes Para\u00edba, pr\u00f3ximo ao Centerbox", "status": "open"}}, {"id": "10ed1d5260a8aa3c5f3e9243a5b4d760", "name": "Regional 10", "latitude": -3.787444, "longitude": -38.585417, "timestamp": "2024-08-15T11:37:24.172908Z", "free_bikes": 1, "empty_slots": 11, "extra": {"address": "", "description": "Av. Os\u00f3rio de Paiva, em frente a Regional 10", "status": "open"}}, {"id": "1144482c01ad68c86cb263a516a60cb5", "name": "Areninha Antony Costa", "latitude": -3.74469, "longitude": -38.58982, "timestamp": "2024-08-15T11:37:24.173071Z", "free_bikes": 11, "empty_slots": 1, "extra": {"address": "", "description": "Rua Professor Joaquim Nogueira, pr\u00f3ximo a Areninha Antony Costa", "status": "open"}}, {"id": "11657cbadba713ea2fe8f856bf374374", "name": "Cidade da Crian\u00e7a -   Minibicicletar", "latitude": -3.73113, "longitude": -38.52541, "timestamp": "2024-08-15T11:37:24.173320Z", "free_bikes": 6, "empty_slots": 2, "extra": {"address": "", "description": "Dentro do Parque da Liberdade/Cidade da Crian\u00e7a, pr\u00f3ximo da Av. Visconde do Rio Branco", "status": "open"}}, {"id": "11ae661b2fc6492074f858018417c44e", "name": "Igreja de Nazar\u00e9", "latitude": -3.7565373, "longitude": -38.540685, "timestamp": "2024-08-15T11:37:24.167133Z", "free_bikes": 4, "empty_slots": 8, "extra": {"address": "", "description": "Rua Padre Jos\u00e9 Piamarta, 128 / Esquina Rua Andr\u00e9 Chaves", "status": "open"}}, {"id": "127c265bf0d58919858e07cb8f447bec", "name": "Conjunto Padre H\u00e9lio Campos", "latitude": -3.71186, "longitude": -38.57386, "timestamp": "2024-08-15T11:37:24.173197Z", "free_bikes": 5, "empty_slots": 7, "extra": {"address": "", "description": "Av. Francisco s\u00e1, em frente aon\u00famero 5545", "status": "open"}}, {"id": "132f1d827a2efa50b91e9ab745ce3839", "name": "Theberge", "latitude": -3.71006, "longitude": -38.5633, "timestamp": "2024-08-15T11:37:24.167866Z", "free_bikes": 8, "empty_slots": 8, "extra": {"address": "", "description": "Canteiro central da Av. Presidente Castelo Branco esquina com a Av. Doutor Theberge", "status": "open"}}, {"id": "17d3e8bf2b51a0419316af5688c1b200", "name": "Viena Weyne", "latitude": -3.80042, "longitude": -38.49408, "timestamp": "2024-08-15T11:37:24.172553Z", "free_bikes": 1, "empty_slots": 15, "extra": {"address": "", "description": "Av. Viena Weyne ao lado da rotat\u00f3ria, pr\u00f3ximo ao Parrileiro", "status": "open"}}, {"id": "181ba157b6ff29eef217fa2f413279ce", "name": "Pra\u00e7a Lu\u00edza T\u00e1vora - Minibicicletar", "latitude": -3.7321623, "longitude": -38.509917, "timestamp": "2024-08-15T11:37:24.173266Z", "free_bikes": 7, "empty_slots": 1, "extra": {"address": "", "description": "Avenida Santos Dumont, oposto ao n\u00famero 1546, ao lado da Coord. do Gov. do Estado do Cear\u00e1 / Esquina com a Carlos Vasconcelos", "status": "open"}}, {"id": "187eed085b44d477381fd58fa480a3e4", "name": "Dom Lino", "latitude": -3.73558, "longitude": -38.55725, "timestamp": "2024-08-15T11:37:24.172363Z", "free_bikes": 10, "empty_slots": 6, "extra": {"address": "", "description": "Rua Dom Lino. Esquina com Rua Gustavo Sampaio", "status": "open"}}, {"id": "1c3a1101f9d49ae39d7f755ad745d2f4", "name": "Shopping Benfica", "latitude": -3.7388161, "longitude": -38.539513, "timestamp": "2024-08-15T11:37:24.167032Z", "free_bikes": 3, "empty_slots": 13, "extra": {"address": "Shopping Benfica", "description": "Rua Juvenal Galeno, lateral do Shopping Benfica / Esquina Avenida Carapinima", "status": "open"}}, {"id": "1d6169c64d3174afbcc3e8e62ea52191", "name": "Anfiteatro Parque do Coc\u00f3", "latitude": -3.7439627, "longitude": -38.48567, "timestamp": "2024-08-15T11:37:24.167692Z", "free_bikes": 5, "empty_slots": 16, "extra": {"address": "Parque do Coc\u00f3", "description": "Avenida Padre Ant\u00f4nio Tom\u00e1s, em frente ao Anfiteatro do Coc\u00f3 / Esquina Rua Valdet\u00e1rio Mota", "status": "open"}}, {"id": "1f7cf51d436ede4c6749d2c4cd8e5d3f", "name": "Detran Messejana", "latitude": -3.8233, "longitude": -38.49458, "timestamp": "2024-08-15T11:37:24.172588Z", "free_bikes": 2, "empty_slots": 14, "extra": {"address": "", "description": "R. Vasco de Ata\u00edde com Av. Frei Cirilo", "status": "open"}}, {"id": "2001ad04d8a78bf19416487c5784710f", "name": "Areninha Thauzer Parente", "latitude": -3.724159, "longitude": -38.592933, "timestamp": "2024-08-15T11:37:24.173178Z", "free_bikes": 5, "empty_slots": 7, "extra": {"address": "", "description": "Rua George Cavalcante esquina com a Rua Profa. Maria Clara, ao lado da Areninha Thauzer Parente", "status": "open"}}, {"id": "2171b0275fd9a51117b3d7a7e03fa8aa", "name": "Parque Rachel de Queiroz - Minibicicletar", "latitude": -3.73371, "longitude": -38.56911, "timestamp": "2024-08-15T11:37:24.173334Z", "free_bikes": 6, "empty_slots": 2, "extra": {"address": "", "description": "Avenida Governador Parsifal Barroso, dentro do Parque Rachel de Queiroz", "status": "open"}}, {"id": "219a38c445fabb88d4b485fe70a86f66", "name": "Praca do Polar", "latitude": -3.71004, "longitude": -38.59319, "timestamp": "2024-08-15T11:37:24.173051Z", "free_bikes": 7, "empty_slots": 7, "extra": {"address": "", "description": "Av. Mozart Pinheiro Lucena, na Pra\u00e7a do Polar", "status": "open"}}, {"id": "224a4a8c2e51b430b51d20bdf6c3538b", "name": "Arca Mania", "latitude": -3.71699, "longitude": -38.55824, "timestamp": "2024-08-15T11:37:24.167972Z", "free_bikes": 4, "empty_slots": 8, "extra": {"address": "", "description": "Rua \u00c1lvaro Alencar, esquina com Av. Francisco S\u00e1.", "status": "open"}}, {"id": "22a333ef1dbe0879aa100d5596c4cb7f", "name": "IMPARH", "latitude": -3.76047, "longitude": -38.55645, "timestamp": "2024-08-15T11:37:24.172767Z", "free_bikes": 6, "empty_slots": 6, "extra": {"address": "", "description": "Rua Irm\u00e3 Bazet 30", "status": "open"}}, {"id": "22ce401198c5bf96c03699fa40ad0e0f", "name": "Gonzaguinha Messejana", "latitude": -3.82294, "longitude": -38.48148, "timestamp": "2024-08-15T11:37:24.173132Z", "free_bikes": 6, "empty_slots": 6, "extra": {"address": "", "description": "Av. Washington Soares, 8130", "status": "open"}}, {"id": "232a5699ae7d0eacf33cfa49bab54426", "name": "Terminal Lagoa", "latitude": -3.77094, "longitude": -38.57073, "timestamp": "2024-08-15T11:37:24.172847Z", "free_bikes": 0, "empty_slots": 21, "extra": {"address": "", "description": "Av. Augusto dos Anjos 194", "status": "open"}}, {"id": "23c8063d0bdf550227f44c175f738faa", "name": "Her\u00e1clito Gra\u00e7a", "latitude": -3.73438, "longitude": -38.52204, "timestamp": "2024-08-15T11:37:24.173057Z", "free_bikes": 0, "empty_slots": 12, "extra": {"address": "Pr\u00f3ximo ao Banco Central", "description": "Endere\u00e7o: Rua Her\u00e1clito Gra\u00e7a, 300.", "status": "open"}}, {"id": "2439deb378f043329196e0932c0052bb", "name": "Santa Cec\u00edlia", "latitude": -3.7436466, "longitude": -38.495549, "timestamp": "2024-08-15T11:37:24.167784Z", "free_bikes": 1, "empty_slots": 11, "extra": {"address": "", "description": "Rua Vicente Linhares, lateral Col\u00e9gio Santa Cec\u00edlia / Esquina com a Avenida Senador Virg\u00edlio T\u00e1vora", "status": "open"}}, {"id": "24bb5161453ad91f2d1fc01ab1c1d9f9", "name": "Drag\u00e3o do Mar", "latitude": -3.7218335, "longitude": -38.519528, "timestamp": "2024-08-15T11:37:24.166961Z", "free_bikes": 0, "empty_slots": 20, "extra": {"address": "Drag\u00e3o do Mar", "description": "Rua Drag\u00e3o do Mar, em frente ao Centro Drag\u00e3o do Mar / Esquina Rua Almirante Jaceguai", "status": "open"}}, {"id": "24dcffd1792940cf795b5fdda6e9a091", "name": "Santa Rosa", "latitude": -3.71231, "longitude": -38.55328, "timestamp": "2024-08-15T11:37:24.167852Z", "free_bikes": 2, "empty_slots": 14, "extra": {"address": "", "description": "Canteiro central da Av. Castelo Branco em frente ao n\u00famero 2856 - pr\u00f3ximo \u00e0 rua Santa Rosa", "status": "open"}}, {"id": "251df1c24068328d1582bb040e960eff", "name": "Cal\u00e7ad\u00e3o Crasa", "latitude": -3.7282524, "longitude": -38.545217, "timestamp": "2024-08-15T11:37:24.167806Z", "free_bikes": 12, "empty_slots": 0, "extra": {"address": "", "description": "Avenida Jos\u00e9 Jatahy, em frente a Mitsubishi, no cal\u00e7ad\u00e3o Crasa / Esquina com a Travessa Epif\u00e2nio Leite", "status": "open"}}, {"id": "252c1b0f753d0da41593eb7e64fc39b8", "name": "Pra\u00e7a Padre C\u00edcero", "latitude": -3.82845, "longitude": -38.55978, "timestamp": "2024-08-15T11:37:24.173111Z", "free_bikes": 10, "empty_slots": 2, "extra": {"address": "", "description": "Av. Bernardo Manuel, 12650 - Pref. Jos\u00e9 Walter", "status": "open"}}, {"id": "25d09523cd3536bb0acb1270c4d9cb15", "name": "North Shopping J\u00f3quei", "latitude": -3.766, "longitude": -38.57489, "timestamp": "2024-08-15T11:37:24.172854Z", "free_bikes": 2, "empty_slots": 10, "extra": {"address": "", "description": "Av. Senador Fernandes T\u00e1vora em frente \u00e0 Tv. Helena Maria", "status": "open"}}, {"id": "2615e802de587bdee397cc54bd89ff0e", "name": "Polo de Lazer do Jos\u00e9 Walter - Mini Bicicletar", "latitude": -3.83628, "longitude": -38.55519, "timestamp": "2024-08-15T11:37:24.173340Z", "free_bikes": 1, "empty_slots": 7, "extra": {"address": "", "description": "Av. E - Pref. Jos\u00e9 Walter", "status": "open"}}, {"id": "268be1f0dfadf5307fc6cbd622d66831", "name": "N\u00e1utico", "latitude": -3.72593, "longitude": -38.49408, "timestamp": "2024-08-15T11:37:24.166932Z", "free_bikes": 7, "empty_slots": 21, "extra": {"address": "", "description": "Av. Beira Mar 2892. Em frente ao 50 Sabores", "status": "open"}}, {"id": "26f8bfb7655acb73c7cbeb13f10760a4", "name": "Cagece - Pra\u00e7a do Vaqueiro", "latitude": -3.77182, "longitude": -38.53537, "timestamp": "2024-08-15T11:37:24.172671Z", "free_bikes": 2, "empty_slots": 12, "extra": {"address": "", "description": "Av. Lauro Vi\u00eaira Chaves 888", "status": "open"}}, {"id": "281d1462235507849c2eb43e7ac9f711", "name": "Pra\u00e7a da Juventude", "latitude": -3.77801, "longitude": -38.60027, "timestamp": "2024-08-15T11:37:24.172988Z", "free_bikes": 8, "empty_slots": 6, "extra": {"address": "", "description": "Rua Emilio de Menezes esquina com a Rua Ant\u00f4nio Nery, na pra\u00e7a da Juventude", "status": "open"}}, {"id": "2848dd7b0b20c0cfd4f71f8026a55ab8", "name": "Pra\u00e7a do Henrique Jorge", "latitude": -3.76035, "longitude": -38.58528, "timestamp": "2024-08-15T11:37:24.172929Z", "free_bikes": 4, "empty_slots": 8, "extra": {"address": "", "description": "Av. Senador Fernandes T\u00e1vora, na Pra\u00e7a do Henrique Jorge", "status": "open"}}, {"id": "2863046db5aafa0677f18e4aef0c4277", "name": "Banco do Brasil - 13 de Maio", "latitude": -3.7483832, "longitude": -38.53024, "timestamp": "2024-08-15T11:37:24.167600Z", "free_bikes": 3, "empty_slots": 9, "extra": {"address": "", "description": "Rua Padre Barbosa de Jesus, oposto ao n\u00famero 1345 / Esquina com a Avenida 13 de Maio", "status": "open"}}, {"id": "2aa4d465e7c637d9d8e6a20ef2299db0", "name": "N\u00e1utico - Mini Bicicletar", "latitude": -3.72571, "longitude": -38.49404, "timestamp": "2024-08-15T11:37:24.173326Z", "free_bikes": 5, "empty_slots": 7, "extra": {"address": "", "description": "Av. Beira Mar 2892. Em frente ao 50 Sabores", "status": "open"}}, {"id": "2aa9c3561cab8bd62e0e028823625890", "name": "Jos\u00e9 Vilar", "latitude": -3.7341732, "longitude": -38.504149, "timestamp": "2024-08-15T11:37:24.166849Z", "free_bikes": 3, "empty_slots": 13, "extra": {"address": "Restaurante Zahl\u00e9", "description": "Rua Jos\u00e9 Vilar, lateral do 2353 (Restaurante Zahl\u00e9) / Esquina Avenida Santos Dumont", "status": "open"}}, {"id": "2bd6659af492b8bf393a02f1a608cb7a", "name": "Pav\u00e3o Misterioso", "latitude": -3.78193, "longitude": -38.58065, "timestamp": "2024-08-15T11:37:24.172901Z", "free_bikes": 8, "empty_slots": 6, "extra": {"address": "", "description": "Av. Augusto dos Anjos, esquina com R. Araraquara", "status": "open"}}, {"id": "2c7a351ab8158090ad33dc7889b88e0a", "name": "Pra\u00e7a Martins Dourado", "latitude": -3.7454786, "longitude": -38.475818, "timestamp": "2024-08-15T11:37:24.167721Z", "free_bikes": 3, "empty_slots": 11, "extra": {"address": "", "description": "Rua Almeida Prado, no estacionamento da Pra\u00e7a Martins Dourado / Esquina Rua Doutor Gilberto Studart", "status": "open"}}, {"id": "2f5149bc583926d8f6f5c0b9cabf85ec", "name": "Pergentino Ferreira", "latitude": -3.7486043, "longitude": -38.523923, "timestamp": "2024-08-15T11:37:24.167571Z", "free_bikes": 3, "empty_slots": 9, "extra": {"address": "", "description": "Avenida Aguanambi, em frente ao EXTRA / Esquina com a Rua Coronel Pergentino Ferreira", "status": "open"}}, {"id": "2f8580c2e8bc0e9b0ce5c2f6edc5f4a6", "name": "Igreja N. S. Aparecida - Montese", "latitude": -3.76839, "longitude": -38.55147, "timestamp": "2024-08-15T11:37:24.172780Z", "free_bikes": 2, "empty_slots": 10, "extra": {"address": "", "description": "Rua Aquiles Boris, esquina com Rua Isaias Boris. No estacionamento da Igreja N. S. Aparecida", "status": "open"}}, {"id": "2fdcf4893d9c7540ce5668b5d5dbed2e", "name": "Credlar - Silas Munguba", "latitude": -3.78833, "longitude": -38.54673, "timestamp": "2024-08-15T11:37:24.172800Z", "free_bikes": 5, "empty_slots": 11, "extra": {"address": "", "description": "Rua Afonso Lopes 161, esquina com Av. Dr. Silas Munguba. Em frente a Credlar", "status": "open"}}, {"id": "301dfa83b92414fe4936004224f49d90", "name": "Shopping Iguatemi", "latitude": -3.7579316, "longitude": -38.488334, "timestamp": "2024-08-15T11:37:24.167749Z", "free_bikes": 1, "empty_slots": 20, "extra": {"address": "", "description": "Avenida Coronel Miguel Dias, lateral do Shopping Ouro Verde / Esquina com a Avenida Washington Soares", "status": "open"}}, {"id": "305ee49d195ac980b58219ce8ab2ad94", "name": "Mini Terminal Jos\u00e9 Walter", "latitude": -3.8212, "longitude": -38.55837, "timestamp": "2024-08-15T11:37:24.173097Z", "free_bikes": 5, "empty_slots": 9, "extra": {"address": "Em frente ao Mix Matheus", "description": "Av. Bernardo Manuel esquina com a Av. Presidente Costa e Silva", "status": "open"}}, {"id": "3090591373396615faf3973ff377f982", "name": "FIC Aldeota", "latitude": -3.742715, "longitude": -38.501572, "timestamp": "2024-08-15T11:37:24.166997Z", "free_bikes": 2, "empty_slots": 10, "extra": {"address": "FIC Aldeota", "description": "Rua Visconde de Mau\u00e1, em frente ao FIC Aldeota / Esquina Rua General Tertuliano Potiguara", "status": "open"}}, {"id": "30f0110f7ae12eccb22bce963254d37e", "name": "Pra\u00e7a Joaquim Nogueira", "latitude": -3.73828, "longitude": -38.59427, "timestamp": "2024-08-15T11:37:24.173158Z", "free_bikes": 6, "empty_slots": 6, "extra": {"address": "", "description": "R. Sao Vicente de Paulo - Ant\u00f4nio Bezerra, Fortaleza", "status": "open"}}, {"id": "31b85495f91322f53e65000c6c058322", "name": "Pra\u00e7a Vila Uni\u00e3o", "latitude": -3.7686, "longitude": -38.53382, "timestamp": "2024-08-15T11:37:24.172664Z", "free_bikes": 7, "empty_slots": 7, "extra": {"address": "", "description": "Rua Lineu Juc\u00e1 297", "status": "open"}}, {"id": "32617b5ac94d14c3859901ddda54c6a1", "name": "Mercado dos Peixes Vila do Mar", "latitude": -3.69478, "longitude": -38.58135, "timestamp": "2024-08-15T11:37:24.167919Z", "free_bikes": 5, "empty_slots": 9, "extra": {"address": "", "description": "Rua Jos\u00e9 Roberto Sales pr\u00f3ximo ao Centro para idosos da barra do Cear\u00e1", "status": "open"}}, {"id": "34b5a392ba5cdcab8fdfaf4e1f014d0c", "name": "Igreja N. S. Sa\u00fade", "latitude": -3.72523, "longitude": -38.484439, "timestamp": "2024-08-15T11:37:24.173022Z", "free_bikes": 13, "empty_slots": 3, "extra": {"address": "", "description": "Endere\u00e7o Rua Tereza Hinko, 252", "status": "open"}}, {"id": "357713254bdab306bf493e2951ce8d87", "name": "Polo de Lazer Sargento Herm\u00ednio", "latitude": -3.728191, "longitude": -38.555696, "timestamp": "2024-08-15T11:37:24.168003Z", "free_bikes": 10, "empty_slots": 6, "extra": {"address": "", "description": "Rua Aristides Barreto Neto, pr\u00f3ximo da Capela da M\u00e3e Rainha", "status": "open"}}, {"id": "3811731c92b1677bd3b32cc3a8cea2d0", "name": "Pra\u00e7a da Justi\u00e7a", "latitude": -3.77307, "longitude": -38.47568, "timestamp": "2024-08-15T11:37:24.172417Z", "free_bikes": 1, "empty_slots": 11, "extra": {"address": "", "description": "Rua Vereador Jos\u00e9 Batista Barbosa, na pra\u00e7a da Justi\u00e7a", "status": "open"}}, {"id": "38a2c4d8b6195d12252b3a393a146234", "name": "Shopping Fortaleza Sul", "latitude": -3.7597, "longitude": -38.53491, "timestamp": "2024-08-15T11:37:24.172650Z", "free_bikes": 10, "empty_slots": 2, "extra": {"address": "", "description": "Av. Luciano Carneiro 1333. Em frente ao Shopping Fortaleza Sul", "status": "open"}}, {"id": "39e1033a51b23206d56e6ea35371d9df", "name": "PSF Mariusa Silva de Sousa", "latitude": -3.78181, "longitude": -38.58392, "timestamp": "2024-08-15T11:37:24.173036Z", "free_bikes": 1, "empty_slots": 11, "extra": {"address": "", "description": "Rua Ara\u00e7\u00e1 esquina com a Rua Vital Brasil, pr\u00f3ximo do Posto de Sa\u00fade Mariusa Silva de Sousa", "status": "open"}}, {"id": "3bb7c8cb9d2678162dccb7563da40a9c", "name": "Areninha do Vila do Mar", "latitude": -3.70305, "longitude": -38.56757, "timestamp": "2024-08-15T11:37:24.167926Z", "free_bikes": 3, "empty_slots": 11, "extra": {"address": "", "description": "Rua Santa Elisa, pr\u00f3ximo a nova areninha do Pirambu", "status": "open"}}, {"id": "3bc16adec5560f20396ee436ba4e2d6b", "name": "Mercado S\u00e3o Sebasti\u00e3o", "latitude": -3.73037, "longitude": -38.5399, "timestamp": "2024-08-15T11:37:24.172378Z", "free_bikes": 4, "empty_slots": 12, "extra": {"address": "", "description": "Rua Padre Ibiapina com Rua Meton de Alencar", "status": "open"}}, {"id": "3c07e9cb23470fa75bbf3a3960ab2fe6", "name": "Supermercado Guar\u00e1 - Theberge", "latitude": -3.72293, "longitude": -38.56745, "timestamp": "2024-08-15T11:37:24.172318Z", "free_bikes": 5, "empty_slots": 11, "extra": {"address": "", "description": "Av. Doutor Theberge, na cal\u00e7ada da pista sul-norte pr\u00f3ximo ao Guara", "status": "open"}}, {"id": "3d2a04deb58950f5011160da671fbc50", "name": "Parque Bis\u00e3o -  Mini Bicicletar", "latitude": -3.72322, "longitude": -38.48363, "timestamp": "2024-08-15T11:37:24.173293Z", "free_bikes": 5, "empty_slots": 3, "extra": {"address": "", "description": "Avenida Beira Mar  - Parque Bis\u00e3o", "status": "open"}}, {"id": "3d9572c675e44fccc922dd9b953af9ad", "name": "Escola Estado de Alagoas", "latitude": -3.70419, "longitude": -38.57824, "timestamp": "2024-08-15T11:37:24.167887Z", "free_bikes": 3, "empty_slots": 13, "extra": {"address": "", "description": "Rua Caubi, esquina com a Avenida Presidente Castelo Branco.", "status": "closed"}}, {"id": "3dfda3ddc5318daa220428adb3da63eb", "name": "Pra\u00e7a Igreja Matriz Messejana", "latitude": -3.83151, "longitude": -38.49418, "timestamp": "2024-08-15T11:37:24.172608Z", "free_bikes": 1, "empty_slots": 15, "extra": {"address": "", "description": "Rua Padre Pedro de Alencar com Rua Tenente Jurandir Alencar", "status": "open"}}, {"id": "3e111968be71f449ed422f41868c6f22", "name": "Par\u00f3quia Sant\u00edssima Trindade", "latitude": -3.82925, "longitude": -38.55451, "timestamp": "2024-08-15T11:37:24.173090Z", "free_bikes": 2, "empty_slots": 10, "extra": {"address": "", "description": "Av. C, 311", "status": "open"}}, {"id": "42491ab56e97038553bea2b4e8bb2fcd", "name": "Pra\u00e7a Mau\u00e1 - Mini Bicicletar", "latitude": -3.7554836, "longitude": -38.568098, "timestamp": "2024-08-15T11:37:24.173300Z", "free_bikes": 2, "empty_slots": 6, "extra": {"address": "", "description": "Rua Guanabara, oposto ao n 560. quase esquina com rua Piaui, na pra\u00e7a Mau\u00e1.", "status": "open"}}, {"id": "44d95597c0e7bda8a961fffd53b6566e", "name": "Biblioteca Campus do Pici", "latitude": -3.7423, "longitude": -38.57498, "timestamp": "2024-08-15T11:37:24.172733Z", "free_bikes": 7, "empty_slots": 13, "extra": {"address": "", "description": "Campus do Pici, Biblioteca - Av. Mister Hull, s/n - Pici,", "status": "open"}}, {"id": "461e8c5ceed727b906ff19e3ecdeea30", "name": "Parque Rachel de Queiroz", "latitude": -3.73381, "longitude": -38.5691, "timestamp": "2024-08-15T11:37:24.172355Z", "free_bikes": 12, "empty_slots": 9, "extra": {"address": "", "description": "Avenida Governador Parsifal Barroso, dentro do Parque Rachel de Queiroz", "status": "open"}}, {"id": "48a6eab41a68ea832764741553c7582d", "name": "Pra\u00e7a da Gentil\u00e2ndia", "latitude": -3.7425364, "longitude": -38.5376, "timestamp": "2024-08-15T11:37:24.167026Z", "free_bikes": 7, "empty_slots": 13, "extra": {"address": "Pra\u00e7a da Gentil\u00e2ndia", "description": "Rua Waldery Uchoa, 2861 / Esquina Avenida 13 de Maio", "status": "open"}}, {"id": "4a0d5303ed7cca2ab0cadd2e4f256fb0", "name": "Gov. Jo\u00e3o Carlos", "latitude": -3.77685, "longitude": -38.55122, "timestamp": "2024-08-15T11:37:24.172794Z", "free_bikes": 9, "empty_slots": 7, "extra": {"address": "", "description": "Rua Galileu, esquina com Rua Gov. Jo\u00e3o Carlos. Pr\u00f3ximo ao CN Drinks", "status": "open"}}, {"id": "4a8a4c28aa49d87c63cab113c4f9329e", "name": "Smart Fit Oliveira Paiva", "latitude": -3.79557, "longitude": -38.49399, "timestamp": "2024-08-15T11:37:24.172528Z", "free_bikes": 1, "empty_slots": 15, "extra": {"address": "", "description": "Avenida Oliveira Paiva 1350", "status": "open"}}, {"id": "4cef5825af9d573f81ade3e25136bceb", "name": "Casa Freitas Montese", "latitude": -3.7588242, "longitude": -38.543794, "timestamp": "2024-08-15T11:37:24.167139Z", "free_bikes": 3, "empty_slots": 9, "extra": {"address": "", "description": "Rua Afrod\u00edsio Gondim, 622 (Sandu\u00edches Bebelu) / Esquina Avenida Professor Gomes de Matos", "status": "open"}}, {"id": "4d3d426c5faf44188560ba83e916b728", "name": "Theatro Jos\u00e9 de Alencar", "latitude": -3.72713, "longitude": -38.53196, "timestamp": "2024-08-15T11:37:24.172385Z", "free_bikes": 0, "empty_slots": 14, "extra": {"address": "", "description": "Rua Liberato Barroso 525", "status": "open"}}, {"id": "4feff31bd032f015879d535f04043fd0", "name": "Climeo Sargento Herm\u00ednio", "latitude": -3.725211, "longitude": -38.554558, "timestamp": "2024-08-15T11:37:24.167996Z", "free_bikes": 10, "empty_slots": 6, "extra": {"address": "", "description": "Avenida Sargento Herm\u00ednio Sampaio esquina com a Rua Viana de Carvalho. Pr\u00f3ximo do Centro Comercial Belvedere", "status": "open"}}, {"id": "525b0704fcc9d3c8fbc208f3490ddddd", "name": "Planalto Center", "latitude": -3.74092, "longitude": -38.48358, "timestamp": "2024-08-15T11:37:24.167706Z", "free_bikes": 0, "empty_slots": 12, "extra": {"address": "", "description": "Av. Santos Dumont, em frente ao Planalto Center", "status": "open"}}, {"id": "52f350fa64ab8dda261d65e001aee069", "name": "Marco Zero", "latitude": -3.69447, "longitude": -38.58609, "timestamp": "2024-08-15T11:37:24.167911Z", "free_bikes": 10, "empty_slots": 18, "extra": {"address": "", "description": "Rua Jos\u00e9 Roberto Sales, esquina com Av. Jos\u00e9 Lima Verde, no in\u00edcio do estacionamento do Marco Zero.", "status": "open"}}, {"id": "535aef477d7979465ffe9a2d7d9141e4", "name": "Pra\u00e7a Autran Nunes", "latitude": -3.75017, "longitude": -38.59261, "timestamp": "2024-08-15T11:37:24.173078Z", "free_bikes": 9, "empty_slots": 3, "extra": {"address": "", "description": "Rua Cardeal Arcoverde, na Pra\u00e7a Autran Nunes", "status": "open"}}, {"id": "535f2cf9e39d9b4f6634b36bfa7daf11", "name": "Empresa Guararapes", "latitude": -3.73386, "longitude": -38.58453, "timestamp": "2024-08-15T11:37:24.172339Z", "free_bikes": 7, "empty_slots": 5, "extra": {"address": "", "description": "Av. Sargento Herm\u00ednio na esquina com Av. Coronel Matos Dourado", "status": "open"}}, {"id": "53c422b20813414c67c245ff40a2b6ee", "name": "Pra\u00e7a Humberto Albano", "latitude": -3.78442, "longitude": -38.56802, "timestamp": "2024-08-15T11:37:24.173125Z", "free_bikes": 4, "empty_slots": 8, "extra": {"address": "", "description": "Rua Primeiro de Janeiro, 928", "status": "open"}}, {"id": "56c6942ce58d7036210f345e818c8cd9", "name": "Mercado P\u00fablico do Jos\u00e9 Walter", "latitude": -3.83467, "longitude": -38.55653, "timestamp": "2024-08-15T11:37:24.173105Z", "free_bikes": 4, "empty_slots": 8, "extra": {"address": "", "description": "Av. E, 275 - Pref. Jos\u00e9 Walter, Fortaleza", "status": "open"}}, {"id": "578aeac88650070547c82ece6b5ea6fe", "name": "Centro Fashion", "latitude": -3.71851, "longitude": -38.54174, "timestamp": "2024-08-15T11:37:24.167829Z", "free_bikes": 13, "empty_slots": 3, "extra": {"address": "", "description": "Av. Tenente Lisboa esquina com Av. Filomeno Gomes", "status": "open"}}, {"id": "57ebdf50bf521abfc8822b4d84baa64e", "name": "Gin\u00e1sio Paulo Sarasate", "latitude": -3.73799, "longitude": -38.51503, "timestamp": "2024-08-15T11:37:24.173029Z", "free_bikes": 0, "empty_slots": 12, "extra": {"address": "", "description": "Rua Ildefonso Albano, pr\u00f3ximo ao n\u00b0 2001 em frente ao Gin\u00e1sio Paulo Sarasate", "status": "open"}}, {"id": "598aea23fbdfe5a2b411845b7872b4ea", "name": "Conjunto Alvorada", "latitude": -3.79118, "longitude": -38.47614, "timestamp": "2024-08-15T11:37:24.172494Z", "free_bikes": 4, "empty_slots": 8, "extra": {"address": "", "description": "Rua Bill Cartaxo com Rua Jo\u00e3o Mariano", "status": "open"}}, {"id": "5aa32d14b0f2dbb15b712efdb813cc7d", "name": "UPA Vila Velha", "latitude": -3.71678, "longitude": -38.60161, "timestamp": "2024-08-15T11:37:24.173172Z", "free_bikes": 11, "empty_slots": 1, "extra": {"address": "", "description": "Av. L - Vila Velha, Fortaleza", "status": "open"}}, {"id": "5cf9091fc05d53a2ae721850a37f5998", "name": "Drogasil Mozart Lucena", "latitude": -3.72069, "longitude": -38.59626, "timestamp": "2024-08-15T11:37:24.173043Z", "free_bikes": 6, "empty_slots": 6, "extra": {"address": "", "description": "Rua Cari\u00fas, 820 - Vila Velha, Fortaleza", "status": "open"}}, {"id": "5e1595d1753724e99df9ca31f95b54e9", "name": "Pra\u00e7a Ot\u00e1vio Bonfim", "latitude": -3.7314396, "longitude": -38.542764, "timestamp": "2024-08-15T11:37:24.167051Z", "free_bikes": 1, "empty_slots": 11, "extra": {"address": "Pra\u00e7a Ot\u00e1vio Bonfim", "description": "Pra\u00e7a Ot\u00e1vio Bonfim / Esquina Rua Justiniano de Serpa", "status": "open"}}, {"id": "5e803ad7aed4c200dc80f73ccd3c3956", "name": "Bloco IEFES UFC", "latitude": -3.75356, "longitude": -38.57326, "timestamp": "2024-08-15T11:37:24.173224Z", "free_bikes": 1, "empty_slots": 13, "extra": {"address": "", "description": "Rua Professor R\u00f4mulo Proen\u00e7a, em frente ao Bloco 320", "status": "open"}}, {"id": "6221c71b06ced8e0a97db1ca6a41ef68", "name": "Areninha Vila Bet\u00e2nia - Maraponga", "latitude": -3.78377, "longitude": -38.56426, "timestamp": "2024-08-15T11:37:24.172874Z", "free_bikes": 3, "empty_slots": 9, "extra": {"address": "", "description": "Rua Ant\u00f4nio Bandeira, oposto ao n\u00ba 120. Esquina com Av. Cambar\u00e1.", "status": "open"}}, {"id": "6365f426e36fa0c47d51ad9ccca7c436", "name": "Aterrinho da Praia de Iracema", "latitude": -3.720303, "longitude": -38.511481, "timestamp": "2024-08-15T11:37:24.166920Z", "free_bikes": 8, "empty_slots": 12, "extra": {"address": "", "description": "R. Jo\u00e3o Cordeiro, pr\u00f3ximo ao cruzamento da Av. Beira Mar", "status": "open"}}, {"id": "64c5f0df9b560bff4b37747bc891a804", "name": "Casas Gir\u00e3o Montese", "latitude": -3.76267, "longitude": -38.546783, "timestamp": "2024-08-15T11:37:24.167145Z", "free_bikes": 9, "empty_slots": 3, "extra": {"address": "", "description": "Rua S\u00e1tiro Dias com Av. Professor Gomes de Matos", "status": "open"}}, {"id": "655dd921647d292639d35430da79deea", "name": "Igreja Redonda", "latitude": -3.7410188, "longitude": -38.560732, "timestamp": "2024-08-15T11:37:24.167098Z", "free_bikes": 10, "empty_slots": 2, "extra": {"address": "Igreja Redonda", "description": "Rua Professor Lino Encarna\u00e7\u00e3o, em frente \u00e0 Par\u00f3quia de Santo Afonso \u2013 Igreja Redonda / Esquina Avenida Jovita Feitosa", "status": "open"}}, {"id": "65c1043a937e16bf7a13b44bf04fcd8b", "name": "Igreja Nossa Senhora da Gl\u00f3ria", "latitude": -3.79649, "longitude": -38.50044, "timestamp": "2024-08-15T11:37:24.172537Z", "free_bikes": 5, "empty_slots": 9, "extra": {"address": "", "description": "Avenida Desembargador Gonzaga com Rua J\u00falio Lima", "status": "open"}}, {"id": "67e61b858973ef51b4e2c731af43685e", "name": "Pra\u00e7a do MRV", "latitude": -3.79457, "longitude": -38.56298, "timestamp": "2024-08-15T11:37:24.173152Z", "free_bikes": 6, "empty_slots": 6, "extra": {"address": "", "description": "Rua Carlos Jua\u00e7aba, 1435", "status": "open"}}, {"id": "681cd3fe7974113bbb7c6d477874bfe6", "name": "VLT Borges de Melo", "latitude": -3.76051, "longitude": -38.52884, "timestamp": "2024-08-15T11:37:24.172657Z", "free_bikes": 1, "empty_slots": 7, "extra": {"address": "", "description": "Rua Bartolomeu de Gusm\u00e3o, pr\u00f3ximo da entrada da esta\u00e7\u00e3o do VTL da Borges de Melo", "status": "open"}}, {"id": "690fe2a3800aee9337ede673ce3d4881", "name": "Terminal da Parangaba", "latitude": -3.77629, "longitude": -38.56433, "timestamp": "2024-08-15T11:37:24.172834Z", "free_bikes": 9, "empty_slots": 12, "extra": {"address": "", "description": "Rua Eduardo Perdig\u00e3o 192. Pr\u00f3ximo \u00e0 farm\u00e1cia FTB", "status": "open"}}, {"id": "69a547d9932e7c6ab5f990e93e628805", "name": "Polo de Lazer Sargento Herm\u00ednio - Minibicicletar", "latitude": -3.727993, "longitude": -38.555734, "timestamp": "2024-08-15T11:37:24.173252Z", "free_bikes": 4, "empty_slots": 4, "extra": {"address": "", "description": "Rua Aristides Barreto Neto, pr\u00f3ximo da Capela da M\u00e3e Rainha", "status": "open"}}, {"id": "69eff3bf3f09bf753af8448fe90aa15f", "name": "Upa Leste Oeste", "latitude": -3.70843, "longitude": -38.56839, "timestamp": "2024-08-15T11:37:24.167873Z", "free_bikes": 2, "empty_slots": 14, "extra": {"address": "", "description": "Canteiro central da Av. Presidente Castelo Branco em frente \u00e0 UPA", "status": "open"}}, {"id": "6b3ffd4c8fef02bbfd4845485a92ee76", "name": "Hospital da Mulher", "latitude": -3.76165, "longitude": -38.57219, "timestamp": "2024-08-15T11:37:24.173218Z", "free_bikes": 4, "empty_slots": 8, "extra": {"address": "", "description": "Rua Professor Manoel Louren\u00e7o, pr\u00f3ximo a entrada do Hospital da Mulher", "status": "open"}}, {"id": "6ba4e399829bb4b96a9dcd5d01fdd245", "name": "Campo do Am\u00e9rica", "latitude": -3.7302816, "longitude": -38.502894, "timestamp": "2024-08-15T11:37:24.166902Z", "free_bikes": 0, "empty_slots": 16, "extra": {"address": "", "description": "Rua Jos\u00e9 Vilar, 540 / Esquina Rua Tenente Ben\u00e9volo", "status": "open"}}, {"id": "6bf62f29c37f1323b78f1da050961de4", "name": "Centro Cultural Bom Jardim", "latitude": -3.78623, "longitude": -38.60985, "timestamp": "2024-08-15T11:37:24.172962Z", "free_bikes": 5, "empty_slots": 7, "extra": {"address": "", "description": "Rua Jos\u00e9 Martins oposto ao n 2133. Em frente ao centro cultural Bom Jardim", "status": "open"}}, {"id": "6c9a64e1a43170867911401087d6e5ce", "name": "Pra\u00e7a Lago Jacarey", "latitude": -3.801555, "longitude": -38.490129, "timestamp": "2024-08-15T11:37:24.172561Z", "free_bikes": 5, "empty_slots": 11, "extra": {"address": "", "description": "Av. Viena Weyne, oposto ao n450. Em frente ao Tch\u00eas Burguers.", "status": "open"}}, {"id": "6dc111537769a7942f789199ce9f7d87", "name": "Pra\u00e7a das Flores", "latitude": -3.7384735, "longitude": -38.498159, "timestamp": "2024-08-15T11:37:24.167002Z", "free_bikes": 8, "empty_slots": 4, "extra": {"address": "Pra\u00e7a das Flores", "description": "Pra\u00e7a das Flores, na Rua Eduardo Garcia / Esquina Rua Barbosa de F", "status": "open"}}, {"id": "6df61e84caa8226884544c1584a75f69", "name": "Pra\u00e7a Carlito Pamplona", "latitude": -3.71597, "longitude": -38.56056, "timestamp": "2024-08-15T11:37:24.167978Z", "free_bikes": 6, "empty_slots": 10, "extra": {"address": "", "description": "Av. Pasteur, esquina com Av. Francisco S\u00e1 - na pra\u00e7a", "status": "open"}}, {"id": "6e476c568bf26aec013172ade3c2da06", "name": "Portug\u00e1lia", "latitude": -3.7463129, "longitude": -38.479954, "timestamp": "2024-08-15T11:37:24.167699Z", "free_bikes": 5, "empty_slots": 7, "extra": {"address": "", "description": "Rua Professor Ot\u00e1vio Lobo, oposto ao Portug\u00e1lia Shopping / Esquina Avenida Padre Ant\u00f4nio Tom\u00e1s", "status": "open"}}, {"id": "6ee53e31d0e136298b7dccdf977a2264", "name": "Instituto dos Cegos", "latitude": -3.7331071, "longitude": -38.551978, "timestamp": "2024-08-15T11:37:24.167063Z", "free_bikes": 3, "empty_slots": 9, "extra": {"address": "Instituto dos Cegos", "description": "Canteiro Central da Avenida Bezerra de Menezes, 801 / Esquina Rua Padre Anchieta", "status": "open"}}, {"id": "6fee664f3ffb9cb06e3c657ddd440d04", "name": "Posto Oliveira Pombo", "latitude": -3.754258, "longitude": -38.564854, "timestamp": "2024-08-15T11:37:24.172741Z", "free_bikes": 2, "empty_slots": 10, "extra": {"address": "", "description": "Rua Rio Grande do Sul, em frente ao posto de sa\u00fade Oliveira Pombo", "status": "open"}}, {"id": "714a1d9d129d86a996309e5417e3bceb", "name": "Mercado Central", "latitude": -3.72328, "longitude": -38.52427, "timestamp": "2024-08-15T11:37:24.172401Z", "free_bikes": 5, "empty_slots": 11, "extra": {"address": "", "description": "No canteiro central da Av. Alberto Nepomuceno, em frete ao Mercado Central", "status": "open"}}, {"id": "729f0bd21ddbe81efb5d59b5d191afd8", "name": "Moreira da Rocha", "latitude": -3.7267958, "longitude": -38.506248, "timestamp": "2024-08-15T11:37:24.166895Z", "free_bikes": 0, "empty_slots": 12, "extra": {"address": "", "description": "Rua Deputado Moreira da Rocha, lateral do n\u00famero 475 / Esquina Rua Rui Barbosa", "status": "open"}}, {"id": "72b77e3f85aa9cbaaba6d18231f80654", "name": "Super Lagoa Mozart Lucena", "latitude": -3.71767, "longitude": -38.59538, "timestamp": "2024-08-15T11:37:24.173204Z", "free_bikes": 9, "empty_slots": 3, "extra": {"address": "", "description": "Av. Mozart Pinheiro de Lucena, 1711 - Vila Velha", "status": "open"}}, {"id": "740dd6673d0f5be38b0663fc0c7ec690", "name": "Bragan\u00e7a", "latitude": -3.78407, "longitude": -38.59745, "timestamp": "2024-08-15T11:37:24.172969Z", "free_bikes": 5, "empty_slots": 7, "extra": {"address": "", "description": "Rua Bragan\u00e7a, oposto ao n 1170. Esquina com rua Jos\u00e9 Abilio", "status": "open"}}, {"id": "76eb62215c95d7167f7ab59cdbd52eea", "name": "BNB - Parangaba", "latitude": -3.78007, "longitude": -38.57345, "timestamp": "2024-08-15T11:37:24.172881Z", "free_bikes": 5, "empty_slots": 9, "extra": {"address": "", "description": "Av. Gen. Os\u00f3rio de Paiva, oposto ao n1350. Na esquina com  Rua Afranio Peixoto", "status": "open"}}, {"id": "7755bfdaa19812fa75f3c377818405d2", "name": "Terminal Ant\u00f4nio Bezerra", "latitude": -3.73765, "longitude": -38.58359, "timestamp": "2024-08-15T11:37:24.172347Z", "free_bikes": 5, "empty_slots": 23, "extra": {"address": "", "description": "Estacionamento do Terminal do Ant\u00f4nio Bezerra", "status": "open"}}, {"id": "784f47d20cd6037ed4bc1ddfb2ba0a3c", "name": "C\u00edrculo Militar", "latitude": -3.730343, "longitude": -38.496304, "timestamp": "2024-08-15T11:37:24.166908Z", "free_bikes": 1, "empty_slots": 11, "extra": {"address": "", "description": "Rua Canuto de Aguiar, 712B / Esquina Rua Desembargador Moreira", "status": "open"}}, {"id": "78aba52afe14ec050a3f7a39ca5dfed4", "name": "Pra\u00e7a do Polar - Mini Bicicletar", "latitude": -3.709965, "longitude": -38.593125, "timestamp": "2024-08-15T11:37:24.173307Z", "free_bikes": 5, "empty_slots": 3, "extra": {"address": "", "description": "Avenida Mozart Pinheiro Lucena na Pra\u00e7a do Polar", "status": "open"}}, {"id": "796e95fc41af426afb407f887c029a32", "name": "Torres C\u00e2mara", "latitude": -3.7373353, "longitude": -38.50175, "timestamp": "2024-08-15T11:37:24.166990Z", "free_bikes": 2, "empty_slots": 10, "extra": {"address": "", "description": "Rua Rua Torres C\u00e2mara 1107, esquina com Rua Joaquim Nabuco", "status": "open"}}, {"id": "7a7531a99ec3a1d3bb0da952a76f2917", "name": "Hospital Walter Cant\u00eddio", "latitude": -3.7489684, "longitude": -38.550904, "timestamp": "2024-08-15T11:37:24.167116Z", "free_bikes": 7, "empty_slots": 5, "extra": {"address": "", "description": "Rua Capit\u00e3o Francisco Pedro, n\u00famero 1290 (Hospital das Clinicas) / Esquina com a Rua Alexandre Bara\u00fana", "status": "open"}}, {"id": "7afe4e0a97d302834c89da7163cfa6c3", "name": "Esta\u00e7\u00e3o Juscelino Kubitscheck", "latitude": -3.76665, "longitude": -38.55961, "timestamp": "2024-08-15T11:37:24.172773Z", "free_bikes": 3, "empty_slots": 18, "extra": {"address": "", "description": "Av. Jo\u00e3o Pessoa 6436. Pr\u00f3ximo \u00e0 esta\u00e7\u00e3o do VLT Juscelino Kubitschek", "status": "open"}}, {"id": "7dfeefe28208fc31f0c0cc6f6455782f", "name": "Pra\u00e7a Dom Bosco", "latitude": -3.76405, "longitude": -38.59084, "timestamp": "2024-08-15T11:37:24.173084Z", "free_bikes": 12, "empty_slots": 0, "extra": {"address": "", "description": "Rua Macei\u00f3 esquina com a Rua Porto Velho, na Pra\u00e7a Dom Bosco", "status": "open"}}, {"id": "7fb3bb08f02ee639299c974d51414449", "name": "Lagoa da Parangaba", "latitude": -3.76517, "longitude": -38.56731, "timestamp": "2024-08-15T11:37:24.172861Z", "free_bikes": 3, "empty_slots": 9, "extra": {"address": "", "description": "Avenida Am\u00e9rico Barreira, em frente  a lagoa da Parangaba", "status": "open"}}, {"id": "804bcaf1772187b7454db5d367ee2bb9", "name": "North Shopping", "latitude": -3.7355, "longitude": -38.5674, "timestamp": "2024-08-15T11:37:24.167086Z", "free_bikes": 7, "empty_slots": 13, "extra": {"address": "North Shopping", "description": "Rua Jos\u00e9 Adail dos Santos com Rua Braz de Francesco", "status": "open"}}, {"id": "81f441f5985100d954eedd812968a87f", "name": "Farm\u00e1cia Conviva Sargento Herm\u00ednio", "latitude": -3.72862, "longitude": -38.57175, "timestamp": "2024-08-15T11:37:24.172330Z", "free_bikes": 12, "empty_slots": 2, "extra": {"address": "", "description": "Av. Sargento Herm\u00ednio 57", "status": "open"}}, {"id": "83ed5f051ceafd0db8cb1337cac864dc", "name": "Shopping Manhattan", "latitude": -3.73595, "longitude": -38.49275, "timestamp": "2024-08-15T11:37:24.166876Z", "free_bikes": 6, "empty_slots": 2, "extra": {"address": "", "description": "Endere\u00e7o: Rua Senador Virg\u00edlio T\u00e1vora esquina com a Rua Marcos Mac\u00eado, no p\u00e1tio do Shopping Manhattan", "status": "open"}}, {"id": "8588fdcda195faefae92d521c137b413", "name": "Cometa Francisco S\u00e1", "latitude": -3.72002, "longitude": -38.54917, "timestamp": "2024-08-15T11:37:24.167966Z", "free_bikes": 5, "empty_slots": 11, "extra": {"address": "", "description": "Av. Francisco S\u00e1, em frente ao Cometa", "status": "open"}}, {"id": "878bd2f7c20383d07e7b832aa9fcf450", "name": "Areninha Parangaba", "latitude": -3.77374, "longitude": -38.56758, "timestamp": "2024-08-15T11:37:24.172840Z", "free_bikes": 3, "empty_slots": 9, "extra": {"address": "", "description": "Av. Gomes Brasil, oposto ao n\u00famero 201(Super Lagoa). Na pracinha da Areninha.", "status": "open"}}, {"id": "880e068a47c96c9063f990f084b8bd88", "name": "AMC", "latitude": -3.80079, "longitude": -38.49763, "timestamp": "2024-08-15T11:37:24.172545Z", "free_bikes": 1, "empty_slots": 11, "extra": {"address": "", "description": "Avenida Desembargador Gonzaga com Pedro Luiz Sobrinho", "status": "open"}}, {"id": "880f8e399eff05dcc23036090ed4decc", "name": "Andrade Furtado", "latitude": -3.74753, "longitude": -38.47471, "timestamp": "2024-08-15T11:37:24.167728Z", "free_bikes": 7, "empty_slots": 7, "extra": {"address": "", "description": "Av. da Flamboyantes, em frente ao Pasta and Burguers", "status": "open"}}, {"id": "8ca8795c746880e3fce0c16e58958fea", "name": "Humberto Monte", "latitude": -3.749, "longitude": -38.56062, "timestamp": "2024-08-15T11:37:24.172712Z", "free_bikes": 1, "empty_slots": 11, "extra": {"address": "", "description": "Av Humberto Monte, 1169", "status": "open"}}, {"id": "8d296a5bc36765a9f4ec704855c22c20", "name": "VLT Montese", "latitude": -3.77343, "longitude": -38.55339, "timestamp": "2024-08-15T11:37:24.172787Z", "free_bikes": 0, "empty_slots": 16, "extra": {"address": "", "description": "Rua Ant\u00f4nio Fi\u00faza 568", "status": "maintenance/implementation"}}, {"id": "8e3bcb27875ca574c0377f72f5365322", "name": "Rui Barbosa", "latitude": -3.7368529, "longitude": -38.509719, "timestamp": "2024-08-15T11:37:24.166984Z", "free_bikes": 3, "empty_slots": 13, "extra": {"address": "SENAC", "description": "Rua Rui Barbosa, em frente ao SENAC / Esquina Rua Jo\u00e3o Carvalho", "status": "open"}}, {"id": "8e889612b3859ec14833a9fbbead3eb5", "name": "Reitoria UFC", "latitude": -3.7410964, "longitude": -38.539249, "timestamp": "2024-08-15T11:37:24.167039Z", "free_bikes": 4, "empty_slots": 8, "extra": {"address": "UFC", "description": "Avenida da Universidade, 2854 / Esquina Av. 13 de Maio", "status": "open"}}, {"id": "917f2d6036974ef235cded82a337ad17", "name": "Regional 3", "latitude": -3.739702, "longitude": -38.556388, "timestamp": "2024-08-15T11:37:24.167104Z", "free_bikes": 16, "empty_slots": 0, "extra": {"address": "Secretaria Regional 3", "description": "Rua Dom Lino, 590 / Esquina Avenida Jovita Feitosa, lateral da Secretaria Regional 3", "status": "open"}}, {"id": "91ed34a70f66cd84c1a21178eccd5320", "name": "Salesiano Dom Bosco", "latitude": -3.73966, "longitude": -38.5214, "timestamp": "2024-08-15T11:37:24.167685Z", "free_bikes": 4, "empty_slots": 8, "extra": {"address": "", "description": "Rua J da Penha, 984 / Esquina Rua Ant\u00f4nio Sales", "status": "open"}}, {"id": "93f63e8d5639ae7bfeb1c973f3b2e4c8", "name": "Frangol\u00e2ndia - Theberge", "latitude": -3.71442, "longitude": -38.56491, "timestamp": "2024-08-15T11:37:24.167983Z", "free_bikes": 7, "empty_slots": 9, "extra": {"address": "", "description": "Av. Dr Theberge, 1458. Sentido praia - sert\u00e3o.", "status": "open"}}, {"id": "9405d4ed28b66a30ee27c85acca6cc8c", "name": "Maraponga Martmoda", "latitude": -3.79769, "longitude": -38.56411, "timestamp": "2024-08-15T11:37:24.173231Z", "free_bikes": 3, "empty_slots": 9, "extra": {"address": "", "description": "Rua Francisco Glic\u00e9rio, 290 - Acesso 01", "status": "open"}}, {"id": "9526de259890bc467a54b61562c797e0", "name": "Pra\u00e7a Mau\u00e1", "latitude": -3.75564, "longitude": -38.56815, "timestamp": "2024-08-15T11:37:24.172747Z", "free_bikes": 14, "empty_slots": 0, "extra": {"address": "", "description": "Rua Guanabara, oposto ao n 580. quase esquina com rua Piaui, na pra\u00e7a Mau\u00e1.", "status": "open"}}, {"id": "957be487ab2674ed9ce3334b12e1ca59", "name": "Ari de S\u00e1 - Washington Soares", "latitude": -3.78933, "longitude": -38.48022, "timestamp": "2024-08-15T11:37:24.172486Z", "free_bikes": 6, "empty_slots": 10, "extra": {"address": "", "description": "Avenida Edilson Brasil Soares com Av. Washington Soares", "status": "open"}}, {"id": "9655444f057502fd54e15987d0ef0856", "name": "Corpo de Bombeiros Messejana", "latitude": -3.83743, "longitude": -38.49408, "timestamp": "2024-08-15T11:37:24.172633Z", "free_bikes": 8, "empty_slots": 8, "extra": {"address": "", "description": "Rua Padre Pedro de Alencar 1091, esquina com Travessa Oliveira Chaves", "status": "open"}}, {"id": "9775f9cd0a230927ac1f5f087b918ab3", "name": "Alan Kardec", "latitude": -3.76497, "longitude": -38.54961, "timestamp": "2024-08-15T11:37:24.172691Z", "free_bikes": 1, "empty_slots": 15, "extra": {"address": "", "description": "Rua Alan Kardec, em frente ao estabelecimento 888", "status": "open"}}, {"id": "991209c55ab41a24fe5d9f6f7eeef3f1", "name": "Pra\u00e7a Monte Castelo", "latitude": -3.7284071, "longitude": -38.550369, "timestamp": "2024-08-15T11:37:24.167068Z", "free_bikes": 5, "empty_slots": 7, "extra": {"address": "Pra\u00e7a Monte Castelo", "description": "Pra\u00e7a Jo\u00e3o Pontes, 643 / Esquina Rua Ant\u00f4nio Drumond", "status": "open"}}, {"id": "9c75de91d4f3718e0fdb493f750fceb8", "name": "Jornal O Povo", "latitude": -3.7391426, "longitude": -38.52487, "timestamp": "2024-08-15T11:37:24.167677Z", "free_bikes": 0, "empty_slots": 12, "extra": {"address": "", "description": "Rua Jornalista Daniel Carneiro, lateral da Farm\u00e1cia Central/Esquina com a Avenida Aguanambi", "status": "open"}}, {"id": "a0c7602ef2dffac3e702a6f22893d6a5", "name": "Ot\u00e1vio Lobo", "latitude": -3.7427628, "longitude": -38.478428, "timestamp": "2024-08-15T11:37:24.167713Z", "free_bikes": 0, "empty_slots": 12, "extra": {"address": "", "description": "Avenida Santos Dumont, 6050 / Entre a Rua Professor Ot\u00e1vio Lobo e a Rua Batista de Oliveira", "status": "open"}}, {"id": "a228eab7215b29e3f7c43f705735a627", "name": "Jos\u00e9 Sombra", "latitude": -3.7317835, "longitude": -38.547838, "timestamp": "2024-08-15T11:37:24.167057Z", "free_bikes": 3, "empty_slots": 9, "extra": {"address": "Parque Arax\u00e1", "description": "Avenida Bezerra de Menezes, 334 / Esquina Rua Ribeiro da Silva", "status": "open"}}, {"id": "a238a537dcb4ef6abfe2bc955c73dc42", "name": "Faculdade Louren\u00e7o Filho", "latitude": -3.736277, "longitude": -38.531469, "timestamp": "2024-08-15T11:37:24.167799Z", "free_bikes": 1, "empty_slots": 15, "extra": {"address": "77", "description": "Rua Bar\u00e3o do Rio Branco, lateral do Power Turbo Pneus / Esquina Avenida Domingos Ol\u00edmpio", "status": "open"}}, {"id": "a282686d97fc4ed72a077a61b9d15766", "name": "Monsenhor Tabosa", "latitude": -3.7238918, "longitude": -38.514743, "timestamp": "2024-08-15T11:37:24.166967Z", "free_bikes": 5, "empty_slots": 7, "extra": {"address": "Monsenhor Tabosa", "description": "Rua Monsenhor Tabosa, 518 / Esquina Rua Nogueira Acioli", "status": "open"}}, {"id": "a3eee90ec082677dd32d22f561619777", "name": "Campus Porangabu\u00e7u - UFC", "latitude": -3.7489708, "longitude": -38.553127, "timestamp": "2024-08-15T11:37:24.167110Z", "free_bikes": 4, "empty_slots": 10, "extra": {"address": "", "description": "Rua Coronel Nunes de Melo, 1315 (UFC) / Esquina Rua Professor Costa Mendes", "status": "open"}}, {"id": "a4470323335f55bb10ca5770212fcb3f", "name": "Hospital Geral de Fortaleza", "latitude": -3.7404568, "longitude": -38.476476, "timestamp": "2024-08-15T11:37:24.167736Z", "free_bikes": 2, "empty_slots": 10, "extra": {"address": "", "description": "Rua Andr\u00e9 Dall\u00b4olio, em frente ao Hospital Geral de Fortaleza / Esquina Rua Professor Ot\u00e1vio Lobo", "status": "open"}}, {"id": "a4d1876b6b57dc0187de2bd1e841d401", "name": "Terminal Siqueira", "latitude": -3.79027, "longitude": -38.58799, "timestamp": "2024-08-15T11:37:24.172915Z", "free_bikes": 17, "empty_slots": 4, "extra": {"address": "", "description": "Av. Gen. Os\u00f3rio de Paiva, esquina com Rua Agamenon.  No canteiro central.", "status": "open"}}, {"id": "a58c3abbce9a719dc2d65cea19dfd5bc", "name": "P\u00f3lo de Lazer Cj. Esperan\u00e7a - Mini bicicletar", "latitude": -3.81476, "longitude": -38.58724, "timestamp": "2024-08-15T11:37:24.173314Z", "free_bikes": 3, "empty_slots": 5, "extra": {"address": "No Polo de Lazer do Conjunto Esperan\u00e7a", "description": "Avenida Cont\u00f4rno Norte.", "status": "closed"}}, {"id": "a5f351c634725060305ccba68e12f722", "name": "Uninassau - Parangaba", "latitude": -3.77709, "longitude": -38.56201, "timestamp": "2024-08-15T11:37:24.172827Z", "free_bikes": 5, "empty_slots": 9, "extra": {"address": "", "description": "Av. Carlos Amora com rua Germano Franck (na pracinha/canteiro central)", "status": "open"}}, {"id": "a616f8d4d51c90e7b2124e9636e47619", "name": "Vital Brasil", "latitude": -3.78059, "longitude": -38.58874, "timestamp": "2024-08-15T11:37:24.172975Z", "free_bikes": 5, "empty_slots": 7, "extra": {"address": "", "description": "Rua Vital Brasil esquina com a Rua Verbena, ao lado do Mercadinho Aguiar", "status": "open"}}, {"id": "a63bfd59ddb3478be57c486774bad3f6", "name": "Via Sul Shopping", "latitude": -3.79472, "longitude": -38.4799, "timestamp": "2024-08-15T11:37:24.172502Z", "free_bikes": 3, "empty_slots": 13, "extra": {"address": "", "description": "Avenida Washington Soares com Rua Crisanto Moreira da Rocha", "status": "open"}}, {"id": "a68acbe5d0325261306c3895da6c4d04", "name": "Jos\u00e9 Leon", "latitude": -3.78751, "longitude": -38.50348, "timestamp": "2024-08-15T11:37:24.172462Z", "free_bikes": 6, "empty_slots": 10, "extra": {"address": "", "description": "Avenida Rogaciano leite esquina com Av. Jos\u00e9 Leon", "status": "open"}}, {"id": "a723cd820382319069ead6f0795b0687", "name": "Pra\u00e7a Monsenhor Linhares", "latitude": -3.74567, "longitude": -38.56063, "timestamp": "2024-08-15T11:37:24.172720Z", "free_bikes": 2, "empty_slots": 10, "extra": {"address": "", "description": "Rua Professor \u00c9rico Mota, esquina com Rua C\u00f4nego Pena Forte. Na pra\u00e7a Monsenhor Linhares", "status": "open"}}, {"id": "a804d1492b4f138b277e8a65318f10c7", "name": "Uece", "latitude": -3.78584, "longitude": -38.55163, "timestamp": "2024-08-15T11:37:24.172807Z", "free_bikes": 0, "empty_slots": 16, "extra": {"address": "", "description": "Av. Dr. Silas Munguba, 1700. Pr\u00f3ximo a entrada do campus do Itaperi - UECE", "status": "open"}}, {"id": "a9380174bfab402a0a237f2d33ea4390", "name": "Faculdade Cearense", "latitude": -3.7477925, "longitude": -38.545572, "timestamp": "2024-08-15T11:37:24.167122Z", "free_bikes": 9, "empty_slots": 3, "extra": {"address": "", "description": "Rua Major Weyne, no acesso a Faculdade Cearense / Esquina com a Avenida Jo\u00e3o Pessoa", "status": "open"}}, {"id": "aaabcc11317ed220738568207b9c388f", "name": "Pra\u00e7a do Montenegro", "latitude": -3.77995, "longitude": -38.57801, "timestamp": "2024-08-15T11:37:24.172894Z", "free_bikes": 5, "empty_slots": 9, "extra": {"address": "", "description": "Rua Mirtes Rocha 26", "status": "open"}}, {"id": "ab33d8dad074d9592cf242663fc028c6", "name": "Raul Cabral", "latitude": -3.76803, "longitude": -38.54586, "timestamp": "2024-08-15T11:37:24.172685Z", "free_bikes": 3, "empty_slots": 9, "extra": {"address": "", "description": "Rua Edmundo Linhares, 81. Esquina com Rua Raul Cabral. Em frente a Paneville", "status": "open"}}, {"id": "ad316b99520cbd1fe3cc5db8ffc80cda", "name": "Pra\u00e7a da Bandeira", "latitude": -3.733079, "longitude": -38.532429, "timestamp": "2024-08-15T11:37:24.167045Z", "free_bikes": 2, "empty_slots": 10, "extra": {"address": "Faculdade de Direito", "description": "Pra\u00e7a da Bandeira, na Meton de Alencar, oposto a Faculdade de Direito / Esquina Rua General Sampaio", "status": "open"}}, {"id": "ae4a730b2dbff910e7c32cae5a7d560c", "name": "Pra\u00e7a Portugal", "latitude": -3.7336156, "longitude": -38.496978, "timestamp": "2024-08-15T11:37:24.166883Z", "free_bikes": 6, "empty_slots": 10, "extra": {"address": "Shopping Aldeota", "description": "Pra\u00e7a Portugal, na cal\u00e7ada em frente a canteiro do Shopping Aldeota / Esquina Avenida Dom Lu\u00eds", "status": "open"}}, {"id": "afc3a1ebb7e9c47ef4d37c1af401176f", "name": "Liceu do Cear\u00e1", "latitude": -3.7236534, "longitude": -38.541337, "timestamp": "2024-08-15T11:37:24.167813Z", "free_bikes": 6, "empty_slots": 6, "extra": {"address": "", "description": "Avenida Filomeno Gomes, oposto ao n\u00famero 100 (Padaria P\u00e3o da Pra\u00e7a) / Em frente a Pra\u00e7a Gustavo Barroso", "status": "open"}}, {"id": "b05a653c6266a285f8824b79062fe23e", "name": "Hotel Mareiro", "latitude": -3.72498, "longitude": -38.49935, "timestamp": "2024-08-15T11:37:24.173118Z", "free_bikes": 9, "empty_slots": 12, "extra": {"address": "", "description": "Av. Beira Mar, 2380 - Meireles, Fortaleza", "status": "open"}}, {"id": "b168d5511c6635c7433d0700eae36e01", "name": "Igreja N. S de Lourdes", "latitude": -3.722267, "longitude": -38.560043, "timestamp": "2024-08-15T11:37:24.173064Z", "free_bikes": 6, "empty_slots": 6, "extra": {"address": "", "description": "Rua Dem\u00f3stenes de Carvalho esquina com Travessa S\u00e3o Jos\u00e9.", "status": "open"}}, {"id": "b25d59671f909f30692069d4959f3bc3", "name": "Terminal de Messejana", "latitude": -3.83213, "longitude": -38.50105, "timestamp": "2024-08-15T11:37:24.172616Z", "free_bikes": 6, "empty_slots": 22, "extra": {"address": "", "description": "Avenida Jornalista Tomaz Coelho entre o Terminal da Messejana e o Vapt Vupt", "status": "open"}}, {"id": "b286282046fb99b1799520899b6d6fe9", "name": "Terminal do Papicu", "latitude": -3.738701, "longitude": -38.485177, "timestamp": "2024-08-15T11:37:24.167020Z", "free_bikes": 0, "empty_slots": 16, "extra": {"address": "Terminal de Papicu", "description": "Rua Pereira de Miranda, em frente ao Terminal do Papicu / Pr\u00f3ximo \u00e0 Avenida Almirante Henrique Sab\u00f3ia", "status": "maintenance/implementation"}}, {"id": "b458cd792c19c5b4e45bf0a0a1cc050e", "name": "Rua dos Coqueiros - Dend\u00ea", "latitude": -3.77202, "longitude": -38.47154, "timestamp": "2024-08-15T11:37:24.172409Z", "free_bikes": 2, "empty_slots": 14, "extra": {"address": "", "description": "Rua Cidade Ecologica com Rua do Coqueiros", "status": "open"}}, {"id": "b4d80013d5aceb006ba46bd9f7fab63e", "name": "CUCA Pici", "latitude": -3.75294, "longitude": -38.58205, "timestamp": "2024-08-15T11:37:24.172887Z", "free_bikes": 11, "empty_slots": 1, "extra": {"address": "", "description": "Rua Vit\u00f3ria, pr\u00f3ximo ao Cuca do Pici", "status": "open"}}, {"id": "b56d4683067f360306ad21706141ca44", "name": "Pra\u00e7a das Flores - Minibicicletar", "latitude": -3.739994, "longitude": -38.498786, "timestamp": "2024-08-15T11:37:24.173274Z", "free_bikes": 3, "empty_slots": 5, "extra": {"address": "504", "description": "Pra\u00e7a das Flores, na Avenida Padre Antonio Tomas, pr\u00f3ximo ao Playground e Academia da UNIMED / Esquina com a R. Barbosa de Freitas", "status": "open"}}, {"id": "b66a85b354ff8fd8dc2afb089c9d01a2", "name": "F\u00f3rum", "latitude": -3.77272, "longitude": -38.48048, "timestamp": "2024-08-15T11:37:24.167792Z", "free_bikes": 1, "empty_slots": 15, "extra": {"address": "", "description": "Canteiro Central da R. Des. Floriano Benevides Magalh\u00e3es, em frente ao Forum", "status": "open"}}, {"id": "b698eec6916588310b52b09329f08fa4", "name": "Pra\u00e7a das Artes - Minibicicletar", "latitude": -3.79436, "longitude": -38.56251, "timestamp": "2024-08-15T11:37:24.173347Z", "free_bikes": 6, "empty_slots": 2, "extra": {"address": "", "description": "Rua Carlos Jua\u00e7aba, 1435", "status": "open"}}, {"id": "b6cd0262d200ce1f6b8fb25514ab4a9a", "name": "Pra\u00e7a Dr Juracy Magalh\u00e3es", "latitude": -3.758109, "longitude": -38.562591, "timestamp": "2024-08-15T11:37:24.172760Z", "free_bikes": 4, "empty_slots": 8, "extra": {"address": "", "description": "Av. Am\u00e9rico Barreira, entre as Ruas Maranh\u00e3o e Piau\u00ed. Na pra\u00e7a Dr Juracy Magalh\u00e3es", "status": "open"}}, {"id": "ba08fe638f3d1693da98522a8d0f61e0", "name": "Escola S\u00e3o Cura D Ars", "latitude": -3.70649, "longitude": -38.55945, "timestamp": "2024-08-15T11:37:24.167952Z", "free_bikes": 5, "empty_slots": 9, "extra": {"address": "", "description": "Rua Santa Elisa, em frente \u00e0 escola S\u00e3o Cura D Ars", "status": "open"}}, {"id": "bacfddcbf298318b2c06d97fbc4d3e65", "name": "Mercado dos Peixes", "latitude": -3.72189, "longitude": -38.48034, "timestamp": "2024-08-15T11:37:24.173009Z", "free_bikes": 14, "empty_slots": 6, "extra": {"address": "", "description": "Avenida Beira Mar, oposto ao n\u00ba4600. Ao lado do Mercado de Peixes.", "status": "open"}}, {"id": "bd7d531c7a7f37a55eba7788d844aad6", "name": "Jo\u00e3o Cordeiro", "latitude": -3.7266326, "longitude": -38.513479, "timestamp": "2024-08-15T11:37:24.166972Z", "free_bikes": 1, "empty_slots": 11, "extra": {"address": "EEFM Santa Luzia", "description": "Rua Jo\u00e3o Cordeiro, oposto a EEFM Santa Luzia / Esquina Rua Tenente Ben\u00e9volo", "status": "open"}}, {"id": "bdb31318c7c411df66ea58e2113c2a47", "name": "Pra\u00e7a Lu\u00edza T\u00e1vora", "latitude": -3.7321944, "longitude": -38.510347, "timestamp": "2024-08-15T11:37:24.166832Z", "free_bikes": 2, "empty_slots": 18, "extra": {"address": "Coord. do Gov. do Estado do Cear\u00e1", "description": "Avenida Santos Dumont, 1546, ao lado da Coord. do Gov. do Estado do Cear\u00e1 / Esquina Carlos Vasconcelos", "status": "open"}}, {"id": "bdcd45c69b840ede9144301a029d176d", "name": "Frotinha Parangaba", "latitude": -3.7786721, "longitude": -38.571677, "timestamp": "2024-08-15T11:37:24.172868Z", "free_bikes": 1, "empty_slots": 11, "extra": {"address": "", "description": "Av. Gen. Os\u00f3rio de Paiva com Rua Julio Braga", "status": "open"}}, {"id": "bdd6084f983b025a21356480bc2cc639", "name": "Gra\u00e7a Aranha", "latitude": -3.70692, "longitude": -38.57272, "timestamp": "2024-08-15T11:37:24.167880Z", "free_bikes": 0, "empty_slots": 12, "extra": {"address": "", "description": "Rua Gra\u00e7a Aranha, em frente \u00e0 lot\u00e9rica. Esquina com a Avenida Presidente Castelo Branco.", "status": "maintenance/implementation"}}, {"id": "bfb37448b7fd90d68af90546bb4e1510", "name": "Capela de S\u00e3o Sebasti\u00e3o - Dend\u00ea", "latitude": -3.77375, "longitude": -38.46406, "timestamp": "2024-08-15T11:37:24.172370Z", "free_bikes": 10, "empty_slots": 6, "extra": {"address": "", "description": "Rua Cidade Ecologica 649", "status": "open"}}, {"id": "bffb06099be17563da8e0af3491b7c68", "name": "Defensoria P\u00fablica do Cear\u00e1", "latitude": -3.77355, "longitude": -38.48673, "timestamp": "2024-08-15T11:37:24.172425Z", "free_bikes": 4, "empty_slots": 10, "extra": {"address": "", "description": "Avenida Pinto Bandeira 1111", "status": "open"}}, {"id": "c0771218224c68c87dfa288f7b0dcfd2", "name": "Hospital do Cora\u00e7\u00e3o Messejana", "latitude": -3.81488, "longitude": -38.4983, "timestamp": "2024-08-15T11:37:24.172571Z", "free_bikes": 7, "empty_slots": 5, "extra": {"address": "", "description": "Rua Almeida Rego esquina com Avenida Frei Cirilo", "status": "open"}}, {"id": "c1cd6a96b047626d2e4467f37219b71c", "name": "P\u00e1tio Messejana", "latitude": -3.84409, "longitude": -38.49429, "timestamp": "2024-08-15T11:37:24.172641Z", "free_bikes": 9, "empty_slots": 7, "extra": {"address": "", "description": "Rua Murar\u00e1 esquina com Rua Padre Pedro de Alencar", "status": "open"}}, {"id": "c2854aeda326b32f61f6f2180deb9911", "name": "Floricultura Olho D\u2019\u00e1gua", "latitude": -3.78814, "longitude": -38.5007, "timestamp": "2024-08-15T11:37:24.172470Z", "free_bikes": 5, "empty_slots": 7, "extra": {"address": "", "description": "Av. Jos\u00e9 Leon com Rua Chico Lemos", "status": "open"}}, {"id": "c41ce490b80783ca030dfc18ff599490", "name": "Francisco Cordeiro", "latitude": -3.71319, "longitude": -38.55065, "timestamp": "2024-08-15T11:37:24.167845Z", "free_bikes": 0, "empty_slots": 12, "extra": {"address": "", "description": "Rua Francisco Cordeiro, esquina com Av. Presidente Castelo Branco", "status": "maintenance/implementation"}}, {"id": "c42374e62dcb0236f0bb9b971d922a3a", "name": "Drogasil Cel. Carvalho", "latitude": -3.717626, "longitude": -38.587779, "timestamp": "2024-08-15T11:37:24.173184Z", "free_bikes": 5, "empty_slots": 7, "extra": {"address": "", "description": "Av. Cel. Carvalho esquina com a Rua Conselheiro Lafayette, no estacionamento da Drogasil", "status": "open"}}, {"id": "c4254af86df31ef8210002d7634c14fd", "name": "Pra\u00e7a da Esta\u00e7\u00e3o", "latitude": -3.72217, "longitude": -38.52933, "timestamp": "2024-08-15T11:37:24.172393Z", "free_bikes": 2, "empty_slots": 14, "extra": {"address": "", "description": "Rua General Sampaio, em frente ao n\u00ba 417", "status": "open"}}, {"id": "c55e5e263f5089d4cd08b926cda3daf3", "name": "Contax Borges de Melo", "latitude": -3.7577769, "longitude": -38.533017, "timestamp": "2024-08-15T11:37:24.167669Z", "free_bikes": 5, "empty_slots": 3, "extra": {"address": "", "description": "Rua Moreira Gomes, em frente ao Pr\u00e9dio da OI \u2013 CONTAX / Esquina Avenida Borges de Melo", "status": "open"}}, {"id": "c64f0df936a26ace9d7bacc3635f6f62", "name": "Cuca Barra", "latitude": -3.7002, "longitude": -38.5876, "timestamp": "2024-08-15T11:37:24.167903Z", "free_bikes": 11, "empty_slots": 10, "extra": {"address": "", "description": "Av. Presidente Castelo Branco no estacionamento do Cuca Barra", "status": "open"}}, {"id": "c6d4807d05cbc38edf3d8e5ecf345ce4", "name": "FIC Guararapes", "latitude": -3.7640658, "longitude": -38.486035, "timestamp": "2024-08-15T11:37:24.167770Z", "free_bikes": 0, "empty_slots": 12, "extra": {"address": "", "description": "Rua Eliseu Uch\u00f4a Beco, em frente \u00e0 FIC / Entre a Rua Firmino Rocha Aguiar e a Rua Romeu Aldigueri", "status": "open"}}, {"id": "c7ecd02c25283e87fd98fa7aee1a43d5", "name": "Supermercado Risorlange", "latitude": -3.794326, "longitude": -38.600566, "timestamp": "2024-08-15T11:37:24.172935Z", "free_bikes": 2, "empty_slots": 12, "extra": {"address": "", "description": "Rua Maria J\u00falia, 974. Em frente ao supermercado Ana Risorlange.", "status": "open"}}, {"id": "c8e9a2f47b4caabb9cbb18a5815b36d2", "name": "Pra\u00e7a da Imprensa", "latitude": -3.7457482, "longitude": -38.501683, "timestamp": "2024-08-15T11:37:24.167014Z", "free_bikes": 1, "empty_slots": 15, "extra": {"address": "Pra\u00e7a da Imprensa", "description": "Avenida Ant\u00f4nio Sales, na Pra\u00e7a da Imprensa / Esquina Avenida Desembargador Moreira", "status": "open"}}, {"id": "cb8f6f66a3ea6323e80ef1c47f2f89be", "name": "Campo Ferroviario", "latitude": -3.70908, "longitude": -38.58991, "timestamp": "2024-08-15T11:37:24.173002Z", "free_bikes": 10, "empty_slots": 4, "extra": {"address": "", "description": "Av. Cel. Carvalho esquina com a Rua Fil\u00f3, na Pra\u00e7a do Ferrovi\u00e1rio", "status": "open"}}, {"id": "cc7faa44a631c2db0667aa3f1c58a37f", "name": "RioMar Kennedy", "latitude": -3.72676, "longitude": -38.56874, "timestamp": "2024-08-15T11:37:24.168017Z", "free_bikes": 5, "empty_slots": 11, "extra": {"address": "", "description": "Av. Doutor Theberge, na cal\u00e7ada do Riomar Kennedy, oposta ao n\u00famero 2750", "status": "open"}}, {"id": "cc9892aa3a4ca9a52727031be49cf179", "name": "Frangol\u00e2ndia Sgt. Herm\u00ednio", "latitude": -3.7249075, "longitude": -38.551085, "timestamp": "2024-08-15T11:37:24.167074Z", "free_bikes": 2, "empty_slots": 12, "extra": {"address": "Supermercado Frangol\u00e2ndia", "description": "Rua Padre Anchieta, em frente ao Supermercado Frangol\u00e2ndia / Esquina Avenida Sargento Herm\u00ednio Sampaio", "status": "open"}}, {"id": "cf8cec489fa3091f5c25dd5dfa64e971", "name": "Frederico Borges", "latitude": -3.73579, "longitude": -38.48911, "timestamp": "2024-08-15T11:37:24.166870Z", "free_bikes": 4, "empty_slots": 12, "extra": {"address": "", "description": "R. Frederico Borges com Av. Dom Lu\u00eds", "status": "open"}}, {"id": "d07a600a84e9b13354acac7e0baaf153", "name": "Ot\u00e1vio Paranhos", "latitude": -3.724265, "longitude": -38.586249, "timestamp": "2024-08-15T11:37:24.173015Z", "free_bikes": 5, "empty_slots": 7, "extra": {"address": "", "description": "Av. Cel. Carvalho esquina com a Rua Ot\u00e1vio Paranhos, pr\u00f3ximo a Igreja Universal", "status": "open"}}, {"id": "d0fe247d0d4d0c99eb065ed9d863eaa8", "name": "Jos\u00e9 Meneleu", "latitude": -3.78091, "longitude": -38.55793, "timestamp": "2024-08-15T11:37:24.172820Z", "free_bikes": 0, "empty_slots": 12, "extra": {"address": "", "description": "Av. Dr. Silas Munguba em frente \u00e0 Rua Jos\u00e9 Meneleu", "status": "open"}}, {"id": "d1198ef63edfea88e0c3c76eb5c5aaf3", "name": "Pra\u00e7a Cora\u00e7\u00e3o de Jesus", "latitude": -3.73307, "longitude": -38.52638, "timestamp": "2024-08-15T11:37:24.166955Z", "free_bikes": 11, "empty_slots": 1, "extra": {"address": "Pra\u00e7a Cora\u00e7\u00e3o de Jesus", "description": "Rua Bar\u00e3o de Aratanha, esquina com a Av. Duque de Caxias", "status": "open"}}, {"id": "d12a20fb74e9cd5d1c46ecfc44cccdf6", "name": "Igreja de F\u00e1tima", "latitude": -3.751796, "longitude": -38.526293, "timestamp": "2024-08-15T11:37:24.167591Z", "free_bikes": 0, "empty_slots": 12, "extra": {"address": "", "description": "Rua Dom Sebasti\u00e3o Leme, em frente \u00e0 Pra\u00e7a Nossa Senhora de F\u00e1tima / Esquina Avenida 13 de Maio", "status": "open"}}, {"id": "d2a765dc34669b7dd1f71863399cfa7c", "name": "Rua Irapu\u00e3", "latitude": -3.70193, "longitude": -38.58389, "timestamp": "2024-08-15T11:37:24.167895Z", "free_bikes": 0, "empty_slots": 16, "extra": {"address": "90", "description": "Av. Presidente Castelo Branco pr\u00f3ximo \u00e0 rua Irapu\u00e3", "status": "maintenance/implementation"}}, {"id": "d5d69963bd4f81935ffcc8af26e51381", "name": "Coronel Linhares", "latitude": -3.7467183, "longitude": -38.497395, "timestamp": "2024-08-15T11:37:24.167756Z", "free_bikes": 2, "empty_slots": 10, "extra": {"address": "", "description": "Rua Coronel Linhares, lateral da Farm\u00e1cia Extrafarma / Esquina Avenida Ant\u00f4nio Sales", "status": "open"}}, {"id": "d5d7743d4694d58d5bbfa178d9dbb96a", "name": "Pra\u00e7a Santa Cec\u00edlia", "latitude": -3.7904, "longitude": -38.60952, "timestamp": "2024-08-15T11:37:24.172955Z", "free_bikes": 10, "empty_slots": 4, "extra": {"address": "", "description": "Rua Cal. Jo\u00e3o Correia esquina com Av. Cel. Virg\u00edlio Nogueira. Na pra\u00e7a Santa Cecilia", "status": "open"}}, {"id": "d78431408c590701412eec8bb3b7f991", "name": "Areninha Lagoa do Zeza", "latitude": -3.78113, "longitude": -38.50163, "timestamp": "2024-08-15T11:37:24.172454Z", "free_bikes": 9, "empty_slots": 7, "extra": {"address": "", "description": "Rua Padre Francisco Pita com Av. Rogaciano Leite", "status": "open"}}, {"id": "d9264ee1662bb9f28abcef98746d1ea5", "name": "CEDCE- SESI  Barra", "latitude": -3.70767, "longitude": -38.58375, "timestamp": "2024-08-15T11:37:24.172982Z", "free_bikes": 3, "empty_slots": 9, "extra": {"address": "", "description": "Av. Francisco s\u00e1, esquina co a Rua jos\u00e9 de Vasconcelos , pr\u00f3ximo ao sesi da Barra", "status": "open"}}, {"id": "d9528ac0e4a59ed11ee1abb4a8fd7743", "name": "Ana Bilhar", "latitude": -3.73098, "longitude": -38.4911, "timestamp": "2024-08-15T11:37:24.166914Z", "free_bikes": 3, "empty_slots": 13, "extra": {"address": "", "description": "R. Ana Bilhar com Av. Senador Virg\u00edlio T\u00e1vora", "status": "open"}}, {"id": "da0bc48960415522c829bba4b89ea2c1", "name": "Center Box - Jos\u00e9 Bastos", "latitude": -3.75453, "longitude": -38.55606, "timestamp": "2024-08-15T11:37:24.172706Z", "free_bikes": 4, "empty_slots": 12, "extra": {"address": "", "description": "Av. Humberto Monte 254", "status": "open"}}, {"id": "dabafeb49fd3337151b1ae0b1379913d", "name": "Atacad\u00e3o Vila Peri", "latitude": -3.78485, "longitude": -38.58145, "timestamp": "2024-08-15T11:37:24.173238Z", "free_bikes": 4, "empty_slots": 10, "extra": {"address": "Atacad\u00e3o Vila Peri", "description": "Avenida Gal Osorio De Paiva com R. Oliveira Sobrinho", "status": "open"}}, {"id": "ddf911d2c23b2dcd0aa27fed0372f9f8", "name": "Cristo Redentor", "latitude": -3.70569, "longitude": -38.5647, "timestamp": "2024-08-15T11:37:24.167961Z", "free_bikes": 6, "empty_slots": 6, "extra": {"address": "", "description": "Av. Monsenhor H\u00e9lio Campos esquina com a Rua Seis, em frente ao 20\u00b0 Batalh\u00e3o da Pol\u00edcia", "status": "open"}}, {"id": "de7e2ad5c2c411d429252553b7f89c46", "name": "Escola Santos Dumont", "latitude": -3.79369, "longitude": -38.5943, "timestamp": "2024-08-15T11:37:24.172922Z", "free_bikes": 8, "empty_slots": 6, "extra": {"address": "", "description": "Rua Oscar Fran\u00e7a, 286", "status": "open"}}, {"id": "dee673ea2efd2a1dd9aefe3aafb39600", "name": "Oscar Araripe", "latitude": -3.79106, "longitude": -38.5996, "timestamp": "2024-08-15T11:37:24.172942Z", "free_bikes": 2, "empty_slots": 10, "extra": {"address": "", "description": "Av. Oscar Araripe 916. Em frente a farm\u00e1cia Economia Farma", "status": "open"}}, {"id": "e0a284096b9c3259c0f720f4b31e37fc", "name": "EEFM Dona Hilza Diogo", "latitude": -3.71457, "longitude": -38.59679, "timestamp": "2024-08-15T11:37:24.173211Z", "free_bikes": 12, "empty_slots": 0, "extra": {"address": "", "description": "Av. Dom Alo\u00edsio Lorscheider, 1040 - Vila Velha", "status": "open"}}, {"id": "e2a96b2bf59dcf6958c15d6e1be92011", "name": "Pra\u00e7a Jo\u00e3o XXIII - Mini Bicicletar", "latitude": -3.77371, "longitude": -38.57922, "timestamp": "2024-08-15T11:37:24.173287Z", "free_bikes": 2, "empty_slots": 6, "extra": {"address": "", "description": "Rua Melo Jo\u00e3o de Oliveira esquina com Rua Perdig\u00e3o de Oliveira", "status": "open"}}, {"id": "e390a9d0423047249c2aea1598a88974", "name": "Carrefour", "latitude": -3.7431306, "longitude": -38.509695, "timestamp": "2024-08-15T11:37:24.167008Z", "free_bikes": 1, "empty_slots": 20, "extra": {"address": "Carrefour", "description": "Av. Antonio Sales, em frente ao Carrefour / Esquina Avenida Bar\u00e3o de Studart", "status": "open"}}, {"id": "e45e2d913aa4d06710c8e8630f84fae6", "name": "Pra\u00e7a Nossa Senhora Aparecida", "latitude": -3.78714, "longitude": -38.49681, "timestamp": "2024-08-15T11:37:24.172477Z", "free_bikes": 6, "empty_slots": 6, "extra": {"address": "", "description": "Rua Jo\u00e3o Lu\u00eds Santiago esquina com Avenida L\u00e9a Pompeu", "status": "open"}}, {"id": "e46c41eab6ae1ec992bad6a17cfe79e4", "name": "VLT Expedicion\u00e1rios", "latitude": -3.77106, "longitude": -38.54324, "timestamp": "2024-08-15T11:37:24.172678Z", "free_bikes": 3, "empty_slots": 13, "extra": {"address": "", "description": "Rua da Saudade, pr\u00f3ximo da entrada da esta\u00e7\u00e3o do VLT da Expedicion\u00e1rios", "status": "open"}}, {"id": "e52173784e8b4c21fac8e69080ab049d", "name": "Galeria Tio Sam", "latitude": -3.79611, "longitude": -38.48885, "timestamp": "2024-08-15T11:37:24.172519Z", "free_bikes": 0, "empty_slots": 14, "extra": {"address": "", "description": "Avenida Oliveira Paiva 1940", "status": "open"}}, {"id": "e6264c911f7ebccf0b64e1e038375bba", "name": "\u00c9rico Mota", "latitude": -3.7354169, "longitude": -38.563427, "timestamp": "2024-08-15T11:37:24.167080Z", "free_bikes": 13, "empty_slots": 3, "extra": {"address": "Esquina com a Rua Eduardo Barros Leal", "description": "Avenida Bezerra de Menezes, 2080 / Esquina Rua Eduardo Barros Leal", "status": "open"}}, {"id": "e7f9e1ae0953933898162d9a6e5494a0", "name": "Pra\u00e7a Jo\u00e3o Ventura Martins", "latitude": -3.77545, "longitude": -38.50033, "timestamp": "2024-08-15T11:37:24.172446Z", "free_bikes": 6, "empty_slots": 6, "extra": {"address": "", "description": "Avenida Rogaciano Leite entre Rua Brisamar Aguiar Ximenes e Rua Odete Carneiro Ximendes", "status": "open"}}, {"id": "e9a3f9891d62b6e4f70d618243ee0f5e", "name": "UNIMED", "latitude": -3.7307919, "longitude": -38.514873, "timestamp": "2024-08-15T11:37:24.166978Z", "free_bikes": 0, "empty_slots": 12, "extra": {"address": "UNIMED", "description": "Avenida Santos Dumont / Esquina Rua Jo\u00e3o Cordeiro", "status": "open"}}, {"id": "e9c4afbe0d24f27664eb0a05680d6eb8", "name": "Costa Mendes", "latitude": -3.7553085, "longitude": -38.546358, "timestamp": "2024-08-15T11:37:24.167128Z", "free_bikes": 3, "empty_slots": 9, "extra": {"address": "", "description": "Rua Frei Orlando, 684 / EsquinaRua Costa Mendes", "status": "open"}}, {"id": "ea17ee3a84dfbee0cfb6ef215e225a1a", "name": "Frotinha Antonio Bezerra", "latitude": -3.73744, "longitude": -38.59035, "timestamp": "2024-08-15T11:37:24.173165Z", "free_bikes": 2, "empty_slots": 10, "extra": {"address": "", "description": "R. C\u00e2ndido Maia, 294 - Ant\u00f4nio Bezerra, Fortaleza", "status": "open"}}, {"id": "ea9c2f9fb564532b646397d33ca1540d", "name": "Pra\u00e7a da OAB", "latitude": -3.75902, "longitude": -38.48427, "timestamp": "2024-08-15T11:37:24.167763Z", "free_bikes": 5, "empty_slots": 3, "extra": {"address": "", "description": "Av Washington Soares, na pra\u00e7a da OAB", "status": "open"}}, {"id": "ea9c8e5a9008e1ebca037ffb90cd981c", "name": "Transnordestina / Sopai", "latitude": -3.71331, "longitude": -38.56966, "timestamp": "2024-08-15T11:37:24.167989Z", "free_bikes": 13, "empty_slots": 3, "extra": {"address": "", "description": "Av. Francisco S\u00e1 em frente ao n\u00famero 5036. Na cal\u00e7ada da transnordestina", "status": "open"}}, {"id": "eb54a5edc12afb6a9bfd965b5a17b0e4", "name": "Campus do Pici - UFC", "latitude": -3.738618, "longitude": -38.569411, "timestamp": "2024-08-15T11:37:24.167092Z", "free_bikes": 7, "empty_slots": 5, "extra": {"address": "UFC", "description": "Rua Acesso P\u00fablico, pr\u00f3ximo \u00e0 entrada da UFC / Esquina com a Avenida Humberto Monte", "status": "open"}}, {"id": "ec5b6d615ac12c03724418bdf4b62465", "name": "Christus Parquel\u00e2ndia", "latitude": -3.74566, "longitude": -38.56327, "timestamp": "2024-08-15T11:37:24.172727Z", "free_bikes": 2, "empty_slots": 14, "extra": {"address": "", "description": "Av. Humberto Monte, 1720", "status": "open"}}, {"id": "ecb121b78bfce94655caa7cc0ae1d945", "name": "Rodovi\u00e1ria", "latitude": -3.757763, "longitude": -38.531637, "timestamp": "2024-08-15T11:37:24.167658Z", "free_bikes": 2, "empty_slots": 12, "extra": {"address": "", "description": "Avenida Deputado Oswaldo Studart, 1630 (Terminal Rodovi\u00e1rio Engenheiro Jos\u00e9 Thom\u00e9) / Esquina Avenida Borges de Melo", "status": "open"}}, {"id": "ed8509c21f86642639ff259a95e871dc", "name": "Escola Fl\u00e1vio Marc\u00edlio", "latitude": -3.71101, "longitude": -38.55875, "timestamp": "2024-08-15T11:37:24.167859Z", "free_bikes": 6, "empty_slots": 10, "extra": {"address": "", "description": "Av. Pasteur em frente \u00e0 escola EEFM Governador Fl\u00e1vio Marc\u00edlio", "status": "open"}}, {"id": "eefe0fa732529065d98d0e3fffe49acc", "name": "Cel. Jo\u00e3o de Oliveira", "latitude": -3.82302, "longitude": -38.48688, "timestamp": "2024-08-15T11:37:24.173245Z", "free_bikes": 3, "empty_slots": 9, "extra": {"address": "", "description": "", "status": "open"}}, {"id": "f177e88023568afde1c99010d6799b25", "name": "Areninha Jardim Iracema", "latitude": -3.718278, "longitude": -38.580486, "timestamp": "2024-08-15T11:37:24.173138Z", "free_bikes": 11, "empty_slots": 1, "extra": {"address": "", "description": "Rua Conselheiro Lafayette esquina com a Rua Rio Tocantins, ao lado da Areninha", "status": "open"}}, {"id": "f270cba124c3ce4bdc6162cc4ba43ae4", "name": "Joaquim Nabuco", "latitude": -3.7321014, "longitude": -38.500273, "timestamp": "2024-08-15T11:37:24.166889Z", "free_bikes": 3, "empty_slots": 9, "extra": {"address": "", "description": "Rua Joaquim Nabuco, 730 / Esquina Rua Dom Lu\u00eds", "status": "open"}}, {"id": "f2a5b438606b8d75c5704660115c0d99", "name": "Unifor", "latitude": -3.7712492, "longitude": -38.481941, "timestamp": "2024-08-15T11:37:24.167777Z", "free_bikes": 1, "empty_slots": 13, "extra": {"address": "74", "description": "Canteiro Central da Avenida Washington Soares, pr\u00f3ximo a UNIFOR / Esquina com a Avenida Doutor Valmir Ponte", "status": "open"}}, {"id": "f2fa1cdf63cbdc775873cdc68a64ece9", "name": "Cometa Frei Cirilo", "latitude": -3.81919, "longitude": -38.49634, "timestamp": "2024-08-15T11:37:24.172580Z", "free_bikes": 4, "empty_slots": 8, "extra": {"address": "", "description": "Rua Frederico Severo, esquina com Av. Frei Cirilo. Ao lado do supermercado Cometa", "status": "open"}}, {"id": "f30726b8268ee4c1df31b1c2665ad0eb", "name": "Samaria", "latitude": -3.78919, "longitude": -38.60595, "timestamp": "2024-08-15T11:37:24.172948Z", "free_bikes": 10, "empty_slots": 2, "extra": {"address": "", "description": "Rua Projetada, ao lado da \u00f3tica Irm\u00e3os Bezerra", "status": "open"}}, {"id": "f3a98bdf271315cea44a51973eb3070e", "name": "Plaza Shopping", "latitude": -3.83366, "longitude": -38.49026, "timestamp": "2024-08-15T11:37:24.172599Z", "free_bikes": 4, "empty_slots": 10, "extra": {"address": "", "description": "R. Jos\u00e9 Hip\u00f3lito 550", "status": "open"}}, {"id": "f409e1a5256daca08c9bfbf7cc63b170", "name": "Lavanderia Lourdes Ary", "latitude": -3.75862, "longitude": -38.57061, "timestamp": "2024-08-15T11:37:24.172754Z", "free_bikes": 9, "empty_slots": 3, "extra": {"address": "", "description": "Rua Pernambuco 595", "status": "open"}}, {"id": "f4529c927e4032d4f6283d56ab7f2e22", "name": "Pra\u00e7a do Carmo", "latitude": -3.732107, "longitude": -38.529396, "timestamp": "2024-08-15T11:37:24.166937Z", "free_bikes": 1, "empty_slots": 13, "extra": {"address": "", "description": "Rua Major Facundo, na Pra\u00e7a do Carmo", "status": "open"}}, {"id": "f6307e7bd63b73efa49d1cb58edaf0e9", "name": "Areninha Pirambu", "latitude": -3.71465, "longitude": -38.54544, "timestamp": "2024-08-15T11:37:24.167837Z", "free_bikes": 0, "empty_slots": 20, "extra": {"address": "", "description": "Av. Presidente Castelo Branco pr\u00f3ximo \u00e0 parada de \u00f4nibus, na cal\u00e7ada da Areninha.", "status": "maintenance/implementation"}}, {"id": "f68d2517fc32c51fd27c103f493a8da9", "name": "BNB Cultural / Catedral", "latitude": -3.7257252, "longitude": -38.525549, "timestamp": "2024-08-15T11:37:24.166943Z", "free_bikes": 3, "empty_slots": 9, "extra": {"address": "Catedral", "description": "Avenida Conde D\u00b4Eu, em frente ao Centro Cultural BNB / Esquina Rua Senador Almir Pinto", "status": "open"}}, {"id": "f69d39b025643ab9bf854225b38319af", "name": "Aterrinho Praia de Iracema - Minibicicletar", "latitude": -3.72044, "longitude": -38.51153, "timestamp": "2024-08-15T11:37:24.173259Z", "free_bikes": 1, "empty_slots": 7, "extra": {"address": "", "description": "R. Jo\u00e3o Cordeiro, pr\u00f3ximo ao cruzamento da Av. Beira Mar", "status": "open"}}, {"id": "f7eab7d22e00face1a193a31f9ef276b", "name": "Pra\u00e7a Paulo Benevides", "latitude": -3.83487, "longitude": -38.49906, "timestamp": "2024-08-15T11:37:24.172625Z", "free_bikes": 8, "empty_slots": 4, "extra": {"address": "", "description": "Rua Angelica Gurgel esquina com Rua Guaruj\u00e1", "status": "open"}}, {"id": "f863921c4a8334ac161a60ce9dcf23d5", "name": "Pra\u00e7a do Ferreira", "latitude": -3.7276737, "longitude": -38.527373, "timestamp": "2024-08-15T11:37:24.166949Z", "free_bikes": 1, "empty_slots": 11, "extra": {"address": "Pra\u00e7a do Ferreira", "description": "Pra\u00e7a do Ferreira, na Rua Floriano Peixoto, 625 / Esquina Rua Pedro Borges", "status": "open"}}]}