{"id": "bici-bolzano", "name": "Bici Bolzano", "location": {"latitude": 46.49, "longitude": 11.3401, "city": "Bolzano", "country": "IT"}, "href": "/v2/networks/bici-bolzano", "company": ["Ecospazio Logiss S.r.l."], "stations": [{"id": "1ab0f79eb7bf7332302323690e8d4f70", "name": "Claudia Augusta", "latitude": 46.483579, "longitude": 11.343183, "timestamp": "2025-05-03T03:03:32.262303+00:00Z", "free_bikes": 14, "empty_slots": 0, "extra": {"uid": "BAh7CEkiCGdpZAY6BkVUSSIsZ2lkOi8vYmt3L1NoYXJpbmdTdGF0aW9uLzE5Mz9leHBpcmVzX2luBjsAVEkiDHB1cnBvc2UGOwBUSSIMZGVmYXVsdAY7AFRJIg9leHBpcmVzX2F0BjsAVDA=--3008cf824e352d9854585d3731568fe6e0a042d2", "last_update": 1746240966, "online": true}}, {"id": "1e7ded3644f89bc9af798fa199f67139", "name": "Via Galilei - Galilei-Strasse", "latitude": 46.485846, "longitude": 11.335918, "timestamp": "2025-05-03T03:03:32.262324+00:00Z", "free_bikes": 6, "empty_slots": 6, "extra": {"uid": "BAh7CEkiCGdpZAY6BkVUSSIsZ2lkOi8vYmt3L1NoYXJpbmdTdGF0aW9uLzE5Nj9leHBpcmVzX2luBjsAVEkiDHB1cnBvc2UGOwBUSSIMZGVmYXVsdAY7AFRJIg9leHBpcmVzX2F0BjsAVDA=--1b380c7315ed00d73a49269e2feab2e5b0452a00", "last_update": 1746240966, "online": true}}, {"id": "37c4e6266097ca0862693f91e49db504", "name": "Palasport - Stadthalle", "latitude": 46.491091, "longitude": 11.316234, "timestamp": "2025-05-03T03:03:32.262312+00:00Z", "free_bikes": 15, "empty_slots": 0, "extra": {"uid": "BAh7CEkiCGdpZAY6BkVUSSIsZ2lkOi8vYmt3L1NoYXJpbmdTdGF0aW9uLzE5Nz9leHBpcmVzX2luBjsAVEkiDHB1cnBvc2UGOwBUSSIMZGVmYXVsdAY7AFRJIg9leHBpcmVzX2F0BjsAVDA=--c4e26e1fd97da55bd1a1fe7ccf67f1b70c69453a", "last_update": 1746240966, "online": true}}, {"id": "7614705a10958d1ccdf346f75d9539ab", "name": "Viale Europa", "latitude": 46.492615, "longitude": 11.324903, "timestamp": "2025-05-03T03:03:32.262327+00:00Z", "free_bikes": 0, "empty_slots": 12, "extra": {"uid": "BAh7CEkiCGdpZAY6BkVUSSIsZ2lkOi8vYmt3L1NoYXJpbmdTdGF0aW9uLzQ2NT9leHBpcmVzX2luBjsAVEkiDHB1cnBvc2UGOwBUSSIMZGVmYXVsdAY7AFRJIg9leHBpcmVzX2F0BjsAVDA=--bc328b4da961b3abf1e86643a210909746cf640a", "last_update": 1746240966, "online": true}}, {"id": "762f9fe54ba79806ad7a67c000478ef8", "name": "Casanova", "latitude": 46.480901, "longitude": 11.312433, "timestamp": "2025-05-03T03:03:32.262300+00:00Z", "free_bikes": 2, "empty_slots": 10, "extra": {"uid": "BAh7CEkiCGdpZAY6BkVUSSIsZ2lkOi8vYmt3L1NoYXJpbmdTdGF0aW9uLzQ2Nj9leHBpcmVzX2luBjsAVEkiDHB1cnBvc2UGOwBUSSIMZGVmYXVsdAY7AFRJIg9leHBpcmVzX2F0BjsAVDA=--b905857549d86e30377f204a5fd744c144e0eb31", "last_update": 1746240966, "online": true}}, {"id": "76d739bbf3576eae5d65d1aa12f3332f", "name": "Via Maso della Pieve - Pfarrhofstrasse", "latitude": 46.46461, "longitude": 11.333071, "timestamp": "2025-05-03T03:03:32.262315+00:00Z", "free_bikes": 8, "empty_slots": 4, "extra": {"uid": "BAh7CEkiCGdpZAY6BkVUSSIsZ2lkOi8vYmt3L1NoYXJpbmdTdGF0aW9uLzE5ND9leHBpcmVzX2luBjsAVEkiDHB1cnBvc2UGOwBUSSIMZGVmYXVsdAY7AFRJIg9leHBpcmVzX2F0BjsAVDA=--3242fbb9d66046deac446c8b89768cd1b6fc9c9f", "last_update": 1746240966, "online": true}}, {"id": "7b4bb9b69118a632e66b8271066b5c82", "name": "Ospedale - Krankenhaus", "latitude": 46.499597, "longitude": 11.308948, "timestamp": "2025-05-03T03:03:32.262332+00:00Z", "free_bikes": 3, "empty_slots": 9, "extra": {"uid": "BAh7CEkiCGdpZAY6BkVUSSIsZ2lkOi8vYmt3L1NoYXJpbmdTdGF0aW9uLzE5OD9leHBpcmVzX2luBjsAVEkiDHB1cnBvc2UGOwBUSSIMZGVmYXVsdAY7AFRJIg9leHBpcmVzX2F0BjsAVDA=--9bc94cf15edb94fdc76de38a15033eba707d96bd", "last_update": 1746240966, "online": true}}, {"id": "7b587188b015be55c67110ad89b2c272", "name": "Funivia del Colle", "latitude": 46.490933, "longitude": 11.366321, "timestamp": "2025-05-03T03:03:32.262308+00:00Z", "free_bikes": 2, "empty_slots": 4, "extra": {"uid": "BAh7CEkiCGdpZAY6BkVUSSIsZ2lkOi8vYmt3L1NoYXJpbmdTdGF0aW9uLzQ2Mj9leHBpcmVzX2luBjsAVEkiDHB1cnBvc2UGOwBUSSIMZGVmYXVsdAY7AFRJIg9leHBpcmVzX2F0BjsAVDA=--2f7728b855652d2f1d57e07c5524a0742097aff3", "last_update": 1746240966, "online": true}}, {"id": "81654236e6d7b7d85f8566050dc7f452", "name": "Fiera - Messe", "latitude": 46.473876, "longitude": 11.325996, "timestamp": "2025-05-03T03:03:32.262317+00:00Z", "free_bikes": 8, "empty_slots": 4, "extra": {"uid": "BAh7CEkiCGdpZAY6BkVUSSIsZ2lkOi8vYmt3L1NoYXJpbmdTdGF0aW9uLzE5NT9leHBpcmVzX2luBjsAVEkiDHB1cnBvc2UGOwBUSSIMZGVmYXVsdAY7AFRJIg9leHBpcmVzX2F0BjsAVDA=--845248b808d1bf6c6115e471e41ccdca99f09743", "last_update": 1746240966, "online": true}}, {"id": "99e35e9aa75a37b59a058d6049882644", "name": "Piazza Gries - Grieserplatz", "latitude": 46.502365, "longitude": 11.335204, "timestamp": "2025-05-03T03:03:32.262305+00:00Z", "free_bikes": 7, "empty_slots": 5, "extra": {"uid": "BAh7CEkiCGdpZAY6BkVUSSIsZ2lkOi8vYmt3L1NoYXJpbmdTdGF0aW9uLzE5OT9leHBpcmVzX2luBjsAVEkiDHB1cnBvc2UGOwBUSSIMZGVmYXVsdAY7AFRJIg9leHBpcmVzX2F0BjsAVDA=--1bd9304bdb17a53ff75a7080179f84c9d2776825", "last_update": 1746240966, "online": true}}, {"id": "9b3a9cfe00a2f944a40ae857b623fabf", "name": "Piazza Ziller", "latitude": 46.493185, "longitude": 11.340822, "timestamp": "2025-05-03T03:03:32.262296+00:00Z", "free_bikes": 8, "empty_slots": 0, "extra": {"uid": "BAh7CEkiCGdpZAY6BkVUSSIsZ2lkOi8vYmt3L1NoYXJpbmdTdGF0aW9uLzQ2ND9leHBpcmVzX2luBjsAVEkiDHB1cnBvc2UGOwBUSSIMZGVmYXVsdAY7AFRJIg9leHBpcmVzX2F0BjsAVDA=--ddc69afa031263d58526f56a5d60574abb2b8c70", "last_update": 1746240966, "online": true}}, {"id": "a0ff1a51738337b57136f449dabbc3aa", "name": "NOI Techpark Alto Adige", "latitude": 46.479306, "longitude": 11.333139, "timestamp": "2025-05-03T03:03:32.262310+00:00Z", "free_bikes": 8, "empty_slots": 4, "extra": {"uid": "BAh7CEkiCGdpZAY6BkVUSSIsZ2lkOi8vYmt3L1NoYXJpbmdTdGF0aW9uLzM0ND9leHBpcmVzX2luBjsAVEkiDHB1cnBvc2UGOwBUSSIMZGVmYXVsdAY7AFRJIg9leHBpcmVzX2F0BjsAVDA=--c21564daa3fde7db6ac067e1f567a4847ed9c060", "last_update": 1746240966, "online": true}}, {"id": "b8cffa6573abd5b0a99f94883d928ba4", "name": "Ponte Talvera", "latitude": 46.500313, "longitude": 11.345923, "timestamp": "2025-05-03T03:03:32.262320+00:00Z", "free_bikes": 5, "empty_slots": 3, "extra": {"uid": "BAh7CEkiCGdpZAY6BkVUSSIsZ2lkOi8vYmt3L1NoYXJpbmdTdGF0aW9uLzQ2Mz9leHBpcmVzX2luBjsAVEkiDHB1cnBvc2UGOwBUSSIMZGVmYXVsdAY7AFRJIg9leHBpcmVzX2F0BjsAVDA=--b8901538dd95a269182c83802f18772f9e4fe6eb", "last_update": 1746240966, "online": true}}, {"id": "c353929a5c6c8c312cf1b4d7b0caf38c", "name": "Piazza Matteotti - Matteotti Platz", "latitude": 46.490211, "longitude": 11.337135, "timestamp": "2025-05-03T03:03:32.262329+00:00Z", "free_bikes": 0, "empty_slots": 6, "extra": {"uid": "BAh7CEkiCGdpZAY6BkVUSSIsZ2lkOi8vYmt3L1NoYXJpbmdTdGF0aW9uLzQxNz9leHBpcmVzX2luBjsAVEkiDHB1cnBvc2UGOwBUSSIMZGVmYXVsdAY7AFRJIg9leHBpcmVzX2F0BjsAVDA=--78b09f10f7e8c0905a6dad4c9589f784b8fe96aa", "last_update": 1746240966, "online": true}}, {"id": "c9aeea77a9eb1e0347b1545c6c0820bd", "name": "Don Bosco", "latitude": 46.488428, "longitude": 11.324709, "timestamp": "2025-05-03T03:03:32.262287+00:00Z", "free_bikes": 10, "empty_slots": 2, "extra": {"uid": "BAh7CEkiCGdpZAY6BkVUSSIsZ2lkOi8vYmt3L1NoYXJpbmdTdGF0aW9uLzQxNj9leHBpcmVzX2luBjsAVEkiDHB1cnBvc2UGOwBUSSIMZGVmYXVsdAY7AFRJIg9leHBpcmVzX2F0BjsAVDA=--b8e1095924315dc7089c54cc36abf07595b1a123", "last_update": 1746240966, "online": true}}, {"id": "edd234c8d8643bdb90a85effc1e5dd8b", "name": "Viale della Stazione - Bahnhofsallee", "latitude": 46.497459, "longitude": 11.355516, "timestamp": "2025-05-03T03:03:32.262322+00:00Z", "free_bikes": 25, "empty_slots": 0, "extra": {"uid": "BAh7CEkiCGdpZAY6BkVUSSIsZ2lkOi8vYmt3L1NoYXJpbmdTdGF0aW9uLzE5Mj9leHBpcmVzX2luBjsAVEkiDHB1cnBvc2UGOwBUSSIMZGVmYXVsdAY7AFRJIg9leHBpcmVzX2F0BjsAVDA=--33150e8ef8c952030277c63eec20b5e9ea6c76d3", "last_update": 1746240966, "online": true}}]}