{"id": "bicincitta-assemini", "name": "Bicincitt\u00e0", "location": {"latitude": 39.28956306007679, "longitude": 9.006601555294765, "city": "Assemini", "country": "IT"}, "href": "/v2/networks/bicincitta-assemini", "company": ["Comunicare S.r.l."], "system": "Bicincitt\u00e0", "source": "https://www.bicincitta.com/frmLeStazioni.aspx?ID=205", "stations": [{"id": "19214e68e790635ff5d10a84a74f1e9f", "name": "01 - ELMAS - Municipio", "latitude": 39.270203, "longitude": 9.0490639, "timestamp": "2025-05-03T03:03:49.533051+00:00Z", "free_bikes": 3, "empty_slots": 4, "extra": {"uid": "1870", "number": 1, "status": "online", "score": 1.1, "reviews": 2}}, {"id": "442e777920ad6e15d507eb2f3a1c83d3", "name": "03 - SELARGIUS - Cellarium", "latitude": 39.254039716059765, "longitude": 9.16515111923218, "timestamp": "2025-05-03T03:03:49.532956+00:00Z", "free_bikes": 7, "empty_slots": 2, "extra": {"uid": "1317", "number": 3, "status": "online", "score": 2.0, "reviews": 3}}, {"id": "445e0d1fb31174a65a13b0f94bf0a495", "name": "08 - ASSEMINI - Marconi", "latitude": 39.29602074930409, "longitude": 9.00176112289273, "timestamp": "2025-05-03T03:03:49.533039+00:00Z", "free_bikes": 3, "empty_slots": 4, "extra": {"uid": "1387", "number": 8, "status": "offline", "score": 1.0, "reviews": 1}}, {"id": "575d81ef5cfe97fc781dc051306a44b8", "name": "02 - ELMAS - Stazione FS", "latitude": 39.2648967, "longitude": 9.0457391, "timestamp": "2025-05-03T03:03:49.533014+00:00Z", "free_bikes": 4, "empty_slots": 6, "extra": {"uid": "1319", "number": 2, "status": "online", "score": 1.0, "reviews": 1}}, {"id": "5a7553f8f4ad4757eb9ea357202b1559", "name": "06 - MONSERRATO - Caracalla", "latitude": 39.25413941022602, "longitude": 9.132728576660158, "timestamp": "2025-05-03T03:03:49.533072+00:00Z", "free_bikes": 0, "empty_slots": 4, "extra": {"uid": "1883", "number": 6, "status": "online", "score": 1.0, "reviews": 1}}, {"id": "6da309ac651c8b14cdc89afdab2b96d5", "name": "07 - ASSEMINI - Cagliari", "latitude": 39.2873253, "longitude": 9.0048934, "timestamp": "2025-05-03T03:03:49.533028+00:00Z", "free_bikes": 4, "empty_slots": 4, "extra": {"uid": "1386", "number": 7, "status": "online", "score": 1.0, "reviews": 1}}, {"id": "c45739ec6e2730b1d70d8c25e35755ba", "name": "04 - SELARGIUS - Scuole", "latitude": 39.25848012292418, "longitude": 9.153467416763307, "timestamp": "2025-05-03T03:03:49.532975+00:00Z", "free_bikes": 5, "empty_slots": 3, "extra": {"uid": "1318", "number": 4, "status": "online", "score": 3.0, "reviews": 2}}, {"id": "ff7fd19a6871a286964a27c054b1afed", "name": "05 - MONSERRATO - Municipio", "latitude": 39.2591664, "longitude": 9.137640384205659, "timestamp": "2025-05-03T03:03:49.533061+00:00Z", "free_bikes": 5, "empty_slots": 4, "extra": {"uid": "1882", "number": 5, "status": "online", "score": 1.0, "reviews": 1}}]}