{"id": "bicincitta-pista", "name": "PisTA!", "location": {"latitude": 40.4351, "longitude": 17.2096, "city": "Taranto", "country": "IT"}, "href": "/v2/networks/bicincitta-pista", "company": ["Comunicare S.r.l."], "system": "Bicincitt\u00e0", "source": "https://www.bicincitta.com/frmLeStazioni.aspx?ID=270", "stations": [{"id": "0630c8dd2800d72a78e23f88e685d3e1", "name": "03 - Biblioteca Acclavio", "latitude": 40.46342144350453, "longitude": 17.26031541824341, "timestamp": "2025-05-03T03:03:54.709688+00:00Z", "free_bikes": 0, "empty_slots": 0, "extra": {"uid": "1707", "number": 3, "status": "offline", "score": 1.0, "reviews": 1}}, {"id": "2b62c4abcb4b98a01a41f0300916c87e", "name": "02 - Giardini Virgilio", "latitude": 40.45202124108491, "longitude": 17.25660860538483, "timestamp": "2025-05-03T03:03:54.709675+00:00Z", "free_bikes": 1, "empty_slots": 7, "extra": {"uid": "1706", "number": 2, "status": "offline", "score": 1.0, "reviews": 1}}, {"id": "39db3eab0ee63f53add9562e2d02eed8", "name": "04 - Villa Peripato", "latitude": 40.47333025181832, "longitude": 17.243696451187137, "timestamp": "2025-05-03T03:03:54.709699+00:00Z", "free_bikes": 5, "empty_slots": 3, "extra": {"uid": "1708", "number": 4, "status": "offline", "score": 1.0, "reviews": 1}}, {"id": "75d26943d20901084b8e788a6ee78fd4", "name": "01 - Talsano", "latitude": 40.40832501233409, "longitude": 17.280786037445072, "timestamp": "2025-05-03T03:03:54.709654+00:00Z", "free_bikes": 5, "empty_slots": 3, "extra": {"uid": "1705", "number": 1, "status": "offline", "score": 1.0, "reviews": 1}}, {"id": "9572a556e9634f37e2bf95958a18314e", "name": "05 - Piazza Castello", "latitude": 40.47350980483051, "longitude": 17.23414778709412, "timestamp": "2025-05-03T03:03:54.709711+00:00Z", "free_bikes": 0, "empty_slots": 0, "extra": {"uid": "1709", "number": 5, "status": "offline", "score": 1.0, "reviews": 1}}]}