{"id": "bicincitta-forli", "name": "Mi Muovo in Bici", "location": {"latitude": 44.2227398, "longitude": 12.0407312, "city": "Forl\u00ec", "country": "IT"}, "href": "/v2/networks/bicincitta-forli", "company": ["Comunicare S.r.l."], "system": "Bicincitt\u00e0", "source": "http://www.mimuovoinbici.it/frmLeStazioni.aspx?ID=119", "stations": [{"id": "07fd36c6192c4b0a968a1901b2436b47", "name": "09. Campus Universitario I", "latitude": 44.219257092084504, "longitude": 12.042756043507666, "timestamp": "2025-05-03T03:03:53.784260+00:00Z", "free_bikes": 4, "empty_slots": 5, "extra": {"uid": "1397", "number": 9, "status": "online", "score": 1.0, "reviews": 1}}, {"id": "0e3b10f2fd10d820da4884581399a938", "name": "01. Stazione FS", "latitude": 44.22335229505328, "longitude": 12.055386900901794, "timestamp": "2025-05-03T03:03:53.784149+00:00Z", "free_bikes": 8, "empty_slots": 15, "extra": {"uid": "700", "number": 1, "status": "online", "score": 2.4, "reviews": 51}}, {"id": "1bb62734ce57a6ded57124c3ed56ad06", "name": "11. Campus Universitario II", "latitude": 44.21769682202885, "longitude": 12.044369191368787, "timestamp": "2025-05-03T03:03:53.784284+00:00Z", "free_bikes": 4, "empty_slots": 6, "extra": {"uid": "1399", "number": 11, "status": "online", "score": 1.0, "reviews": 2}}, {"id": "2ed60ac5cfaaa3f5798dd177e24d3ead", "name": "08. Ospedale", "latitude": 44.20636566761889, "longitude": 12.021456956863405, "timestamp": "2025-05-03T03:03:53.784249+00:00Z", "free_bikes": 3, "empty_slots": 5, "extra": {"uid": "1396", "number": 8, "status": "online", "score": 1.0, "reviews": 1}}, {"id": "3b53fdaccaa6453fddb19b402df04e82", "name": "13. Lombardini", "latitude": 44.21758929932333, "longitude": 12.041240930557253, "timestamp": "2025-05-03T03:03:53.784371+00:00Z", "free_bikes": 3, "empty_slots": 3, "extra": {"uid": "1674", "number": 13, "status": "online", "score": 2.5, "reviews": 2}}, {"id": "5fd538e00c019ea6e2c41d7b880fa8b9", "name": "03. Vittorio Veneto", "latitude": 44.22791707224468, "longitude": 12.042153289953376, "timestamp": "2025-05-03T03:03:53.784193+00:00Z", "free_bikes": 6, "empty_slots": 9, "extra": {"uid": "702", "number": 3, "status": "online", "score": 0.8, "reviews": 18}}, {"id": "993fcf1b08bdb8be668f3b17ac493a54", "name": "02. Vittoria", "latitude": 44.21760703103311, "longitude": 12.050157669358668, "timestamp": "2025-05-03T03:03:53.784180+00:00Z", "free_bikes": 4, "empty_slots": 4, "extra": {"uid": "701", "number": 2, "status": "online", "score": 1.3, "reviews": 24}}, {"id": "ae28a461bfd970a59e7438c35e4a309b", "name": "05. San Domenico", "latitude": 44.22204136033785, "longitude": 12.036168873310089, "timestamp": "2025-05-03T03:03:53.784216+00:00Z", "free_bikes": 4, "empty_slots": 9, "extra": {"uid": "704", "number": 5, "status": "online", "score": 3.6, "reviews": 9}}, {"id": "b1fa2813ea8a27f34d3dc45fd7d1976a", "name": "12. XX Settembre", "latitude": 44.2221882, "longitude": 12.0429977, "timestamp": "2025-05-03T03:03:53.784295+00:00Z", "free_bikes": 3, "empty_slots": 4, "extra": {"uid": "1673", "number": 12, "status": "online", "score": 1.0, "reviews": 1}}, {"id": "c2c50a06cdeb7ae178e9d2606fdf68fc", "name": "10. Park Oriani", "latitude": 44.22113727254554, "longitude": 12.049119669740435, "timestamp": "2025-05-03T03:03:53.784272+00:00Z", "free_bikes": 4, "empty_slots": 4, "extra": {"uid": "1398", "number": 10, "status": "online", "score": 1.0, "reviews": 1}}, {"id": "d6c89a46357ec1fa3b915316c97ba4aa", "name": "06. Park dell'Argine", "latitude": 44.2189271376979, "longitude": 12.032757103443146, "timestamp": "2025-05-03T03:03:53.784227+00:00Z", "free_bikes": 6, "empty_slots": 14, "extra": {"uid": "705", "number": 6, "status": "online", "score": 3.8, "reviews": 8}}, {"id": "e44f8b208fea3fd1494ba0d274bd444e", "name": "07. Park Schiavonia", "latitude": 44.22621541081547, "longitude": 12.028287202119827, "timestamp": "2025-05-03T03:03:53.784238+00:00Z", "free_bikes": 1, "empty_slots": 5, "extra": {"uid": "706", "number": 7, "status": "online", "score": 1.6, "reviews": 14}}, {"id": "e9c52b1f383c4d0cc97c099e732a71bf", "name": "04. Piazza Saffi", "latitude": 44.22332267076291, "longitude": 12.041495740413666, "timestamp": "2025-05-03T03:03:53.784204+00:00Z", "free_bikes": 6, "empty_slots": 19, "extra": {"uid": "703", "number": 4, "status": "online", "score": 1.8, "reviews": 14}}, {"id": "fe3dcbea4cccf92c537d082d4f59413b", "name": "14. Manzoni", "latitude": 44.2231202, "longitude": 12.0477371, "timestamp": "2025-05-03T03:03:53.784391+00:00Z", "free_bikes": 4, "empty_slots": 3, "extra": {"uid": "1675", "number": 14, "status": "online", "score": 3.4, "reviews": 3}}]}