{"id": "bicibur", "name": "BiciBur", "location": {"latitude": 42.34392, "longitude": -3.69697, "city": "Burgos", "country": "ES"}, "href": "/v2/networks/bicibur", "company": ["Instituto Tecnol\u00f3gico de Castilla y Le\u00f3n (ITCL)"], "stations": [{"id": "00e9142c79e6d7571693497e25ea524e", "name": "Junta de Castilla y Le\u00f3n (Pz. Bilbao)", "latitude": 42.3469167, "longitude": -3.6863611, "timestamp": "2024-03-11T05:47:14.086Z", "free_bikes": 0, "empty_slots": 10, "extra": {"slots": 10, "online": true, "uid": 1, "normal_bikes": 0, "ebikes": 0}}, {"id": "04184188ef25b24382781baeb956b074", "name": "Santa B\u00e1rbara (C/ Nuestra Sra. de F\u00e1tima)", "latitude": 42.3502222, "longitude": -3.6755833, "timestamp": "2024-03-11T05:47:14.114Z", "free_bikes": 3, "empty_slots": 7, "extra": {"slots": 10, "online": true, "uid": 8, "normal_bikes": 3, "ebikes": 0}}, {"id": "12e44e5b008c9816273f8115725ca7b3", "name": "Casa Cultura Gamonal", "latitude": 42.35293, "longitude": -3.668767, "timestamp": "2024-03-11T05:47:14.156Z", "free_bikes": 0, "empty_slots": 10, "extra": {"slots": 10, "online": false, "uid": 26, "normal_bikes": 0, "ebikes": 0}}, {"id": "1acdc0fba4ca0004be566dd94bc73773", "name": "Escuela Polit\u00e9cnica Superior (La Milanera)", "latitude": 42.3426111, "longitude": -3.7328889, "timestamp": "2024-03-11T05:47:14.109Z", "free_bikes": 6, "empty_slots": 4, "extra": {"slots": 10, "online": true, "uid": 5, "normal_bikes": 6, "ebikes": 0}}, {"id": "2d4c2c86356ae3dd5fd665b5f4402066", "name": "Centro C\u00edvico San Agust\u00edn (Pz. San Agust\u00edn)", "latitude": 42.3339167, "longitude": -3.7002222, "timestamp": "2024-03-11T05:47:14.108Z", "free_bikes": 3, "empty_slots": 7, "extra": {"slots": 10, "online": true, "uid": 4, "normal_bikes": 3, "ebikes": 0}}, {"id": "40fb973123ab923e1520b64de4522812", "name": "Juzgados", "latitude": 42.3497778, "longitude": -3.6906667, "timestamp": "2024-03-11T05:47:14.116Z", "free_bikes": 0, "empty_slots": 10, "extra": {"slots": 10, "online": true, "uid": 9, "normal_bikes": 0, "ebikes": 0}}, {"id": "41228e20fa385598b5fa1207eb234e1b", "name": "Paseo de la Isla", "latitude": 42.3393889, "longitude": -3.7122222, "timestamp": "2024-03-11T05:47:14.144Z", "free_bikes": 2, "empty_slots": 8, "extra": {"slots": 10, "online": true, "uid": 19, "normal_bikes": 2, "ebikes": 0}}, {"id": "52974e959babef50220eddde787f2823", "name": "C/ Nu\u00f1o Rasura (Catedral)", "latitude": 42.3397778, "longitude": -3.7055, "timestamp": "2024-03-11T05:47:14.127Z", "free_bikes": 3, "empty_slots": 7, "extra": {"slots": 10, "online": true, "uid": 14, "normal_bikes": 3, "ebikes": 0}}, {"id": "5bd556bd29b47253207c7497e811f084", "name": "Centro Civico Capiscol", "latitude": 42.3494722, "longitude": -3.6704444, "timestamp": "2024-03-11T05:47:14.153Z", "free_bikes": 7, "empty_slots": 3, "extra": {"slots": 10, "online": true, "uid": 23, "normal_bikes": 7, "ebikes": 0}}, {"id": "5efcb02d299d6b081ec890929818a99f", "name": "Barrio San Crist\u00f3bal", "latitude": 42.3636389, "longitude": -3.6559444, "timestamp": "2024-03-11T05:47:14.135Z", "free_bikes": 8, "empty_slots": 2, "extra": {"slots": 10, "online": true, "uid": 17, "normal_bikes": 8, "ebikes": 0}}, {"id": "63a611bf52ef5488abc35bae18508c8a", "name": "Plaza de Espa\u00f1a", "latitude": 42.3435833, "longitude": -3.6966667, "timestamp": "2024-03-11T05:47:14.132Z", "free_bikes": 10, "empty_slots": 0, "extra": {"slots": 10, "online": true, "uid": 15, "normal_bikes": 10, "ebikes": 0}}, {"id": "6c6f7d01bf9ebebf7e58794c0a934532", "name": "Centro C\u00edvico Gamonal Norte", "latitude": 42.359801, "longitude": -3.667905, "timestamp": "2024-03-11T05:47:14.155Z", "free_bikes": 6, "empty_slots": 4, "extra": {"slots": 10, "online": true, "uid": 25, "normal_bikes": 6, "ebikes": 0}}, {"id": "7af04f80f7fa1e43888e0ccb6da366dc", "name": "Piscinas de Capiscol", "latitude": 42.3489722, "longitude": -3.6626944, "timestamp": "2024-03-11T05:47:14.152Z", "free_bikes": 2, "empty_slots": 8, "extra": {"slots": 10, "online": true, "uid": 22, "normal_bikes": 2, "ebikes": 0}}, {"id": "92683447e6992687b3dd867b49b2f091", "name": "Piscinas de San Amaro", "latitude": 42.3416389, "longitude": -3.7222778, "timestamp": "2024-03-11T05:47:14.154Z", "free_bikes": 3, "empty_slots": 7, "extra": {"slots": 10, "online": true, "uid": 24, "normal_bikes": 3, "ebikes": 0}}, {"id": "a01968b885e7e3285307572560b06dda", "name": "Boulevard (El Hangar)", "latitude": 42.3333611, "longitude": -3.7091389, "timestamp": "2024-03-11T05:47:14.146Z", "free_bikes": 5, "empty_slots": 5, "extra": {"slots": 10, "online": true, "uid": 21, "normal_bikes": 5, "ebikes": 0}}, {"id": "ba4d35fa4cf61633c80dfbe3259726ed", "name": "Parralillos", "latitude": 42.3383889, "longitude": -3.7246111, "timestamp": "2024-03-11T05:47:14.134Z", "free_bikes": 2, "empty_slots": 8, "extra": {"slots": 10, "online": true, "uid": 16, "normal_bikes": 2, "ebikes": 0}}, {"id": "c2fa121ab3a5056118405b11698b60b3", "name": "Biblio. Miguel de Cervantes (C/ Serramagna)", "latitude": 42.3424444, "longitude": -3.7161389, "timestamp": "2024-03-11T05:47:14.110Z", "free_bikes": 4, "empty_slots": 6, "extra": {"slots": 10, "online": true, "uid": 6, "normal_bikes": 4, "ebikes": 0}}, {"id": "c7b246a01906b26131124b8bc2ea8e2d", "name": "Santa Clara - Bulevar", "latitude": 42.3368611, "longitude": -3.6947222, "timestamp": "2024-03-11T05:47:14.120Z", "free_bikes": 4, "empty_slots": 6, "extra": {"slots": 10, "online": true, "uid": 10, "normal_bikes": 4, "ebikes": 0}}, {"id": "c97ca9a99b4ce1729a24780dc76266b7", "name": "Centro Civico Rio Vena", "latitude": 42.3520556, "longitude": -3.6840556, "timestamp": "2024-03-11T05:47:14.126Z", "free_bikes": 1, "empty_slots": 9, "extra": {"slots": 10, "online": true, "uid": 13, "normal_bikes": 1, "ebikes": 0}}, {"id": "cf9362cfa0f5e6129140fd440ff44a43", "name": "Museo de la Evoluci\u00f3n", "latitude": 42.3401111, "longitude": -3.69625, "timestamp": "2024-03-11T05:47:14.125Z", "free_bikes": 1, "empty_slots": 9, "extra": {"slots": 10, "online": true, "uid": 12, "normal_bikes": 1, "ebikes": 0}}, {"id": "d1c892e820d61abac1850334d73a51a4", "name": "Centro C\u00edvico Vista Alegre (C/ Victoria Balf\u00e9)", "latitude": 42.3614167, "longitude": -3.6786667, "timestamp": "2024-03-11T05:47:14.112Z", "free_bikes": 6, "empty_slots": 4, "extra": {"slots": 10, "online": true, "uid": 7, "normal_bikes": 6, "ebikes": 0}}, {"id": "d390ae87aabcd124c9855cd53c93bfbd", "name": "Diputaci\u00f3n Provincial", "latitude": 42.3412778, "longitude": -3.7001111, "timestamp": "2024-03-11T05:47:14.105Z", "free_bikes": 0, "empty_slots": 20, "extra": {"slots": 20, "online": true, "uid": 3, "normal_bikes": 0, "ebikes": 0}}, {"id": "e42896259946441c369726c06cf8a3fb", "name": "Estaci\u00f3n Trenes", "latitude": 42.3704722, "longitude": -3.6667222, "timestamp": "2024-03-11T05:47:14.124Z", "free_bikes": 3, "empty_slots": 7, "extra": {"slots": 10, "online": true, "uid": 11, "normal_bikes": 3, "ebikes": 0}}, {"id": "e86baa8d338d72714d2fc4dec1235137", "name": "Hospital Universitario", "latitude": 42.3608889, "longitude": -3.6854167, "timestamp": "2024-03-11T05:47:14.145Z", "free_bikes": 8, "empty_slots": 2, "extra": {"slots": 10, "online": true, "uid": 20, "normal_bikes": 8, "ebikes": 0}}, {"id": "e9ea548bc2ba1c6f4be6e85680c239a5", "name": "C/ Esteban Saez Alvarado - C/ Vitoria", "latitude": 42.35513, "longitude": -3.66274, "timestamp": "2024-03-11T05:47:14.156Z", "free_bikes": 3, "empty_slots": 7, "extra": {"slots": 10, "online": true, "uid": 27, "normal_bikes": 3, "ebikes": 0}}]}