{"id": "bicincitta-cesena", "name": "Mi Muovo in bici", "location": {"latitude": 44.1396438, "longitude": 12.2464292, "city": "Cesena", "country": "IT"}, "href": "/v2/networks/bicincitta-cesena", "company": ["Comunicare S.r.l."], "system": "Bicincitt\u00e0", "source": "http://www.mimuovoinbici.it/frmLeStazioni.aspx?ID=120", "stations": [{"id": "65da779c218578b8ebc29feaa2d0f8c6", "name": "1. Stazione FS", "latitude": 44.14511328111016, "longitude": 12.248680293560028, "timestamp": "2025-05-03T03:03:54.559684+00:00Z", "free_bikes": 5, "empty_slots": 3, "extra": {"uid": "710", "number": 1, "status": "offline", "score": 3.3, "reviews": 37}}, {"id": "7b9b27e0a10d0dd51a8b9d05f07dca4d", "name": "5. Sanguinetti", "latitude": 44.14488799054911, "longitude": 12.249168251976016, "timestamp": "2025-05-03T03:03:54.559740+00:00Z", "free_bikes": 5, "empty_slots": 3, "extra": {"uid": "1457", "number": 5, "status": "offline", "score": 4.5, "reviews": 14}}, {"id": "8d33928b95d11483434f4e30aeb19634", "name": "3. Bufalini", "latitude": 44.13862767296992, "longitude": 12.243695588534138, "timestamp": "2025-05-03T03:03:54.559718+00:00Z", "free_bikes": 5, "empty_slots": 3, "extra": {"uid": "712", "number": 3, "status": "offline", "score": 2.5, "reviews": 5}}, {"id": "ec93fcd20640e14e1a6de2c7862be957", "name": "2. Karl Marx", "latitude": 44.14443001059742, "longitude": 12.249042391777039, "timestamp": "2025-05-03T03:03:54.559706+00:00Z", "free_bikes": 5, "empty_slots": 3, "extra": {"uid": "711", "number": 2, "status": "offline", "score": 3.2, "reviews": 17}}, {"id": "ffba00674dc449774af830cacab8afe4", "name": "4. IX Febbraio", "latitude": 44.13843412619119, "longitude": 12.235786326775383, "timestamp": "2025-05-03T03:03:54.559729+00:00Z", "free_bikes": 5, "empty_slots": 3, "extra": {"uid": "713", "number": 4, "status": "offline", "score": 3.6, "reviews": 12}}]}