{"id": "biella", "name": "Biella", "location": {"latitude": 45.5775, "longitude": 8.051111, "city": "Biella", "country": "IT"}, "href": "/v2/networks/biella", "company": ["Comunicare S.r.l."], "system": "Bicincitt\u00e0", "source": "https://www.bicincitta.com/frmLeStazioni.aspx?ID=112", "stations": [{"id": "20d31be7e8abfcb8e80ab2f86b5c2b82", "name": "Stazione Ferroviaria", "latitude": 45.556822478556406, "longitude": 8.066539764404297, "timestamp": "2025-05-03T03:03:55.597658+00:00Z", "free_bikes": 5, "empty_slots": 3, "extra": {"uid": "680", "number": 1, "status": "offline", "score": 1.5, "reviews": 9}}, {"id": "59c2962b37b7f80fba48b77a39da0a2e", "name": "Gromo Cridis", "latitude": 45.560297955941685, "longitude": 8.047217933729598, "timestamp": "2025-05-03T03:03:55.597723+00:00Z", "free_bikes": 5, "empty_slots": 3, "extra": {"uid": "1242", "number": 5, "status": "offline", "score": 1.7, "reviews": 4}}, {"id": "8d1bc0e63928d4d7855806eb7c87fec6", "name": "Funicolare", "latitude": 45.56723362790845, "longitude": 8.050060272216797, "timestamp": "2025-05-03T03:03:55.597701+00:00Z", "free_bikes": 5, "empty_slots": 3, "extra": {"uid": "682", "number": 3, "status": "offline", "score": 0.9, "reviews": 4}}, {"id": "982314508cc8415c7e43c14b5f44ca39", "name": "Citta` Studi", "latitude": 45.55695770065336, "longitude": 8.034095764160156, "timestamp": "2025-05-03T03:03:55.597713+00:00Z", "free_bikes": 5, "empty_slots": 3, "extra": {"uid": "683", "number": 4, "status": "offline", "score": 2.1, "reviews": 3}}, {"id": "f5a680b8877aae1e468e29ae83d88e7f", "name": "Centro", "latitude": 45.56238134091642, "longitude": 8.057291507720947, "timestamp": "2025-05-03T03:03:55.597688+00:00Z", "free_bikes": 5, "empty_slots": 3, "extra": {"uid": "681", "number": 2, "status": "offline", "score": 2.3, "reviews": 4}}]}