{"id": "bizkaibizi-sestao", "name": "Bizkaibizi", "location": {"latitude": 43.3093, "longitude": -3.0068, "city": "Sestao", "country": "ES"}, "href": "/v2/networks/bizkaibizi-sestao", "company": ["UTE Bizkaibizi"], "system": "Bizkaibizi", "stations": [{"id": "03fcfbd1a504a89b67cbf359f9a085af", "name": "-LABE GARAIA/ALTO HORNO", "latitude": 43.310936, "longitude": -3.000576, "timestamp": "2025-05-03T02:57:54.904996+00:00Z", "free_bikes": 15, "empty_slots": 1, "extra": {"uid": "190431514", "number": "34516", "slots": 16, "bike_uids": ["378256", "378157", "378082", "378027", "377966", "377959", "377949", "377870", "377842", "377745", "377696", "377673", "377656", "377618", "377603"], "virtual": false}}, {"id": "132b239eb670ac4fe72d6d2ffde9c818", "name": "-KUETO", "latitude": 43.307856, "longitude": -3.000458, "timestamp": "2025-05-03T02:57:54.904972+00:00Z", "free_bikes": 5, "empty_slots": 7, "extra": {"uid": "190429852", "number": "34515", "slots": 12, "bike_uids": ["378266", "377963", "377917", "377910", "377874"], "virtual": false}}, {"id": "2f9537c07fae242099299062f016cf19", "name": "-GALINDO", "latitude": 43.306193, "longitude": -3.008859, "timestamp": "2025-05-03T02:57:54.904899+00:00Z", "free_bikes": 8, "empty_slots": 10, "extra": {"uid": "190427027", "number": "34513", "slots": 18, "bike_uids": ["378253", "378171", "378130", "378044", "377998", "377946", "377741", "377650"], "virtual": false}}, {"id": "f00155d7bf3ceb9d601660fde9ac33a2", "name": "-LA PUNTA", "latitude": 43.30414, "longitude": -2.982214, "timestamp": "2025-05-03T02:57:54.905020+00:00Z", "free_bikes": 1, "empty_slots": 11, "extra": {"uid": "513289518", "number": "34581", "slots": 12, "bike_uids": ["377990"], "virtual": false}}, {"id": "f882b3bec7639b70741974372b804ad9", "name": "-KASKO", "latitude": 43.309336, "longitude": -3.008092, "timestamp": "2025-05-03T02:57:54.904945+00:00Z", "free_bikes": 6, "empty_slots": 6, "extra": {"uid": "190429190", "number": "34514", "slots": 12, "bike_uids": ["378276", "378204", "378195", "377791", "377726", "377720"], "virtual": false}}]}