{"id": "bizkaibizi-berango", "name": "Bizkaibizi", "location": {"latitude": 43.3619, "longitude": -2.9968, "city": "Berango", "country": "ES"}, "href": "/v2/networks/bizkaibizi-berango", "company": ["UTE Bizkaibizi"], "system": "Bizkaibizi", "stations": [{"id": "02d1750569adf4b27a8e8d07c09ef546", "name": "-ELEXALDE", "latitude": 43.363043, "longitude": -2.995995, "timestamp": "2025-05-03T02:54:55.036002+00:00Z", "free_bikes": 6, "empty_slots": 2, "extra": {"uid": "190402913", "number": "34575", "slots": 8, "bike_uids": ["378161", "378037", "377993", "377806", "377664", "377626"], "virtual": false}}, {"id": "307fe5c06993a59adf7650184c3f8190", "name": "-SIMON OTXANDATEGI", "latitude": 43.358597, "longitude": -2.998506, "timestamp": "2025-05-03T02:54:55.036030+00:00Z", "free_bikes": 4, "empty_slots": 4, "extra": {"uid": "190404063", "number": "34576", "slots": 8, "bike_uids": ["378103", "377992", "377954", "377608"], "virtual": false}}, {"id": "517e08cf97c37b291a4f9b08474391ef", "name": "-METRO BERANGO", "latitude": 43.366467, "longitude": -2.999423, "timestamp": "2025-05-03T02:54:55.035952+00:00Z", "free_bikes": 12, "empty_slots": 4, "extra": {"uid": "190401623", "number": "34574", "slots": 16, "bike_uids": ["378249", "378201", "378143", "378141", "377994", "377927", "377885", "377883", "377872", "377771", "377737", "377651"], "virtual": false}}, {"id": "59a6bcc9d7247ed3f0c998c09fc4ccd1", "name": "-SANTA ANA BERANGO", "latitude": 43.355496, "longitude": -2.995679, "timestamp": "2025-05-03T02:54:55.036053+00:00Z", "free_bikes": 7, "empty_slots": 1, "extra": {"uid": "190404878", "number": "34577", "slots": 8, "bike_uids": ["378236", "377894", "377861", "377763", "377666", "377635", "377633"], "virtual": false}}]}