{"id": "bysykkel-lillestrom", "name": "Bysykkel", "location": {"latitude": 59.9559696, "longitude": 11.0503785, "city": "Lillestr\u00f8m", "country": "NO"}, "href": "/v2/networks/bysykkel-lillestrom", "company": ["JCDecaux"], "system": "Cyclocity", "license": {"name": "Open Licence", "url": "https://developer.jcdecaux.com/#/opendata/licence"}, "source": "https://developer.jcdecaux.com", "stations": [{"id": "15b9189c9843692597074dc34f34afdc", "name": "STORTORGET", "latitude": 59.95797, "longitude": 11.05029, "timestamp": "2025-05-03T03:03:56.174674+00:00Z", "free_bikes": 6, "empty_slots": 13, "extra": {"uid": 4, "address": "Br\u00f8tergata/Riksvei 120,Lillestr\u00f8m", "status": "OPEN", "banking": false, "bonus": false, "last_update": "2025-05-03T03:01:20Z", "slots": 20, "has_ebikes": false}}, {"id": "342af8e78836d7500cea79210f58cd2a", "name": "SKEDSMO VGS", "latitude": 59.964446, "longitude": 11.040774, "timestamp": "2025-05-03T03:03:56.174651+00:00Z", "free_bikes": 9, "empty_slots": 11, "extra": {"uid": 3, "address": "Vestbygata 61, Lillestrom", "status": "OPEN", "banking": false, "bonus": false, "last_update": "2025-05-03T03:01:20Z", "slots": 20, "has_ebikes": false}}, {"id": "35c738d2a209f862a77ac5292d8097dc", "name": "THON HOTEL ARENA", "latitude": 59.95128, "longitude": 11.04959, "timestamp": "2025-05-03T03:03:56.174684+00:00Z", "free_bikes": 8, "empty_slots": 12, "extra": {"uid": 2, "address": "Nesgata 1,2004 Lillestr\u00f8m", "status": "OPEN", "banking": false, "bonus": false, "last_update": "2025-05-03T03:02:26Z", "slots": 20, "has_ebikes": false}}, {"id": "50b7824937adf23d27db83b08b6a4bae", "name": "TESTSTASJON G7", "latitude": 59.9513341, "longitude": 10.7665214, "timestamp": "2025-05-03T03:03:56.174669+00:00Z", "free_bikes": 1, "empty_slots": 0, "extra": {"uid": 501, "address": "", "status": "OPEN", "banking": false, "bonus": false, "last_update": "2025-05-03T03:01:28Z", "slots": 1, "has_ebikes": false}}, {"id": "56606ee918305a640fc84c754ae25105", "name": "KJELLER", "latitude": 59.973906, "longitude": 11.047391, "timestamp": "2025-05-03T03:03:56.174680+00:00Z", "free_bikes": 5, "empty_slots": 13, "extra": {"uid": 6, "address": "Gunnar Randers vei 10,2007 Kjeller", "status": "OPEN", "banking": false, "bonus": false, "last_update": "2025-05-03T03:01:24Z", "slots": 20, "has_ebikes": false}}, {"id": "6520a06bf5b7d4a0ba78ff63eaaa2a3b", "name": "LILLESTR\u00d8M STASJON", "latitude": 59.95363, "longitude": 11.04428, "timestamp": "2025-05-03T03:03:56.174662+00:00Z", "free_bikes": 11, "empty_slots": 9, "extra": {"uid": 1, "address": "Jonas Liesgt. 2000 lillestr\u00f8m", "status": "OPEN", "banking": false, "bonus": false, "last_update": "2025-05-03T03:01:21Z", "slots": 20, "has_ebikes": false}}, {"id": "b9d4cd29425b69f975afd3315afd6b2f", "name": "\u00c5R\u00c5SEN", "latitude": 59.96221, "longitude": 11.06191, "timestamp": "2025-05-03T03:03:56.174690+00:00Z", "free_bikes": 8, "empty_slots": 11, "extra": {"uid": 5, "address": "C.J Hansensvei 3B,2007 Kjeller", "status": "OPEN", "banking": false, "bonus": false, "last_update": "2025-05-03T03:01:22Z", "slots": 20, "has_ebikes": false}}]}