{"id": "cascavel", "name": "Cascavel Vai de Bici", "location": {"latitude": -24.9558, "longitude": -53.4566, "city": "Cascavel", "country": "BR"}, "href": "/v2/networks/cascavel", "company": ["Mobhis Automa\u00e7\u00e3o Urbana"], "system": "Mobhis", "stations": [{"id": "09cc3989a4eeb53e0cb31713c1f9b515", "name": "E8 - Cuiaba ", "latitude": -24.965246, "longitude": -53.480338, "timestamp": "2025-05-03T03:03:48.627713+00:00Z", "free_bikes": 9, "empty_slots": 2, "extra": {"online": true}}, {"id": "0ddac9eee2783665926f318ab1bfb93b", "name": "E7 - Sao Paulo ", "latitude": -24.95717, "longitude": -53.475245, "timestamp": "2025-05-03T03:03:48.628516+00:00Z", "free_bikes": 4, "empty_slots": 7, "extra": {"online": true}}, {"id": "1b7b032e7d9c83b45be6003a8caa49d5", "name": "E1 - Biblia ", "latitude": -24.946796, "longitude": -53.433227, "timestamp": "2025-05-03T03:03:48.628653+00:00Z", "free_bikes": 0, "empty_slots": 0, "extra": {"online": false}}, {"id": "2ea506bad1cb007e2444269170831c97", "name": "E9 - Ecopark", "latitude": -24.95266107346, "longitude": -53.49954600352, "timestamp": "2025-05-03T03:03:48.627864+00:00Z", "free_bikes": 0, "empty_slots": 0, "extra": {"online": false}}, {"id": "65718b70efe49d504d49d8c908ff3c26", "name": "E11 - eHubOne", "latitude": -24.95427269988, "longitude": -53.47994075506, "timestamp": "2025-05-03T03:03:48.628387+00:00Z", "free_bikes": 0, "empty_slots": 4, "extra": {"online": true}}, {"id": "8658c4dcd2bcb3d46637f256d8d3c680", "name": "E5 - Barao", "latitude": -24.940594, "longitude": -53.441397, "timestamp": "2025-05-03T03:03:48.628256+00:00Z", "free_bikes": 1, "empty_slots": 11, "extra": {"online": true}}, {"id": "902ee6b18acd4f641fa0255d7c5570f4", "name": "E2 - Bernardes ", "latitude": -24.954748, "longitude": -53.465514, "timestamp": "2025-05-03T03:03:48.627979+00:00Z", "free_bikes": 4, "empty_slots": 8, "extra": {"online": true}}, {"id": "9316ee186740bf471fac952d47db5ab4", "name": "E10 - Lago Infantil ", "latitude": -24.96540219547, "longitude": -53.43426277807, "timestamp": "2025-05-03T03:03:48.627197+00:00Z", "free_bikes": 10, "empty_slots": 2, "extra": {"online": true}}, {"id": "b5dd2731f47cb0f815c587007278651f", "name": "E3 - Catedral UNIMED", "latitude": -24.955371, "longitude": -53.455412, "timestamp": "2025-05-03T03:03:48.628119+00:00Z", "free_bikes": 0, "empty_slots": 12, "extra": {"online": true}}, {"id": "d201f2f2f939a9b9010a82fd6d573419", "name": "E6 - Lago ", "latitude": -24.965413, "longitude": -53.433672, "timestamp": "2025-05-03T03:03:48.627480+00:00Z", "free_bikes": 9, "empty_slots": 3, "extra": {"online": true}}, {"id": "ea0341042d7b9621ae480a15f2684a32", "name": "E4 - Cidadania ", "latitude": -24.954335, "longitude": -53.476659, "timestamp": "2025-05-03T03:03:48.628759+00:00Z", "free_bikes": 8, "empty_slots": 4, "extra": {"online": true}}]}