{"id": "chartered-bike-surat", "name": "Chartered Bike", "location": {"latitude": 21.18626, "longitude": 72.80798, "city": "Surat", "country": "IN"}, "href": "/v2/networks/chartered-bike-surat", "company": ["CHARTERED BIKE PRIVATE LIMITED"], "system": "Chartered Bike", "stations": [{"id": "0066d97cc0ea4258ab9d4235bd030510", "name": "LUXURIA BUSINESS HUB 2", "latitude": 21.146156, "longitude": 72.759997, "timestamp": "2025-05-03T03:03:40.434660+00:00Z", "free_bikes": 8, "empty_slots": 6, "extra": {"uid": 19, "ebikes": 0, "number": 97022, "online": true}}, {"id": "0384eeff744eab71171d7ef51c27ac4e", "name": "PIYUSH POINT", "latitude": 21.151174, "longitude": 72.833304, "timestamp": "2025-05-03T03:03:40.433888+00:00Z", "free_bikes": 9, "empty_slots": 7, "extra": {"uid": 53, "ebikes": 0, "number": 97049, "online": true}}, {"id": "046fe6fc3bbe1d927a258d2b884f68b4", "name": "LUXURIA BUSINESS HUB 1", "latitude": 21.146577, "longitude": 72.759778, "timestamp": "2025-05-03T03:03:40.434751+00:00Z", "free_bikes": 11, "empty_slots": 3, "extra": {"uid": 23, "ebikes": 0, "number": 97026, "online": true}}, {"id": "058827c864369aac43d8fb0f081f9a80", "name": "SMC SWIMMING POOL, RUSTAMPURA", "latitude": 21.1852, "longitude": 72.829532, "timestamp": "2025-05-03T03:03:40.434732+00:00Z", "free_bikes": 5, "empty_slots": 5, "extra": {"uid": 8, "ebikes": 0, "number": 97011, "online": true}}, {"id": "085d784da93987b7aab6b1a0a1b72e69", "name": "GODADRA GAM", "latitude": 21.168253, "longitude": 72.87147, "timestamp": "2025-05-03T03:03:40.434590+00:00Z", "free_bikes": 2, "empty_slots": 13, "extra": {"uid": 310, "ebikes": 0, "number": 97106, "online": true}}, {"id": "0c6a22a1964e0f792053ad8c71927cdd", "name": "KHARWARNAGAR BRTS 1", "latitude": 21.178546, "longitude": 72.833627, "timestamp": "2025-05-03T03:03:40.434105+00:00Z", "free_bikes": 9, "empty_slots": 1, "extra": {"uid": 286, "ebikes": 0, "number": 97082, "online": true}}, {"id": "0c7060255e37cacd12911676af0ebaf8", "name": "Althan Khadi", "latitude": 21.1477964, "longitude": 72.8131436, "timestamp": "2025-05-03T03:03:40.433267+00:00Z", "free_bikes": 10, "empty_slots": 0, "extra": {"uid": 406, "ebikes": 0, "number": 97127, "online": true}}, {"id": "0d4855634d18e837d4ddb2b63ceffd56", "name": "UDHANA DARWAZA", "latitude": 21.183503, "longitude": 72.831254, "timestamp": "2025-05-03T03:03:40.434724+00:00Z", "free_bikes": 9, "empty_slots": 7, "extra": {"uid": 6, "ebikes": 0, "number": 97010, "online": true}}, {"id": "0f322681943d116af0629f2def778ba2", "name": "ONGC COLONY -01", "latitude": 21.14004, "longitude": 72.75291, "timestamp": "2025-05-03T03:03:40.434125+00:00Z", "free_bikes": 4, "empty_slots": 12, "extra": {"uid": 21, "ebikes": 0, "number": 97024, "online": true}}, {"id": "105900117166a448c99e0782a9d85bdf", "name": " SMC OFFICE, LIMBAYAT", "latitude": 21.1840832, "longitude": 72.8608929, "timestamp": "2025-05-03T03:03:40.433207+00:00Z", "free_bikes": 8, "empty_slots": 2, "extra": {"uid": 268, "ebikes": 0, "number": 97067, "online": true}}, {"id": "150c6d16edf3c4b3f3c5e88ee6a457e5", "name": "JILLA SEVASADAN", "latitude": 21.18295, "longitude": 72.804832, "timestamp": "2025-05-03T03:03:40.433252+00:00Z", "free_bikes": 11, "empty_slots": 3, "extra": {"uid": 28, "ebikes": 0, "number": 97031, "online": true}}, {"id": "152d0a8c75eeac9bee8931d1f6dbd5eb", "name": "BHATAR CHAR RASTA", "latitude": 21.162831, "longitude": 72.811563, "timestamp": "2025-05-03T03:03:40.434193+00:00Z", "free_bikes": 10, "empty_slots": 15, "extra": {"uid": 303, "ebikes": 0, "number": 97099, "online": true}}, {"id": "188926860b6cca9df74bab868966d872", "name": "Zaverchand Meghani Park", "latitude": 21.213826, "longitude": 72.851289, "timestamp": "2025-05-03T03:03:40.433574+00:00Z", "free_bikes": 7, "empty_slots": 3, "extra": {"uid": 401, "ebikes": 0, "number": 97122, "online": true}}, {"id": "19be0cf261fb79bd841dec84823364b3", "name": "RUNDHNATH MAHADEV MANDIR", "latitude": 21.150023, "longitude": 72.761826, "timestamp": "2025-05-03T03:03:40.433620+00:00Z", "free_bikes": 6, "empty_slots": 6, "extra": {"uid": 24, "ebikes": 0, "number": 97027, "online": true}}, {"id": "1c8e37cec84cfedb78b04a8b395ca550", "name": "GALAXY CIRCLE PAL WALKWAY", "latitude": 21.19093, "longitude": 72.77922, "timestamp": "2025-05-03T03:03:40.433760+00:00Z", "free_bikes": 7, "empty_slots": 3, "extra": {"uid": 254, "ebikes": 0, "number": 97053, "online": true}}, {"id": "1cfbe80206334b605bacba7e01a036a0", "name": "PUNAGAM LAKE", "latitude": 21.205637, "longitude": 72.873235, "timestamp": "2025-05-03T03:03:40.434149+00:00Z", "free_bikes": 13, "empty_slots": 5, "extra": {"uid": 314, "ebikes": 0, "number": 97110, "online": true}}, {"id": "1ed8d1e8a11196f286f4918d22292744", "name": "ONGC COLONY -02 (L&T)", "latitude": 21.138572, "longitude": 72.751707, "timestamp": "2025-05-03T03:03:40.434196+00:00Z", "free_bikes": 15, "empty_slots": 3, "extra": {"uid": 20, "ebikes": 0, "number": 97023, "online": true}}, {"id": "29d071906ede9ee91c2322b6582abfd6", "name": "VENUS HOSPITAL 2", "latitude": 21.208619, "longitude": 72.834091, "timestamp": "2025-05-03T03:03:40.434274+00:00Z", "free_bikes": 12, "empty_slots": 8, "extra": {"uid": 2, "ebikes": 0, "number": 97006, "online": true}}, {"id": "2c01a1a59f348e59d2c1d74f71055b23", "name": "DAKSHESHWAR MANDIR 2", "latitude": 21.152275, "longitude": 72.845552, "timestamp": "2025-05-03T03:03:40.434679+00:00Z", "free_bikes": 5, "empty_slots": 5, "extra": {"uid": 282, "ebikes": 0, "number": 97078, "online": true}}, {"id": "2e58274b50a171aeffdcc0248c795f2c", "name": "Premanand Garden, Causeway", "latitude": 21.220464, "longitude": 72.806827, "timestamp": "2025-05-03T03:03:40.433647+00:00Z", "free_bikes": 10, "empty_slots": 10, "extra": {"uid": 645, "ebikes": 0, "number": 97142, "online": true}}, {"id": "34acf9bfead897ecad0b487f9b8230d6", "name": "ADAJAN PATIYA", "latitude": 21.19873, "longitude": 72.808534, "timestamp": "2025-05-03T03:03:40.434114+00:00Z", "free_bikes": 11, "empty_slots": 13, "extra": {"uid": 280, "ebikes": 0, "number": 97076, "online": true}}, {"id": "3bfb5b8c1a49860353fe3bc67e17db10", "name": "STAR BAZAAR", "latitude": 21.1857651, "longitude": 72.7934233, "timestamp": "2025-05-03T03:03:40.433603+00:00Z", "free_bikes": 7, "empty_slots": 9, "extra": {"uid": 255, "ebikes": 0, "number": 97054, "online": true}}, {"id": "3c2f49adfa5a1ceedcf758065ca814b8", "name": "J H Ambani School", "latitude": 21.151662, "longitude": 72.774947, "timestamp": "2025-05-03T03:03:40.433379+00:00Z", "free_bikes": 11, "empty_slots": 9, "extra": {"uid": 642, "ebikes": 0, "number": 97140, "online": true}}, {"id": "3e2f6747fd24e53e0252d44bd83fc993", "name": "KARGIL CHOWK 2", "latitude": 21.164801, "longitude": 72.779481, "timestamp": "2025-05-03T03:03:40.433223+00:00Z", "free_bikes": 9, "empty_slots": 1, "extra": {"uid": 26, "ebikes": 0, "number": 97029, "online": true}}, {"id": "3eb6b1e802a3116907540bcefabf858a", "name": "Bread Liner Circle", "latitude": 21.1614663, "longitude": 72.8029542, "timestamp": "2025-05-03T03:03:40.434801+00:00Z", "free_bikes": 8, "empty_slots": 7, "extra": {"uid": 410, "ebikes": 0, "number": 97131, "online": true}}, {"id": "455293365048616918d0c11844428178", "name": "S.D JAIN SCHOOL", "latitude": 21.150695, "longitude": 72.772478, "timestamp": "2025-05-03T03:03:40.434203+00:00Z", "free_bikes": 10, "empty_slots": 8, "extra": {"uid": 300, "ebikes": 0, "number": 97096, "online": true}}, {"id": "469d7c7d9114ad0eb9ecd4087aa0e164", "name": "DAKSHESHWAR MANDIR 1", "latitude": 21.15289, "longitude": 72.845732, "timestamp": "2025-05-03T03:03:40.434685+00:00Z", "free_bikes": 4, "empty_slots": 6, "extra": {"uid": 281, "ebikes": 0, "number": 97077, "online": true}}, {"id": "4e17b4a1b4bba7b5dffd4c12e3e75a91", "name": "GUJARAT GAS CIRCLE", "latitude": 21.193814, "longitude": 72.801639, "timestamp": "2025-05-03T03:03:40.434540+00:00Z", "free_bikes": 10, "empty_slots": 10, "extra": {"uid": 289, "ebikes": 0, "number": 97085, "online": true}}, {"id": "4eeadb75a850aac5aaabd463e213b58a", "name": "GAJERA CIRCLE", "latitude": 21.226465, "longitude": 72.837752, "timestamp": "2025-05-03T03:03:40.434067+00:00Z", "free_bikes": 4, "empty_slots": 19, "extra": {"uid": 294, "ebikes": 0, "number": 97090, "online": true}}, {"id": "507d04064c357c64165eb30ee96a089b", "name": "D K M hospital", "latitude": 21.192439, "longitude": 72.829948, "timestamp": "2025-05-03T03:03:40.433770+00:00Z", "free_bikes": 0, "empty_slots": 10, "extra": {"uid": 325, "ebikes": 0, "number": 97115, "online": true}}, {"id": "5490a18e2994753f649751d433e6c5f4", "name": "KARGIL CHOWK 1", "latitude": 21.164672, "longitude": 72.780107, "timestamp": "2025-05-03T03:03:40.433674+00:00Z", "free_bikes": 8, "empty_slots": 10, "extra": {"uid": 15, "ebikes": 0, "number": 97018, "online": true}}, {"id": "554236e5ea0c5d41e12991e78b1faf70", "name": "KAPODRA", "latitude": 21.217314, "longitude": 72.866359, "timestamp": "2025-05-03T03:03:40.434136+00:00Z", "free_bikes": 8, "empty_slots": 10, "extra": {"uid": 296, "ebikes": 0, "number": 97092, "online": true}}, {"id": "5756416ba88b6d6398259342ed9bf23a", "name": "VALENTINE ", "latitude": 21.1549867, "longitude": 72.7641695, "timestamp": "2025-05-03T03:03:40.434758+00:00Z", "free_bikes": 5, "empty_slots": 7, "extra": {"uid": 25, "ebikes": 0, "number": 97028, "online": true}}, {"id": "57eebadd00bf10a0a8bc43d729d81a10", "name": "AGRICULTURE COLLEGE (COURT)", "latitude": 21.178372, "longitude": 72.798101, "timestamp": "2025-05-03T03:03:40.434603+00:00Z", "free_bikes": 9, "empty_slots": 1, "extra": {"uid": 27, "ebikes": 0, "number": 97030, "online": true}}, {"id": "61422f57e514d2b24eeee1428301847c", "name": "SMC MULTI ACTIVITY CENTRE AND READING ROOM", "latitude": 21.200258, "longitude": 72.833623, "timestamp": "2025-05-03T03:03:40.433797+00:00Z", "free_bikes": 9, "empty_slots": 1, "extra": {"uid": 37, "ebikes": 0, "number": 97040, "online": true}}, {"id": "633d71c744f5b52321583850a7cee67f", "name": "ISHWAR FARM, JOGGERS PARK", "latitude": 21.1679196, "longitude": 72.8067867, "timestamp": "2025-05-03T03:03:40.434060+00:00Z", "free_bikes": 5, "empty_slots": 5, "extra": {"uid": 258, "ebikes": 0, "number": 97057, "online": true}}, {"id": "6503fcfd2460547592f6ca26ba34c899", "name": "BHESTAN BRTS", "latitude": 21.1278979, "longitude": 72.8549891, "timestamp": "2025-05-03T03:03:40.434399+00:00Z", "free_bikes": 9, "empty_slots": 7, "extra": {"uid": 271, "ebikes": 0, "number": 97070, "online": true}}, {"id": "6ecd2ac34bbc9ca4e3766ffcfacb8bbb", "name": "BOTANICAL GARDEN", "latitude": 21.2222166, "longitude": 72.7842974, "timestamp": "2025-05-03T03:03:40.434673+00:00Z", "free_bikes": 9, "empty_slots": 11, "extra": {"uid": 252, "ebikes": 0, "number": 97051, "online": true}}, {"id": "716f5c31160fee4e00a9cf0b4baba5f9", "name": "KANGAROO CIRCLE", "latitude": 21.190124, "longitude": 72.869376, "timestamp": "2025-05-03T03:03:40.434620+00:00Z", "free_bikes": 3, "empty_slots": 27, "extra": {"uid": 284, "ebikes": 0, "number": 97080, "online": true}}, {"id": "73bd648f9ee23736835f2b406b36edb6", "name": "Swami Narayan BRTS", "latitude": 21.219506, "longitude": 72.851602, "timestamp": "2025-05-03T03:03:40.434015+00:00Z", "free_bikes": 5, "empty_slots": 15, "extra": {"uid": 620, "ebikes": 0, "number": 97135, "online": true}}, {"id": "77da99886b196095b33d5fb6cfb9511b", "name": "SALABATPURA POLICE QUARTER", "latitude": 21.190547, "longitude": 72.836237, "timestamp": "2025-05-03T03:03:40.434216+00:00Z", "free_bikes": 4, "empty_slots": 6, "extra": {"uid": 36, "ebikes": 0, "number": 97039, "online": true}}, {"id": "78955247c87a59d39d6bccbe95bb33e2", "name": "Bhathena Community Hall", "latitude": 21.1767937, "longitude": 72.8452627, "timestamp": "2025-05-03T03:03:40.433217+00:00Z", "free_bikes": 9, "empty_slots": 3, "extra": {"uid": 408, "ebikes": 0, "number": 97129, "online": true}}, {"id": "794abcdbb46e5ad3756d629f93a695ad", "name": "UDHANA BUS STAND", "latitude": 21.166115, "longitude": 72.840925, "timestamp": "2025-05-03T03:03:40.434676+00:00Z", "free_bikes": 9, "empty_slots": 7, "extra": {"uid": 312, "ebikes": 0, "number": 97108, "online": true}}, {"id": "806206fbd01e779073c89e23aedbc34b", "name": "SMC ALTHAN", "latitude": 21.151058, "longitude": 72.799896, "timestamp": "2025-05-03T03:03:40.433255+00:00Z", "free_bikes": 13, "empty_slots": 7, "extra": {"uid": 586, "ebikes": 0, "number": 97134, "online": true}}, {"id": "83c0deab832406b09325e471f4bbe658", "name": "NIRMAL HOSPITAL", "latitude": 21.180924, "longitude": 72.82403, "timestamp": "2025-05-03T03:03:40.433198+00:00Z", "free_bikes": 12, "empty_slots": 8, "extra": {"uid": 9, "ebikes": 0, "number": 97012, "online": true}}, {"id": "83cb694763106fdb763ef4a156bfc2e9", "name": "PARVAT PATIYA", "latitude": 21.191123, "longitude": 72.863409, "timestamp": "2025-05-03T03:03:40.434721+00:00Z", "free_bikes": 5, "empty_slots": 10, "extra": {"uid": 297, "ebikes": 0, "number": 97093, "online": true}}, {"id": "885f6b2efbab80e7120309d5823715b0", "name": "SOSYO CIRCLE", "latitude": 21.172635, "longitude": 72.827138, "timestamp": "2025-05-03T03:03:40.433311+00:00Z", "free_bikes": 5, "empty_slots": 15, "extra": {"uid": 304, "ebikes": 0, "number": 97100, "online": true}}, {"id": "8aa66335f31afb00c727febde3874f13", "name": "NAVYUG COLLEGE", "latitude": 21.202037, "longitude": 72.80159, "timestamp": "2025-05-03T03:03:40.434584+00:00Z", "free_bikes": 12, "empty_slots": 13, "extra": {"uid": 293, "ebikes": 0, "number": 97089, "online": true}}, {"id": "8c8813b11d991b637a893cf15dbc6a21", "name": "MULTILEVEL PARKING NANPURA", "latitude": 21.185801, "longitude": 72.819611, "timestamp": "2025-05-03T03:03:40.434647+00:00Z", "free_bikes": 4, "empty_slots": 4, "extra": {"uid": 33, "ebikes": 0, "number": 97036, "online": true}}, {"id": "9b99a860b2064b6dd8c8a3af7022d957", "name": "CANAL ROAD, G D GOENKA SCHOOL VESU", "latitude": 21.1596809, "longitude": 72.7953106, "timestamp": "2025-05-03T03:03:40.434693+00:00Z", "free_bikes": 8, "empty_slots": 20, "extra": {"uid": 257, "ebikes": 0, "number": 97056, "online": true}}, {"id": "a655e687d3b4600b8c3497029174a238", "name": "VNSGU Main Gate", "latitude": 21.154809, "longitude": 72.782968, "timestamp": "2025-05-03T03:03:40.434008+00:00Z", "free_bikes": 11, "empty_slots": 4, "extra": {"uid": 641, "ebikes": 0, "number": 97139, "online": true}}, {"id": "a68568a9438c9da94aca30ec9c9c2be4", "name": "PODDAR ARCADE", "latitude": 21.208278, "longitude": 72.845107, "timestamp": "2025-05-03T03:03:40.433955+00:00Z", "free_bikes": 7, "empty_slots": 11, "extra": {"uid": 315, "ebikes": 0, "number": 97111, "online": true}}, {"id": "a9cd2dec8b48c5c32300e84c9006524a", "name": "RUPALI NAHER", "latitude": 21.170787, "longitude": 72.816369, "timestamp": "2025-05-03T03:03:40.434146+00:00Z", "free_bikes": 7, "empty_slots": 7, "extra": {"uid": 299, "ebikes": 0, "number": 97095, "online": true}}, {"id": "ad3a873b2371435be4c96106d7200aac", "name": "AKHAND ANAND COLLEGE", "latitude": 21.220916, "longitude": 72.82183, "timestamp": "2025-05-03T03:03:40.434630+00:00Z", "free_bikes": 8, "empty_slots": 5, "extra": {"uid": 295, "ebikes": 0, "number": 97091, "online": true}}, {"id": "b74a80aeda56bcf69477526c622aa36d", "name": "SARGAM SHOPPING CENTRE", "latitude": 21.171596, "longitude": 72.790797, "timestamp": "2025-05-03T03:03:40.433399+00:00Z", "free_bikes": 11, "empty_slots": 9, "extra": {"uid": 14, "ebikes": 0, "number": 97017, "online": true}}, {"id": "b8cc9f140ebaf7a5905fca2f3bb3cee6", "name": "GANDHI SMRATI BHAWAN", "latitude": 21.185707, "longitude": 72.81438, "timestamp": "2025-05-03T03:03:40.433279+00:00Z", "free_bikes": 4, "empty_slots": 6, "extra": {"uid": 32, "ebikes": 0, "number": 97035, "online": true}}, {"id": "b9b83afdbd245fd7d3bb1da114d16320", "name": "BHARTI RESIDENCY", "latitude": 21.200525, "longitude": 72.769417, "timestamp": "2025-05-03T03:03:40.433842+00:00Z", "free_bikes": 9, "empty_slots": 4, "extra": {"uid": 306, "ebikes": 0, "number": 97102, "online": true}}, {"id": "ba13f94dd09f7bb9a20dab98950092ff", "name": "Kiran Chowk", "latitude": 21.2128708, "longitude": 72.8814742, "timestamp": "2025-05-03T03:03:40.434252+00:00Z", "free_bikes": 0, "empty_slots": 21, "extra": {"uid": 399, "ebikes": 0, "number": 97120, "online": true}}, {"id": "be4128c34c9f9278f6a42c87862c9474", "name": "Shayona Plaza", "latitude": 21.2017908, "longitude": 72.8816549, "timestamp": "2025-05-03T03:03:40.433949+00:00Z", "free_bikes": 6, "empty_slots": 6, "extra": {"uid": 400, "ebikes": 0, "number": 97121, "online": true}}, {"id": "c2515303bb29e56836225bc5458251e8", "name": "BIG BAZAAR", "latitude": 21.159004, "longitude": 72.770554, "timestamp": "2025-05-03T03:03:40.434228+00:00Z", "free_bikes": 8, "empty_slots": 4, "extra": {"uid": 17, "ebikes": 0, "number": 97020, "online": true}}, {"id": "c593a77580bc040ece2cb45024f99497", "name": "DELHI GATE", "latitude": 21.202563, "longitude": 72.839162, "timestamp": "2025-05-03T03:03:40.434298+00:00Z", "free_bikes": 8, "empty_slots": 24, "extra": {"uid": 3, "ebikes": 0, "number": 97007, "online": true}}, {"id": "c608cf4ae73f870476c820a8098505c8", "name": "BHAGAT SINGH GARDEN", "latitude": 21.202269, "longitude": 72.849111, "timestamp": "2025-05-03T03:03:40.433528+00:00Z", "free_bikes": 21, "empty_slots": 0, "extra": {"uid": 309, "ebikes": 0, "number": 97105, "online": true}}, {"id": "c616f9b482d026b5f763e2aeadcccda7", "name": "SITA NAGAR CHOWK", "latitude": 21.20165, "longitude": 72.867449, "timestamp": "2025-05-03T03:03:40.433636+00:00Z", "free_bikes": 21, "empty_slots": 0, "extra": {"uid": 317, "ebikes": 0, "number": 97113, "online": true}}, {"id": "ce1a2d1ad9843198f8cae39049e2ce33", "name": "TURNING POINT", "latitude": 21.176247, "longitude": 72.818977, "timestamp": "2025-05-03T03:03:40.434643+00:00Z", "free_bikes": 11, "empty_slots": 10, "extra": {"uid": 302, "ebikes": 0, "number": 97098, "online": true}}, {"id": "cefa42f8e546effac4b427481740ffb1", "name": "RAJHANS CINEMA", "latitude": 21.160776, "longitude": 72.773738, "timestamp": "2025-05-03T03:03:40.434748+00:00Z", "free_bikes": 10, "empty_slots": 2, "extra": {"uid": 16, "ebikes": 0, "number": 97019, "online": true}}, {"id": "cfca82c53e070a29fe279c969aed4088", "name": "SANJEEV KUMAR AUDITORIUM", "latitude": 21.185288, "longitude": 72.784898, "timestamp": "2025-05-03T03:03:40.434601+00:00Z", "free_bikes": 14, "empty_slots": 4, "extra": {"uid": 290, "ebikes": 0, "number": 97086, "online": true}}, {"id": "d1c38559ae2df31233c3df62820905af", "name": "Y JUNCTION", "latitude": 21.145948, "longitude": 72.759302, "timestamp": "2025-05-03T03:03:40.434682+00:00Z", "free_bikes": 5, "empty_slots": 9, "extra": {"uid": 22, "ebikes": 0, "number": 97025, "online": true}}, {"id": "d77a5cec010d43666176c3a1d146a86c", "name": "VENUS HOSPITAL 1", "latitude": 21.209093, "longitude": 72.833212, "timestamp": "2025-05-03T03:03:40.434048+00:00Z", "free_bikes": 7, "empty_slots": 9, "extra": {"uid": 39, "ebikes": 0, "number": 97042, "online": true}}, {"id": "d9f36c579161b47bbd67ca44156c268e", "name": "MAAN DARWAZA", "latitude": 21.186395, "longitude": 72.837882, "timestamp": "2025-05-03T03:03:40.433875+00:00Z", "free_bikes": 10, "empty_slots": 10, "extra": {"uid": 5, "ebikes": 0, "number": 97009, "online": true}}, {"id": "da76b18b7dc48de5cf6ab3256f7a1d59", "name": "DMD PARTY PLOT", "latitude": 21.14928, "longitude": 72.768131, "timestamp": "2025-05-03T03:03:40.434696+00:00Z", "free_bikes": 6, "empty_slots": 12, "extra": {"uid": 298, "ebikes": 0, "number": 97094, "online": true}}, {"id": "de95fd0dd3316450a6a06733bd8570d7", "name": "GOTALAVADI", "latitude": 21.211527, "longitude": 72.830449, "timestamp": "2025-05-03T03:03:40.434186+00:00Z", "free_bikes": 9, "empty_slots": 1, "extra": {"uid": 40, "ebikes": 0, "number": 97043, "online": true}}, {"id": "df844ec97ade818f294a14d69bbda24d", "name": "RAMPURA POLICE QUARTER", "latitude": 21.207623, "longitude": 72.831103, "timestamp": "2025-05-03T03:03:40.433670+00:00Z", "free_bikes": 6, "empty_slots": 4, "extra": {"uid": 38, "ebikes": 0, "number": 97041, "online": true}}, {"id": "e2b98949ad97d31822546d10aa4adcaf", "name": "VNSGU SPORTS GATE", "latitude": 21.1563206, "longitude": 72.7866789, "timestamp": "2025-05-03T03:03:40.434594+00:00Z", "free_bikes": 15, "empty_slots": 0, "extra": {"uid": 256, "ebikes": 0, "number": 97055, "online": true}}, {"id": "e3a675fbe4baa7815a06303e950f46d9", "name": "ANJANA HOUSING", "latitude": 21.185777, "longitude": 72.848024, "timestamp": "2025-05-03T03:03:40.434079+00:00Z", "free_bikes": 7, "empty_slots": 5, "extra": {"uid": 288, "ebikes": 0, "number": 97084, "online": true}}, {"id": "e5ec8bfacdf7bb2b2c0df8f3c86e8bbd", "name": "AAI MATA CHOWK 2", "latitude": 21.1918219, "longitude": 72.8602831, "timestamp": "2025-05-03T03:03:40.434788+00:00Z", "free_bikes": 8, "empty_slots": 2, "extra": {"uid": 262, "ebikes": 0, "number": 97061, "online": true}}, {"id": "e77e0cfdd660e3fc89940ecdb48a3e5e", "name": "HIRA BAUGH", "latitude": 21.2159119, "longitude": 72.8623004, "timestamp": "2025-05-03T03:03:40.433729+00:00Z", "free_bikes": 10, "empty_slots": 8, "extra": {"uid": 264, "ebikes": 0, "number": 97063, "online": true}}, {"id": "f09b8368ea41f9674813be5104701e3b", "name": "Sahara Darwaja", "latitude": 21.195302, "longitude": 72.843401, "timestamp": "2025-05-03T03:03:40.434002+00:00Z", "free_bikes": 6, "empty_slots": 14, "extra": {"uid": 493, "ebikes": 0, "number": 97133, "online": true}}, {"id": "f09cb9da446b66ac14a021627f3f3a5e", "name": "JANI FARSAN", "latitude": 21.173143, "longitude": 72.79296, "timestamp": "2025-05-03T03:03:40.434741+00:00Z", "free_bikes": 10, "empty_slots": 10, "extra": {"uid": 13, "ebikes": 0, "number": 97016, "online": true}}, {"id": "f2b20b07c7fd2c61d96e52746d318b1d", "name": "UDHANA ZONE OFFICE ", "latitude": 21.172065, "longitude": 72.836279, "timestamp": "2025-05-03T03:03:40.434543+00:00Z", "free_bikes": 6, "empty_slots": 6, "extra": {"uid": 272, "ebikes": 0, "number": 97071, "online": true}}, {"id": "f2bc02bed34975ac463b3a5109026ebe", "name": "Panchmukhi Hanuman Temple", "latitude": 21.1488871, "longitude": 72.8182733, "timestamp": "2025-05-03T03:03:40.433826+00:00Z", "free_bikes": 6, "empty_slots": 8, "extra": {"uid": 407, "ebikes": 0, "number": 97128, "online": true}}, {"id": "f897a7f8aa2b226028daf6d527c6235b", "name": "BOMBAY MARKET", "latitude": 21.197439, "longitude": 72.848112, "timestamp": "2025-05-03T03:03:40.433425+00:00Z", "free_bikes": 4, "empty_slots": 12, "extra": {"uid": 301, "ebikes": 0, "number": 97097, "online": true}}, {"id": "fb6ce5e3d225cf6f824660b60afb6487", "name": "DINDOLI LAKE", "latitude": 21.1562734, "longitude": 72.8791507, "timestamp": "2025-05-03T03:03:40.433483+00:00Z", "free_bikes": 6, "empty_slots": 4, "extra": {"uid": 270, "ebikes": 0, "number": 97069, "online": true}}, {"id": "fbaf4c0df42a008a8d0d5f11c1f04c41", "name": "Parvat Gaon Health centrre", "latitude": 21.1794054, "longitude": 72.8661849, "timestamp": "2025-05-03T03:03:40.433739+00:00Z", "free_bikes": 0, "empty_slots": 13, "extra": {"uid": 409, "ebikes": 0, "number": 97130, "online": true}}, {"id": "fd3dbc53d13da3093d270ea7ade25043", "name": "NANA NANI PARK", "latitude": 21.147821, "longitude": 72.832019, "timestamp": "2025-05-03T03:03:40.433486+00:00Z", "free_bikes": 3, "empty_slots": 7, "extra": {"uid": 279, "ebikes": 0, "number": 97075, "online": true}}, {"id": "fe1f0707c954bc8a744dd1b012eed9e1", "name": "RAHUL RAJ MALL", "latitude": 21.156482, "longitude": 72.766514, "timestamp": "2025-05-03T03:03:40.433839+00:00Z", "free_bikes": 11, "empty_slots": 13, "extra": {"uid": 18, "ebikes": 0, "number": 97021, "online": true}}, {"id": "fe38915b7931ccb755eb06b4fa7edc4d", "name": "SMC WEST ZONE OFFICE", "latitude": 21.203579, "longitude": 72.797417, "timestamp": "2025-05-03T03:03:40.433742+00:00Z", "free_bikes": 8, "empty_slots": 8, "extra": {"uid": 285, "ebikes": 0, "number": 97081, "online": true}}, {"id": "ff6a6ac9c9bf685c82903b448e7efc6d", "name": "I.P MISSION SCHOOL", "latitude": 21.201417, "longitude": 72.821237, "timestamp": "2025-05-03T03:03:40.434249+00:00Z", "free_bikes": 6, "empty_slots": 7, "extra": {"uid": 307, "ebikes": 0, "number": 97103, "online": true}}, {"id": "ff787b050d6f708eb6abeda00caaf29e", "name": "WATER SUPPLY RUSTAMPURA", "latitude": 21.188597, "longitude": 72.825089, "timestamp": "2025-05-03T03:03:40.434706+00:00Z", "free_bikes": 5, "empty_slots": 5, "extra": {"uid": 47, "ebikes": 0, "number": 97044, "online": true}}]}