{"id": "chartered-bike-bilaspur", "name": "Chartered Bike", "location": {"latitude": 22.07834, "longitude": 82.14768, "city": "Bilaspur", "country": "IN"}, "href": "/v2/networks/chartered-bike-bilaspur", "company": ["CHARTERED BIKE PRIVATE LIMITED"], "system": "Chartered Bike", "stations": [{"id": "25f1771f6e4316f8d1f6fd8565d9f398", "name": "Gandhi Chowk ", "latitude": 22.0794933, "longitude": 82.1658298, "timestamp": "2025-05-03T03:03:38.070615+00:00Z", "free_bikes": 6, "empty_slots": 4, "extra": {"uid": 504, "ebikes": 0, "number": 5, "online": true}}, {"id": "3b46a395ae16fdc9706f98f90f42c9ff", "name": "River View ", "latitude": 22.090028, "longitude": 82.150915, "timestamp": "2025-05-03T03:03:38.066376+00:00Z", "free_bikes": 6, "empty_slots": 0, "extra": {"uid": 502, "ebikes": 0, "number": 3, "online": true}}, {"id": "606e0a354c302da8585673da6fd9646d", "name": "Rapta Pull (Happy Street )", "latitude": 22.086712, "longitude": 82.159705, "timestamp": "2025-05-03T03:03:38.066467+00:00Z", "free_bikes": 7, "empty_slots": 3, "extra": {"uid": 506, "ebikes": 0, "number": 7, "online": true}}, {"id": "696c1ab97d9882581ad237faf6aff1be", "name": "Nehru Chowk ", "latitude": 22.086879, "longitude": 82.143243, "timestamp": "2025-05-03T03:03:38.066549+00:00Z", "free_bikes": 4, "empty_slots": 6, "extra": {"uid": 505, "ebikes": 0, "number": 6, "online": true}}, {"id": "833cf7fa168fa7bb5beb36ff9cc1aa53", "name": "Old Bus stand ", "latitude": 22.077273, "longitude": 82.158727, "timestamp": "2025-05-03T03:03:38.066499+00:00Z", "free_bikes": 5, "empty_slots": 5, "extra": {"uid": 503, "ebikes": 0, "number": 4, "online": true}}]}