{"id": "chartered-bike-ranchi", "name": "Chartered Bike", "location": {"latitude": 23.37005, "longitude": 85.325004, "city": "Ranchi", "country": "IN"}, "href": "/v2/networks/chartered-bike-ranchi", "company": ["CHARTERED BIKE PRIVATE LIMITED"], "system": "Chartered Bike", "stations": [{"id": "00df54c1d55181893ec40e7d3d33e949", "name": "VISHAL MEGA MART, BARIYATU", "latitude": 23.399858, "longitude": 85.35658, "timestamp": "2025-05-03T03:03:35.457454+00:00Z", "free_bikes": 5, "empty_slots": 7, "extra": {"uid": 273, "ebikes": 0, "number": 20093, "online": true}}, {"id": "02f37fbfb2ef948b50b29909207b12cf", "name": "VIDHAN SABHA", "latitude": 23.319392, "longitude": 85.300996, "timestamp": "2025-05-03T03:03:35.458180+00:00Z", "free_bikes": 6, "empty_slots": 6, "extra": {"uid": 183, "ebikes": 0, "number": 20054, "online": true}}, {"id": "04d1f517cb3bd8bdf83c5aa83eb3b60c", "name": "RADIUM ROAD", "latitude": 23.381356, "longitude": 85.324648, "timestamp": "2025-05-03T03:03:35.459019+00:00Z", "free_bikes": 4, "empty_slots": 8, "extra": {"uid": 176, "ebikes": 0, "number": 20047, "online": true}}, {"id": "0748eafa0743aa0d4df262ef4a58f387", "name": "PATEL CHOWK HANUMAN MANDIR", "latitude": 23.3546555, "longitude": 85.3048907, "timestamp": "2025-05-03T03:03:35.458051+00:00Z", "free_bikes": 4, "empty_slots": 8, "extra": {"uid": 370, "ebikes": 0, "number": 20100, "online": true}}, {"id": "091bf7597cbe71e2f7920da04b14c0bc", "name": "EYELEX", "latitude": 23.332641, "longitude": 85.317299, "timestamp": "2025-05-03T03:03:35.458885+00:00Z", "free_bikes": 9, "empty_slots": 3, "extra": {"uid": 210, "ebikes": 0, "number": 20066, "online": true}}, {"id": "0ace8db72d9f2a0623f091a6fb60559f", "name": "HARMU HOUSING COLONY", "latitude": 23.357914, "longitude": 85.301221, "timestamp": "2025-05-03T03:03:35.457095+00:00Z", "free_bikes": 4, "empty_slots": 8, "extra": {"uid": 319, "ebikes": 0, "number": 20094, "online": true}}, {"id": "10267d9dae430d55b8c5570904748b4d", "name": "ARYAN NAGAR", "latitude": 23.353516, "longitude": 85.266296, "timestamp": "2025-05-03T03:03:35.457876+00:00Z", "free_bikes": 3, "empty_slots": 12, "extra": {"uid": 393, "ebikes": 0, "number": 20109, "online": true}}, {"id": "109effc8136cfdd4b389ea0ca0266677", "name": "RIMS", "latitude": 23.392014, "longitude": 85.346901, "timestamp": "2025-05-03T03:03:35.457291+00:00Z", "free_bikes": 4, "empty_slots": 8, "extra": {"uid": 193, "ebikes": 0, "number": 20064, "online": true}}, {"id": "13751daababff18f5483f2c41ab84edc", "name": "A G MORE", "latitude": 23.339892, "longitude": 85.319211, "timestamp": "2025-05-03T03:03:35.458704+00:00Z", "free_bikes": 6, "empty_slots": 6, "extra": {"uid": 189, "ebikes": 0, "number": 20060, "online": true}}, {"id": "14903f8cd01b9643190f777a65526e91", "name": "KRANTI CHOWK", "latitude": 23.326971, "longitude": 85.297249, "timestamp": "2025-05-03T03:03:35.458681+00:00Z", "free_bikes": 5, "empty_slots": 7, "extra": {"uid": 186, "ebikes": 0, "number": 20057, "online": true}}, {"id": "15d53885977b69162efc2362509953a0", "name": "HEC MAIN BUILDING", "latitude": 23.295099, "longitude": 85.290309, "timestamp": "2025-05-03T03:03:35.458582+00:00Z", "free_bikes": 5, "empty_slots": 7, "extra": {"uid": 179, "ebikes": 0, "number": 20050, "online": true}}, {"id": "16e689085cb9a06d63c860ba985ea3cd", "name": "PARAS HEC HOSPITAL", "latitude": 23.312466, "longitude": 85.276751, "timestamp": "2025-05-03T03:03:35.458132+00:00Z", "free_bikes": 3, "empty_slots": 7, "extra": {"uid": 412, "ebikes": 0, "number": 20110, "online": true}}, {"id": "1c900a011a8e8a4db9498afa2809904e", "name": "NIGAM PARK", "latitude": 23.384703, "longitude": 85.319423, "timestamp": "2025-05-03T03:03:35.458609+00:00Z", "free_bikes": 11, "empty_slots": 1, "extra": {"uid": 158, "ebikes": 0, "number": 20029, "online": true}}, {"id": "1e5f383327717cb0c777b0dd0a870334", "name": "DALMIA CEMENT, HAWAI NAGAR", "latitude": 23.31748, "longitude": 85.315006, "timestamp": "2025-05-03T03:03:35.457266+00:00Z", "free_bikes": 4, "empty_slots": 8, "extra": {"uid": 392, "ebikes": 0, "number": 20108, "online": true}}, {"id": "1eec63a202b08b0e0734845022f3226d", "name": "HARMU CHOWK PARK", "latitude": 23.358516, "longitude": 85.303748, "timestamp": "2025-05-03T03:03:35.458833+00:00Z", "free_bikes": 5, "empty_slots": 7, "extra": {"uid": 383, "ebikes": 0, "number": 20104, "online": true}}, {"id": "2123e1720e45c1b865cbe89ee658bf33", "name": "TRIBAL MUSEUM MORABADI", "latitude": 23.393872, "longitude": 85.333348, "timestamp": "2025-05-03T03:03:35.458793+00:00Z", "free_bikes": 5, "empty_slots": 7, "extra": {"uid": 151, "ebikes": 0, "number": 20022, "online": true}}, {"id": "2326abfc5863b77a3f9896448dac89df", "name": "DHURWA GOLCHAKKAR 2", "latitude": 23.30569, "longitude": 85.28991, "timestamp": "2025-05-03T03:03:35.457552+00:00Z", "free_bikes": 7, "empty_slots": 5, "extra": {"uid": 181, "ebikes": 0, "number": 20052, "online": true}}, {"id": "24e618d0d951be83151d8ca7b399cdcc", "name": "RANCHI COLLEGE", "latitude": 23.388212, "longitude": 85.32354, "timestamp": "2025-05-03T03:03:35.459014+00:00Z", "free_bikes": 11, "empty_slots": 13, "extra": {"uid": 155, "ebikes": 0, "number": 20026, "online": true}}, {"id": "28c486457501cc020739d1ca75d111a1", "name": "POLICE HOUSING", "latitude": 23.374397, "longitude": 85.327128, "timestamp": "2025-05-03T03:03:35.458616+00:00Z", "free_bikes": 5, "empty_slots": 1, "extra": {"uid": 194, "ebikes": 0, "number": 20065, "online": true}}, {"id": "2a3c0c3b83fe699230d792f49bb9576e", "name": "PATEL CHOWK", "latitude": 23.35572, "longitude": 85.3041, "timestamp": "2025-05-03T03:03:35.458808+00:00Z", "free_bikes": 3, "empty_slots": 9, "extra": {"uid": 371, "ebikes": 0, "number": 20101, "online": true}}, {"id": "2a8f58ab8bd321eb22941d2ef7af8676", "name": "SHAHEED CHOWK", "latitude": 23.370985, "longitude": 85.322678, "timestamp": "2025-05-03T03:03:35.458641+00:00Z", "free_bikes": 5, "empty_slots": 5, "extra": {"uid": 168, "ebikes": 0, "number": 20039, "online": true}}, {"id": "2c7983c1c104188616b7eb182bf0987f", "name": "G&H HIGH SCHOOL", "latitude": 23.374634772487255, "longitude": 85.33092853372952, "timestamp": "2025-05-03T03:03:35.458719+00:00Z", "free_bikes": 4, "empty_slots": 8, "extra": {"uid": 144, "ebikes": 0, "number": 20015, "online": true}}, {"id": "344d58e8f241057b1c085d067bf7d199", "name": "CROSSWORD CURCULAR ROAD", "latitude": 23.369633, "longitude": 85.339558, "timestamp": "2025-05-03T03:03:35.458621+00:00Z", "free_bikes": 7, "empty_slots": 5, "extra": {"uid": 225, "ebikes": 0, "number": 20083, "online": true}}, {"id": "4173488b6594e6a020898ea2d7aa54c3", "name": "SRS CINEMA", "latitude": 23.367955, "longitude": 85.338942, "timestamp": "2025-05-03T03:03:35.457791+00:00Z", "free_bikes": 11, "empty_slots": 11, "extra": {"uid": 220, "ebikes": 0, "number": 20077, "online": true}}, {"id": "46bc7cd05933fdf4cc5812e0a50d0f41", "name": "RELIANCE PETROL PUMP", "latitude": 23.322, "longitude": 85.304688, "timestamp": "2025-05-03T03:03:35.458741+00:00Z", "free_bikes": 5, "empty_slots": 7, "extra": {"uid": 184, "ebikes": 0, "number": 20055, "online": true}}, {"id": "49e5fa66ad6f9dc72fce1c153cd43e29", "name": "CHANDNI CHOWK HATIA", "latitude": 23.289921, "longitude": 85.309903, "timestamp": "2025-05-03T03:03:35.459012+00:00Z", "free_bikes": 6, "empty_slots": 6, "extra": {"uid": 391, "ebikes": 0, "number": 20107, "online": true}}, {"id": "5518437a8ac8ddc96df66d5254aff094", "name": "JAWAHAR NAGAR", "latitude": 23.39101, "longitude": 85.313811, "timestamp": "2025-05-03T03:03:35.458799+00:00Z", "free_bikes": 8, "empty_slots": 4, "extra": {"uid": 161, "ebikes": 0, "number": 20032, "online": true}}, {"id": "5862b5d44ed9e8003defcfb2f2d35286", "name": "NEAR DORANDA COLLEGE", "latitude": 23.337989, "longitude": 85.318659, "timestamp": "2025-05-03T03:03:35.457209+00:00Z", "free_bikes": 4, "empty_slots": 8, "extra": {"uid": 187, "ebikes": 0, "number": 20058, "online": true}}, {"id": "59863d0d3d029a43a7c95b0e9dc1ad12", "name": "CHURCH COMPLEX", "latitude": 23.358052, "longitude": 85.325218, "timestamp": "2025-05-03T03:03:35.457361+00:00Z", "free_bikes": 8, "empty_slots": 8, "extra": {"uid": 221, "ebikes": 0, "number": 20078, "online": true}}, {"id": "5addff3de85b5d2058c15fbecd8d489e", "name": "ELECTRICITY OFFICE KOKAR", "latitude": 23.375031, "longitude": 85.349237, "timestamp": "2025-05-03T03:03:35.459006+00:00Z", "free_bikes": 9, "empty_slots": 3, "extra": {"uid": 142, "ebikes": 0, "number": 20013, "online": true}}, {"id": "5bfdea88b2c3153c6b781efc82191a56", "name": "JUDGE COLONY", "latitude": 23.380193, "longitude": 85.316429, "timestamp": "2025-05-03T03:03:35.458996+00:00Z", "free_bikes": 4, "empty_slots": 8, "extra": {"uid": 162, "ebikes": 0, "number": 20033, "online": true}}, {"id": "5c80cdd86d218b4b12c483447407ba87", "name": "NEAR MECON GATE", "latitude": 23.340511, "longitude": 85.321632, "timestamp": "2025-05-03T03:03:35.458595+00:00Z", "free_bikes": 5, "empty_slots": 7, "extra": {"uid": 251, "ebikes": 0, "number": 20092, "online": true}}, {"id": "6282900097b8dddb7333756ebc2b5341", "name": "ALBERT EKKA CHOWK", "latitude": 23.369528, "longitude": 85.32514, "timestamp": "2025-05-03T03:03:35.458624+00:00Z", "free_bikes": 9, "empty_slots": 27, "extra": {"uid": 169, "ebikes": 0, "number": 20040, "online": true}}, {"id": "68482e4d63691e2f1f89eb12b05e9834", "name": "HARMU CHOWK 1", "latitude": 23.358276, "longitude": 85.302392, "timestamp": "2025-05-03T03:03:35.458890+00:00Z", "free_bikes": 7, "empty_slots": 8, "extra": {"uid": 323, "ebikes": 0, "number": 20096, "online": true}}, {"id": "6941aa85342d4fb93a5b60a0a608b79f", "name": "AMRAVATI COMPLEX", "latitude": 23.370972, "longitude": 85.338977, "timestamp": "2025-05-03T03:03:35.458765+00:00Z", "free_bikes": 6, "empty_slots": 6, "extra": {"uid": 226, "ebikes": 0, "number": 20084, "online": true}}, {"id": "6b01fbac8b04bc3d660f4541d082347b", "name": "BHASKAR COMPLEX", "latitude": 23.391905, "longitude": 85.332546, "timestamp": "2025-05-03T03:03:35.457789+00:00Z", "free_bikes": 8, "empty_slots": 4, "extra": {"uid": 149, "ebikes": 0, "number": 20021, "online": true}}, {"id": "6e3caadae8dd6ce4fc84a73cb951419f", "name": "DIBDIH BRIDGE", "latitude": 23.345317, "longitude": 85.299849, "timestamp": "2025-05-03T03:03:35.459004+00:00Z", "free_bikes": 3, "empty_slots": 9, "extra": {"uid": 390, "ebikes": 0, "number": 20103, "online": true}}, {"id": "7055cb45348b3aa9feeb5c6c364957e3", "name": "SHAHEED MAIDAN", "latitude": 23.315993, "longitude": 85.297928, "timestamp": "2025-05-03T03:03:35.458036+00:00Z", "free_bikes": 5, "empty_slots": 7, "extra": {"uid": 182, "ebikes": 0, "number": 20053, "online": true}}, {"id": "711b64a46535470710d5314abbd731c7", "name": "RAJENDRA CHOWK", "latitude": 23.345199, "longitude": 85.326276, "timestamp": "2025-05-03T03:03:35.458188+00:00Z", "free_bikes": 7, "empty_slots": 5, "extra": {"uid": 191, "ebikes": 0, "number": 20062, "online": true}}, {"id": "748435e9425e145b6a189daf91f54a9d", "name": "S N YADAV ROAD", "latitude": 23.383886, "longitude": 85.329588, "timestamp": "2025-05-03T03:03:35.458521+00:00Z", "free_bikes": 9, "empty_slots": 3, "extra": {"uid": 147, "ebikes": 0, "number": 20018, "online": true}}, {"id": "78798fede3d3ac75edae37671d532181", "name": "PROJECT BHAVAN", "latitude": 23.292972, "longitude": 85.293369, "timestamp": "2025-05-03T03:03:35.458757+00:00Z", "free_bikes": 5, "empty_slots": 19, "extra": {"uid": 178, "ebikes": 0, "number": 20049, "online": true}}, {"id": "7a9280f5687b7e1549fe503f392258f0", "name": "ARGORA CHOWK ", "latitude": 23.348868, "longitude": 85.298237, "timestamp": "2025-05-03T03:03:35.457444+00:00Z", "free_bikes": 4, "empty_slots": 11, "extra": {"uid": 414, "ebikes": 0, "number": 20111, "online": true}}, {"id": "7d71d47b06b22b951c5889736b4a062f", "name": "BIG BAZAAR CHANDNI CHOWK", "latitude": 23.407898, "longitude": 85.316128, "timestamp": "2025-05-03T03:03:35.458651+00:00Z", "free_bikes": 7, "empty_slots": 17, "extra": {"uid": 234, "ebikes": 0, "number": 20090, "online": true}}, {"id": "7f5248d8f0243854ed7534eac6b26692", "name": "HIGH COURT", "latitude": 23.339824, "longitude": 85.324956, "timestamp": "2025-05-03T03:03:35.458991+00:00Z", "free_bikes": 4, "empty_slots": 8, "extra": {"uid": 190, "ebikes": 0, "number": 20061, "online": true}}, {"id": "856d147700fd6f7c8e5b6ac004cbd8e5", "name": "SIDHU KANHU PARK", "latitude": 23.389236, "longitude": 85.316765, "timestamp": "2025-05-03T03:03:35.458551+00:00Z", "free_bikes": 7, "empty_slots": 5, "extra": {"uid": 157, "ebikes": 0, "number": 20028, "online": true}}, {"id": "86ba87744ee7e838069e6a04d2a174f1", "name": "RELIANCE TRENDS", "latitude": 23.364646, "longitude": 85.310753, "timestamp": "2025-05-03T03:03:35.457542+00:00Z", "free_bikes": 15, "empty_slots": 9, "extra": {"uid": 320, "ebikes": 0, "number": 20095, "online": true}}, {"id": "8b98a2b0b65497a7ea75616a4a7954b8", "name": "ROHINI TOWER", "latitude": 23.374312, "longitude": 85.336546, "timestamp": "2025-05-03T03:03:35.458848+00:00Z", "free_bikes": 18, "empty_slots": 0, "extra": {"uid": 143, "ebikes": 0, "number": 20014, "online": true}}, {"id": "905e6fbd0179e8b8156e676d48453a90", "name": "HARMU CHOWK 2", "latitude": 23.357742, "longitude": 85.303009, "timestamp": "2025-05-03T03:03:35.458980+00:00Z", "free_bikes": 6, "empty_slots": 6, "extra": {"uid": 324, "ebikes": 0, "number": 20097, "online": true}}, {"id": "918f525cd1dd9078a6a7ef6cdf332aca", "name": "KFC MUNDA CHOWK", "latitude": 23.353932, "longitude": 85.332749, "timestamp": "2025-05-03T03:03:35.458569+00:00Z", "free_bikes": 10, "empty_slots": 2, "extra": {"uid": 137, "ebikes": 0, "number": 20008, "online": true}}, {"id": "9361b7add6f835d9746fe5ded7816b87", "name": "RSCCL CAMPUS", "latitude": 23.295611, "longitude": 85.292604, "timestamp": "2025-05-03T03:03:35.458801+00:00Z", "free_bikes": 6, "empty_slots": 10, "extra": {"uid": 389, "ebikes": 0, "number": 20106, "online": true}}, {"id": "9c1f8d88c30587067867aa1c94320cf4", "name": "KARAMTOLI CHOWK 1", "latitude": 23.388226, "longitude": 85.330889, "timestamp": "2025-05-03T03:03:35.458971+00:00Z", "free_bikes": 6, "empty_slots": 6, "extra": {"uid": 148, "ebikes": 0, "number": 20019, "online": true}}, {"id": "9d6511435661cc3c9c5cc6282734ef9d", "name": "VIKRANT CHOWK", "latitude": 23.362935, "longitude": 85.328037, "timestamp": "2025-05-03T03:03:35.458752+00:00Z", "free_bikes": 3, "empty_slots": 9, "extra": {"uid": 227, "ebikes": 0, "number": 20085, "online": true}}, {"id": "a0440f8eed6d35191e41384bd3e5fd8e", "name": "ST. BARNABAS HOSPITAL", "latitude": 23.359949, "longitude": 85.332676, "timestamp": "2025-05-03T03:03:35.458831+00:00Z", "free_bikes": 11, "empty_slots": 1, "extra": {"uid": 139, "ebikes": 0, "number": 20010, "online": true}}, {"id": "a0eb48b993ac6f4ffcd65ce5d8f04968", "name": "IQRA MASJID", "latitude": 23.359923, "longitude": 85.325967, "timestamp": "2025-05-03T03:03:35.458619+00:00Z", "free_bikes": 6, "empty_slots": 6, "extra": {"uid": 174, "ebikes": 0, "number": 20045, "online": true}}, {"id": "a156cefc0e7dbee1d756a6f99efe3026", "name": "GADIKHANA CHOWK ", "latitude": 23.373148, "longitude": 85.31373, "timestamp": "2025-05-03T03:03:35.458856+00:00Z", "free_bikes": 7, "empty_slots": 5, "extra": {"uid": 394, "ebikes": 0, "number": 20105, "online": true}}, {"id": "a38045eee09bc05ec9a87f1c16acbb1d", "name": "ROSHPA TOWER", "latitude": 23.355572, "longitude": 85.324269, "timestamp": "2025-05-03T03:03:35.459009+00:00Z", "free_bikes": 12, "empty_slots": 0, "extra": {"uid": 175, "ebikes": 0, "number": 20046, "online": true}}, {"id": "a3e552ffea3d2c9ed055a15999a05549", "name": "KARAMTOLI CHOWK 2", "latitude": 23.388742, "longitude": 85.331365, "timestamp": "2025-05-03T03:03:35.457281+00:00Z", "free_bikes": 9, "empty_slots": 3, "extra": {"uid": 150, "ebikes": 0, "number": 20020, "online": true}}, {"id": "af0cd07b90755865e3af8ccaafcf7f09", "name": "BIRSA CHOWK 2", "latitude": 23.323254, "longitude": 85.306508, "timestamp": "2025-05-03T03:03:35.458670+00:00Z", "free_bikes": 5, "empty_slots": 19, "extra": {"uid": 213, "ebikes": 0, "number": 20069, "online": true}}, {"id": "b0dec1f34b2d13d1ea81b17a831f0bf8", "name": "ATAL SMRITI VENDOR MARKET ", "latitude": 23.374465, "longitude": 85.323915, "timestamp": "2025-05-03T03:03:35.458821+00:00Z", "free_bikes": 8, "empty_slots": 16, "extra": {"uid": 167, "ebikes": 0, "number": 20038, "online": true}}, {"id": "bd422442920325b477c982375ccf8ad9", "name": "HARMU HOUSING COLONY 2", "latitude": 23.359042, "longitude": 85.310991, "timestamp": "2025-05-03T03:03:35.458882+00:00Z", "free_bikes": 7, "empty_slots": 5, "extra": {"uid": 368, "ebikes": 0, "number": 20098, "online": true}}, {"id": "bd5fa3afa5162660fb8d04c0d9281caf", "name": "CMPDI ", "latitude": 23.400446, "longitude": 85.31491, "timestamp": "2025-05-03T03:03:35.458693+00:00Z", "free_bikes": 11, "empty_slots": 0, "extra": {"uid": 217, "ebikes": 0, "number": 20073, "online": true}}, {"id": "c272f7abdfba3747a7d0e496d00bd986", "name": "GOVT. GIRLS HIGH SCHOOL", "latitude": 23.38901, "longitude": 85.339448, "timestamp": "2025-05-03T03:03:35.458877+00:00Z", "free_bikes": 10, "empty_slots": 2, "extra": {"uid": 192, "ebikes": 0, "number": 20063, "online": true}}, {"id": "c5561b8db9f4f01995e17ba8a4b5a27e", "name": "MORABADI PWD", "latitude": 23.386723, "longitude": 85.325414, "timestamp": "2025-05-03T03:03:35.458648+00:00Z", "free_bikes": 4, "empty_slots": 20, "extra": {"uid": 154, "ebikes": 0, "number": 20025, "online": true}}, {"id": "c629b36ae54d9690d3179b409cdd771a", "name": "INSTITUTE OF MANAGEMENT STUDIES", "latitude": 23.388102, "longitude": 85.319092, "timestamp": "2025-05-03T03:03:35.457104+00:00Z", "free_bikes": 4, "empty_slots": 8, "extra": {"uid": 156, "ebikes": 0, "number": 20027, "online": true}}, {"id": "c6453b7cb637765002d88e08dbd8e0ae", "name": "ADIVASI HOSTEL", "latitude": 23.38102, "longitude": 85.328976, "timestamp": "2025-05-03T03:03:35.458811+00:00Z", "free_bikes": 4, "empty_slots": 8, "extra": {"uid": 219, "ebikes": 0, "number": 20076, "online": true}}, {"id": "c8129f76126ee1524d8d6c818dbd250f", "name": "BIRSA SMRITI PARK", "latitude": 23.373796, "longitude": 85.345143, "timestamp": "2025-05-03T03:03:35.458611+00:00Z", "free_bikes": 11, "empty_slots": 1, "extra": {"uid": 223, "ebikes": 0, "number": 20080, "online": true}}, {"id": "c899c38ce990136a908ac09c71fb39ec", "name": "JCSOI", "latitude": 23.384263, "longitude": 85.322976, "timestamp": "2025-05-03T03:03:35.457166+00:00Z", "free_bikes": 5, "empty_slots": 7, "extra": {"uid": 177, "ebikes": 0, "number": 20048, "online": true}}, {"id": "caa7b5b6dcaaea3afca3da1f13a9525f", "name": "RMC", "latitude": 23.37747298752849, "longitude": 85.32501889277573, "timestamp": "2025-05-03T03:03:35.458866+00:00Z", "free_bikes": 5, "empty_slots": 19, "extra": {"uid": 218, "ebikes": 0, "number": 20075, "online": true}}, {"id": "cac7bdff7770137eb57c6888282865b6", "name": "DHURWA GOLCHAKKAR 1", "latitude": 23.305811, "longitude": 85.290868, "timestamp": "2025-05-03T03:03:35.457689+00:00Z", "free_bikes": 7, "empty_slots": 5, "extra": {"uid": 180, "ebikes": 0, "number": 20051, "online": true}}, {"id": "cd46b1dcab260f168768429799c58fbe", "name": "SCIENCE CITY PURULIA ROAD", "latitude": 23.368179, "longitude": 85.335021, "timestamp": "2025-05-03T03:03:35.458869+00:00Z", "free_bikes": 8, "empty_slots": 4, "extra": {"uid": 141, "ebikes": 0, "number": 20012, "online": true}}, {"id": "cf00cb887348f4965609881dc70d6cee", "name": "KISHORI YADAV CHOWK", "latitude": 23.378483, "longitude": 85.317806, "timestamp": "2025-05-03T03:03:35.458824+00:00Z", "free_bikes": 8, "empty_slots": 16, "extra": {"uid": 164, "ebikes": 0, "number": 20035, "online": true}}, {"id": "d4660c772c7a8365d7b886749fb0aade", "name": "ANGITHI RESTAURANT ", "latitude": 23.354078, "longitude": 85.329954, "timestamp": "2025-05-03T03:03:35.458590+00:00Z", "free_bikes": 4, "empty_slots": 8, "extra": {"uid": 235, "ebikes": 0, "number": 20091, "online": true}}, {"id": "d996ea5280e80d589608254fa998c881", "name": "HANUMAN MANDIR MAIN ROAD", "latitude": 23.3665243, "longitude": 85.324739, "timestamp": "2025-05-03T03:03:35.457604+00:00Z", "free_bikes": 7, "empty_slots": 5, "extra": {"uid": 172, "ebikes": 0, "number": 20043, "online": true}}, {"id": "da12197cc2bbf2f50058c9488ccb53cd", "name": "RANCHI WOMENS COLLEGE", "latitude": 23.37721, "longitude": 85.33046, "timestamp": "2025-05-03T03:03:35.458685+00:00Z", "free_bikes": 12, "empty_slots": 0, "extra": {"uid": 145, "ebikes": 0, "number": 20016, "online": true}}, {"id": "dc4d9f85fbb87fdc52f18583fd435340", "name": "CLASSIC PARK, HARMU", "latitude": 23.355637, "longitude": 85.30838, "timestamp": "2025-05-03T03:03:35.458760+00:00Z", "free_bikes": 4, "empty_slots": 8, "extra": {"uid": 369, "ebikes": 0, "number": 20099, "online": true}}, {"id": "e2c6c61e5da1448f3df2feedfd9a2060", "name": "SECTOR 3", "latitude": 23.310095, "longitude": 85.294136, "timestamp": "2025-05-03T03:03:35.458099+00:00Z", "free_bikes": 5, "empty_slots": 7, "extra": {"uid": 214, "ebikes": 0, "number": 20070, "online": true}}, {"id": "e35c1194dd2bb7f905a7f2378b223390", "name": "CHILDRENS PARK MORABADI", "latitude": 23.389193, "longitude": 85.327603, "timestamp": "2025-05-03T03:03:35.458806+00:00Z", "free_bikes": 3, "empty_slots": 9, "extra": {"uid": 153, "ebikes": 0, "number": 20024, "online": true}}, {"id": "e7fc4cf5b61ad2dff4b3d02cb5a2ca6d", "name": "NEAR SBI ATM DANGRATOLI", "latitude": 23.366398, "longitude": 85.342119, "timestamp": "2025-05-03T03:03:35.457398+00:00Z", "free_bikes": 5, "empty_slots": 3, "extra": {"uid": 228, "ebikes": 0, "number": 20086, "online": true}}, {"id": "ec7eb70cb2f2412e4a6959a9e48523a8", "name": "MACHLI GHAR NAKSHATRA VAN", "latitude": 23.38179, "longitude": 85.320135, "timestamp": "2025-05-03T03:03:35.458828+00:00Z", "free_bikes": 9, "empty_slots": 3, "extra": {"uid": 159, "ebikes": 0, "number": 20030, "online": true}}, {"id": "ec7fedc8f040a128065f0cf3d5573e83", "name": "RELIANCE MART", "latitude": 23.395914, "longitude": 85.314233, "timestamp": "2025-05-03T03:03:35.458064+00:00Z", "free_bikes": 12, "empty_slots": 12, "extra": {"uid": 160, "ebikes": 0, "number": 20031, "online": true}}, {"id": "edbc0a19810ca0905cd26a9929fcc6e6", "name": "RAJENDRA BHAVAN", "latitude": 23.321504, "longitude": 85.296712, "timestamp": "2025-05-03T03:03:35.458724+00:00Z", "free_bikes": 5, "empty_slots": 7, "extra": {"uid": 185, "ebikes": 0, "number": 20056, "online": true}}, {"id": "ee626d8c13150a6951f623717fc2d5e1", "name": "CHARTERED BIKE WORKSHOP (Ranchi)", "latitude": 23.357083, "longitude": 85.352583, "timestamp": "2025-05-03T03:03:35.458091+00:00Z", "free_bikes": 52, "empty_slots": 0, "extra": {"uid": 232, "ebikes": 2, "number": 20002, "online": true}}, {"id": "ef82cfc4c7cb9763080c6f09870b6371", "name": "NEAR MACHLI PARK", "latitude": 23.344304, "longitude": 85.323253, "timestamp": "2025-05-03T03:03:35.457554+00:00Z", "free_bikes": 3, "empty_slots": 21, "extra": {"uid": 231, "ebikes": 0, "number": 20089, "online": true}}, {"id": "f0d8247fc9a2ffe4f60b6a5d5201b722", "name": "RRDA COMPLEX", "latitude": 23.378888, "longitude": 85.324549, "timestamp": "2025-05-03T03:03:35.458182+00:00Z", "free_bikes": 3, "empty_slots": 9, "extra": {"uid": 216, "ebikes": 0, "number": 20074, "online": true}}, {"id": "f121ca1f534c32fab5bb5d619d2a4041", "name": "MORABADI FOOTBALL STADIUM", "latitude": 23.393954, "longitude": 85.330875, "timestamp": "2025-05-03T03:03:35.458708+00:00Z", "free_bikes": 7, "empty_slots": 5, "extra": {"uid": 152, "ebikes": 0, "number": 20023, "online": true}}, {"id": "f30082d0c76fe4f1cae6704dd08918fc", "name": "ST. JOHN SCHOOL", "latitude": 23.365989, "longitude": 85.330356, "timestamp": "2025-05-03T03:03:35.457417+00:00Z", "free_bikes": 3, "empty_slots": 9, "extra": {"uid": 222, "ebikes": 0, "number": 20079, "online": true}}, {"id": "f881a1415445af68fe315e0debefb183", "name": "BIG BAZAAR MAIN ROAD", "latitude": 23.351613118471885, "longitude": 85.32501713988114, "timestamp": "2025-05-03T03:03:35.458631+00:00Z", "free_bikes": 9, "empty_slots": 15, "extra": {"uid": 135, "ebikes": 0, "number": 20006, "online": true}}, {"id": "f9f8534a3da77e65e74cf31c624e9151", "name": "DAV NANDRAJ PUBLIC SCHOOL", "latitude": 23.400466, "longitude": 85.372465, "timestamp": "2025-05-03T03:03:35.458785+00:00Z", "free_bikes": 10, "empty_slots": 2, "extra": {"uid": 229, "ebikes": 0, "number": 20087, "online": true}}, {"id": "fa3d77aa0be0682b33081ba14bd77ddc", "name": "BARIYATU POLICE STATION", "latitude": 23.393298, "longitude": 85.348454, "timestamp": "2025-05-03T03:03:35.459017+00:00Z", "free_bikes": 9, "empty_slots": 3, "extra": {"uid": 230, "ebikes": 0, "number": 20088, "online": true}}, {"id": "fddda1bcfa2a419eb9147561c448338f", "name": "WOODLAND SHOWROOM", "latitude": 23.376048148426978, "longitude": 85.33340023619367, "timestamp": "2025-05-03T03:03:35.458171+00:00Z", "free_bikes": 2, "empty_slots": 10, "extra": {"uid": 215, "ebikes": 0, "number": 20071, "online": true}}, {"id": "ff09a50eca7e37ca2e6922efe0515a8a", "name": "CITY CENTRE", "latitude": 23.353699, "longitude": 85.32784, "timestamp": "2025-05-03T03:03:35.458863+00:00Z", "free_bikes": 7, "empty_slots": 5, "extra": {"uid": 136, "ebikes": 0, "number": 20007, "online": true}}]}