{"id": "chartered-bike-moradabad", "name": "Chartered Bike", "location": {"latitude": 28.83263, "longitude": 78.77346, "city": "Moradabad", "country": "IN"}, "href": "/v2/networks/chartered-bike-moradabad", "company": ["CHARTERED BIKE PRIVATE LIMITED"], "system": "Chartered Bike", "stations": [{"id": "0161a54e295eb7bba048f18b7a7997f5", "name": "Hanuman Murti", "latitude": 28.820192, "longitude": 78.791852, "timestamp": "2025-05-03T03:03:32.985914+00:00Z", "free_bikes": 0, "empty_slots": 8, "extra": {"uid": 465, "ebikes": 0, "number": 90028, "online": true}}, {"id": "02f3d66b1a56565fe0bb6e457eb1d7cc", "name": "Buddha park", "latitude": 28.850137, "longitude": 78.738567, "timestamp": "2025-05-03T03:03:32.985815+00:00Z", "free_bikes": 0, "empty_slots": 8, "extra": {"uid": 446, "ebikes": 0, "number": 90009, "online": true}}, {"id": "098fc5bad733d9fc2f0759293e86ebb1", "name": "Jama maszid", "latitude": 28.834135, "longitude": 78.790534, "timestamp": "2025-05-03T03:03:32.986161+00:00Z", "free_bikes": 2, "empty_slots": 6, "extra": {"uid": 461, "ebikes": 0, "number": 90024, "online": true}}, {"id": "0cca5b5a5002aa639a9e1ccfed69b7c4", "name": "New Bus Stand ", "latitude": 28.828739, "longitude": 78.769968, "timestamp": "2025-05-03T03:03:32.985712+00:00Z", "free_bikes": 4, "empty_slots": 4, "extra": {"uid": 458, "ebikes": 0, "number": 90021, "online": true}}, {"id": "1cb243cd46fb77790574a70d89fe8dba", "name": "Ram Ganga Bridge ", "latitude": 28.82232, "longitude": 78.798364, "timestamp": "2025-05-03T03:03:32.985769+00:00Z", "free_bikes": 0, "empty_slots": 8, "extra": {"uid": 463, "ebikes": 0, "number": 90026, "online": true}}, {"id": "1fdd058cfc7125c7a068356ec5502d47", "name": "PVR Cinema ", "latitude": 28.879136, "longitude": 78.739312, "timestamp": "2025-05-03T03:03:32.986106+00:00Z", "free_bikes": 2, "empty_slots": 6, "extra": {"uid": 452, "ebikes": 0, "number": 90015, "online": true}}, {"id": "260bda3d27ea00131fa965d96f20d88e", "name": "Police Lines ", "latitude": 28.850739, "longitude": 78.768443, "timestamp": "2025-05-03T03:03:32.985987+00:00Z", "free_bikes": 1, "empty_slots": 9, "extra": {"uid": 428, "ebikes": 0, "number": 90000, "online": true}}, {"id": "3fb0d04956f4886c454273dfcbd597da", "name": "Kashiram gate", "latitude": 28.84037, "longitude": 78.75109, "timestamp": "2025-05-03T03:03:32.986023+00:00Z", "free_bikes": 2, "empty_slots": 6, "extra": {"uid": 445, "ebikes": 0, "number": 90008, "online": true}}, {"id": "42bdaa8343044a63657adaca8fa1443b", "name": "Akbar Kila", "latitude": 28.867521, "longitude": 78.747186, "timestamp": "2025-05-03T03:03:32.986221+00:00Z", "free_bikes": 1, "empty_slots": 7, "extra": {"uid": 600, "ebikes": 0, "number": 90035, "online": true}}, {"id": "4446a31097b232b5eb12e380cdb80cfb", "name": "Kathghar Railway Station", "latitude": 28.825685, "longitude": 78.796058, "timestamp": "2025-05-03T03:03:32.985932+00:00Z", "free_bikes": 3, "empty_slots": 5, "extra": {"uid": 460, "ebikes": 0, "number": 90023, "online": true}}, {"id": "4a272c748a372c021389ec51ee23de01", "name": "Roadways bus stand", "latitude": 28.821911, "longitude": 78.783031, "timestamp": "2025-05-03T03:03:32.985999+00:00Z", "free_bikes": 0, "empty_slots": 8, "extra": {"uid": 459, "ebikes": 0, "number": 90022, "online": true}}, {"id": "4aefd1ceeabcbb2e8696d29058865a91", "name": "Moradabad Workshop", "latitude": 28.844699, "longitude": 78.765766, "timestamp": "2025-05-03T03:03:32.985921+00:00Z", "free_bikes": 0, "empty_slots": 7, "extra": {"uid": 432, "ebikes": 1, "number": 90004, "online": true}}, {"id": "4b74c0cd71757c6d73011294dd60ca73", "name": "EMPLOYMENT OFFICE", "latitude": 28.885434, "longitude": 78.739146, "timestamp": "2025-05-03T03:03:32.986133+00:00Z", "free_bikes": 2, "empty_slots": 6, "extra": {"uid": 475, "ebikes": 0, "number": 90034, "online": true}}, {"id": "537113d39b89a621fa599743fa0a00e1", "name": "Pital Nagri Gate ", "latitude": 28.821027, "longitude": 78.794559, "timestamp": "2025-05-03T03:03:32.985843+00:00Z", "free_bikes": 0, "empty_slots": 8, "extra": {"uid": 464, "ebikes": 0, "number": 90027, "online": true}}, {"id": "62f821d37799264291ee3b0e8d6ebf5a", "name": "Charan singh chauraha", "latitude": 28.830975, "longitude": 78.74165, "timestamp": "2025-05-03T03:03:32.986207+00:00Z", "free_bikes": 0, "empty_slots": 8, "extra": {"uid": 444, "ebikes": 0, "number": 90007, "online": true}}, {"id": "6701723f1cf9a393da08deed067cfd08", "name": "SBI bank", "latitude": 28.84703, "longitude": 78.77113, "timestamp": "2025-05-03T03:03:32.985743+00:00Z", "free_bikes": 1, "empty_slots": 7, "extra": {"uid": 451, "ebikes": 0, "number": 90014, "online": true}}, {"id": "672f9469585fae6f4f9a262e6b79d52f", "name": " Gagan Chauraha", "latitude": 28.826745, "longitude": 78.720008, "timestamp": "2025-05-03T03:03:32.986066+00:00Z", "free_bikes": 0, "empty_slots": 8, "extra": {"uid": 457, "ebikes": 0, "number": 90020, "online": true}}, {"id": "80957088e9de452405215d3a7833d695", "name": "Fauwara chowk", "latitude": 28.840309, "longitude": 78.759585, "timestamp": "2025-05-03T03:03:32.986077+00:00Z", "free_bikes": 1, "empty_slots": 7, "extra": {"uid": 447, "ebikes": 0, "number": 90010, "online": true}}, {"id": "81ef6069a336f83164da0a22b29ac107", "name": "Kali mata mandir ", "latitude": 28.840981, "longitude": 78.789257, "timestamp": "2025-05-03T03:03:32.985825+00:00Z", "free_bikes": 0, "empty_slots": 8, "extra": {"uid": 462, "ebikes": 0, "number": 90025, "online": true}}, {"id": "84f18bbcb678a6dd052deba25529094f", "name": " Commissioner office ", "latitude": 28.844996, "longitude": 78.769671, "timestamp": "2025-05-03T03:03:32.985681+00:00Z", "free_bikes": 1, "empty_slots": 7, "extra": {"uid": 456, "ebikes": 0, "number": 90019, "online": true}}, {"id": "8684d667ddc4dd52426cfec7f4c861eb", "name": "CIRCUIT HOUSE", "latitude": 28.829564, "longitude": 78.733321, "timestamp": "2025-05-03T03:03:32.986429+00:00Z", "free_bikes": 3, "empty_slots": 5, "extra": {"uid": 469, "ebikes": 0, "number": 90033, "online": true}}, {"id": "8742feee45a31ae35d5f58d8c9020d1f", "name": "Peeli kothi", "latitude": 28.846078, "longitude": 78.765554, "timestamp": "2025-05-03T03:03:32.986308+00:00Z", "free_bikes": 4, "empty_slots": 6, "extra": {"uid": 429, "ebikes": 0, "number": 90001, "online": true}}, {"id": "8dd61d60e8594cf71cbc21a72fa2c9bf", "name": "Jigar Colony", "latitude": 28.853421, "longitude": 78.770187, "timestamp": "2025-05-03T03:03:32.986412+00:00Z", "free_bikes": 1, "empty_slots": 7, "extra": {"uid": 450, "ebikes": 0, "number": 90013, "online": true}}, {"id": "8fcf1caadd5f7daf392f76558ce30eb2", "name": "Lakri Fazalpur", "latitude": 28.81969, "longitude": 78.73144, "timestamp": "2025-05-03T03:03:32.986183+00:00Z", "free_bikes": 1, "empty_slots": 7, "extra": {"uid": 442, "ebikes": 0, "number": 90005, "online": true}}, {"id": "9921f1ae805e8de2ffe79f955cf2388f", "name": "Saheed Samark Park ", "latitude": 28.843536, "longitude": 78.764732, "timestamp": "2025-05-03T03:03:32.985992+00:00Z", "free_bikes": 1, "empty_slots": 7, "extra": {"uid": 448, "ebikes": 0, "number": 90011, "online": true}}, {"id": "a5792f71bb538cdfaefad70140f4d48f", "name": "TDI CITY, MDA", "latitude": 28.873822, "longitude": 78.754107, "timestamp": "2025-05-03T03:03:32.986188+00:00Z", "free_bikes": 2, "empty_slots": 6, "extra": {"uid": 601, "ebikes": 0, "number": 90036, "online": true}}, {"id": "b08798ce0911c46e5058e60159c57c34", "name": "RTO Office Tiraha", "latitude": 28.799127, "longitude": 78.764223, "timestamp": "2025-05-03T03:03:32.986021+00:00Z", "free_bikes": 1, "empty_slots": 7, "extra": {"uid": 467, "ebikes": 0, "number": 90030, "online": true}}, {"id": "b55fbe8b0512162190d6305201045ff4", "name": "PAC camp", "latitude": 28.860011, "longitude": 78.752577, "timestamp": "2025-05-03T03:03:32.985841+00:00Z", "free_bikes": 2, "empty_slots": 6, "extra": {"uid": 455, "ebikes": 0, "number": 90018, "online": true}}, {"id": "ca35cc47e943a6ab9eba460d958b66a7", "name": "Cosmos hospital", "latitude": 28.893633, "longitude": 78.729173, "timestamp": "2025-05-03T03:03:32.986128+00:00Z", "free_bikes": 0, "empty_slots": 8, "extra": {"uid": 453, "ebikes": 0, "number": 90016, "online": true}}, {"id": "d29c370021737c1e4f2ed28ca4638701", "name": "Select hospital ", "latitude": 28.804888, "longitude": 78.75093, "timestamp": "2025-05-03T03:03:32.986063+00:00Z", "free_bikes": 1, "empty_slots": 7, "extra": {"uid": 468, "ebikes": 0, "number": 90031, "online": true}}, {"id": "d74966d656c570e5e35e5ab65bfdd062", "name": "Kohinoor Tiraha", "latitude": 28.805602, "longitude": 78.768312, "timestamp": "2025-05-03T03:03:32.986153+00:00Z", "free_bikes": 0, "empty_slots": 8, "extra": {"uid": 466, "ebikes": 0, "number": 90029, "online": true}}, {"id": "deae647c17be61d8b5642d6bc606839a", "name": "Town Hall", "latitude": 28.836726, "longitude": 78.773836, "timestamp": "2025-05-03T03:03:32.986121+00:00Z", "free_bikes": 0, "empty_slots": 8, "extra": {"uid": 431, "ebikes": 0, "number": 90003, "online": true}}, {"id": "e02f6ac2bdac15b73f396537ad392b09", "name": "Wave mall", "latitude": 28.868472, "longitude": 78.757324, "timestamp": "2025-05-03T03:03:32.985746+00:00Z", "free_bikes": 0, "empty_slots": 8, "extra": {"uid": 454, "ebikes": 0, "number": 90017, "online": true}}, {"id": "e14a48d577837b9b67cf66673a73cc57", "name": "Ramleela Ground ", "latitude": 28.829495, "longitude": 78.75364, "timestamp": "2025-05-03T03:03:32.985678+00:00Z", "free_bikes": 0, "empty_slots": 8, "extra": {"uid": 443, "ebikes": 0, "number": 90006, "online": true}}, {"id": "e766c03120aa99699d33ec4781fa2996", "name": "Galshaheed Chauraha", "latitude": 28.829643, "longitude": 78.781154, "timestamp": "2025-05-03T03:03:32.985774+00:00Z", "free_bikes": 3, "empty_slots": 5, "extra": {"uid": 449, "ebikes": 0, "number": 90012, "online": true}}, {"id": "f31ce7e9add1f01d180cb796069896b1", "name": " Railway Station ( Moradabad )", "latitude": 28.833755, "longitude": 78.7649, "timestamp": "2025-05-03T03:03:32.986091+00:00Z", "free_bikes": 2, "empty_slots": 6, "extra": {"uid": 430, "ebikes": 0, "number": 90002, "online": true}}, {"id": "f9de52c6c89b5b53e4ffcd957570bb15", "name": "Exhibition", "latitude": 28.84355, "longitude": 78.763944, "timestamp": "2025-05-03T03:03:32.985692+00:00Z", "free_bikes": 0, "empty_slots": 2, "extra": {"uid": 654, "ebikes": 0, "number": 37, "online": true}}]}