{"id": "chartered-bike-bhopal", "name": "Chartered Bike", "location": {"latitude": 23.258546, "longitude": 77.401851, "city": "Bhopal", "country": "IN"}, "href": "/v2/networks/chartered-bike-bhopal", "company": ["CHARTERED BIKE PRIVATE LIMITED"], "system": "Chartered Bike", "stations": [{"id": "0d355d98a3df97a921255dcc6962865b", "name": "BOAT CLUB 1", "latitude": 23.244284, "longitude": 77.387085, "timestamp": "2025-05-03T03:03:36.612381+00:00Z", "free_bikes": 7, "empty_slots": 3, "extra": {"uid": 73, "ebikes": 0, "number": 9821, "online": true}}, {"id": "0dbfb7907fd0bb62822f16e53057697f", "name": "J.K SQUARE ", "latitude": 23.251645, "longitude": 77.456501, "timestamp": "2025-05-03T03:03:36.608225+00:00Z", "free_bikes": 3, "empty_slots": 3, "extra": {"uid": 124, "ebikes": 0, "number": 9873, "online": true}}, {"id": "0eca236df5962b877730fac486a4b756", "name": "HOSHANGABAAD ROAD 4", "latitude": 23.187359, "longitude": 77.452427, "timestamp": "2025-05-03T03:03:36.578306+00:00Z", "free_bikes": 6, "empty_slots": 0, "extra": {"uid": 58, "ebikes": 0, "number": 9804, "online": true}}, {"id": "0fdca81fc82ffaff8355c0babe4f4ad6", "name": "MANIT SQUARE", "latitude": 23.220998, "longitude": 77.403485, "timestamp": "2025-05-03T03:03:36.612307+00:00Z", "free_bikes": 0, "empty_slots": 6, "extra": {"uid": 80, "ebikes": 0, "number": 9828, "online": true}}, {"id": "14ed5c206755518fd7c340db942f39f5", "name": "KAMLA NAGAR THANA", "latitude": 23.216004, "longitude": 77.395599, "timestamp": "2025-05-03T03:03:36.612304+00:00Z", "free_bikes": 6, "empty_slots": 0, "extra": {"uid": 81, "ebikes": 0, "number": 9829, "online": true}}, {"id": "154a47ad488f8c67ea69615613277002", "name": "AVADHPURI TIRAHA", "latitude": 23.230224, "longitude": 77.485648, "timestamp": "2025-05-03T03:03:36.608396+00:00Z", "free_bikes": 6, "empty_slots": 0, "extra": {"uid": 131, "ebikes": 0, "number": 9880, "online": true}}, {"id": "1963bb2716298c99b134c17283d62834", "name": "SAIR SAPATA", "latitude": 23.216699, "longitude": 77.376212, "timestamp": "2025-05-03T03:03:36.702145+00:00Z", "free_bikes": 11, "empty_slots": 0, "extra": {"uid": 79, "ebikes": 0, "number": 9827, "online": true}}, {"id": "1dbe162b10748466d2df5bf0a546dc22", "name": "EKANT PARK", "latitude": 23.217803, "longitude": 77.419776, "timestamp": "2025-05-03T03:03:36.612289+00:00Z", "free_bikes": 6, "empty_slots": 0, "extra": {"uid": 83, "ebikes": 0, "number": 9831, "online": true}}, {"id": "2402e44d882d0c75e247265430587341", "name": "AIIMS 2 (NURSING HOTEL)", "latitude": 23.205616, "longitude": 77.460985, "timestamp": "2025-05-03T03:03:36.612405+00:00Z", "free_bikes": 6, "empty_slots": 0, "extra": {"uid": 207, "ebikes": 0, "number": 9894, "online": true}}, {"id": "2bace8134fff70d7948a138767fb0428", "name": "BDA COMPLEX ", "latitude": 23.217155, "longitude": 77.463034, "timestamp": "2025-05-03T03:03:36.611320+00:00Z", "free_bikes": 5, "empty_slots": 1, "extra": {"uid": 107, "ebikes": 0, "number": 9856, "online": true}}, {"id": "2c113ce0f1ef9d2829e91458945cfeb5", "name": "HOSHANGABAAD ROAD 2", "latitude": 23.2007, "longitude": 77.447476, "timestamp": "2025-05-03T03:03:36.608229+00:00Z", "free_bikes": 9, "empty_slots": 0, "extra": {"uid": 56, "ebikes": 0, "number": 9802, "online": true}}, {"id": "3695370c96469c3f49a7f17ad47bb0aa", "name": "PANCHVATI MARKET", "latitude": 23.218677, "longitude": 77.456526, "timestamp": "2025-05-03T03:03:36.611305+00:00Z", "free_bikes": 3, "empty_slots": 1, "extra": {"uid": 106, "ebikes": 0, "number": 9855, "online": true}}, {"id": "37ec2dd142730066a35f2f3048f0312d", "name": "RM MARG 2", "latitude": 23.236955, "longitude": 77.433214, "timestamp": "2025-05-03T03:03:36.612356+00:00Z", "free_bikes": 5, "empty_slots": 1, "extra": {"uid": 61, "ebikes": 0, "number": 9808, "online": true}}, {"id": "3c09b223b64789641c257e8856dc4a3c", "name": "HOSHANGABAAD ROAD 6", "latitude": 23.178594, "longitude": 77.458004, "timestamp": "2025-05-03T03:03:36.611072+00:00Z", "free_bikes": 6, "empty_slots": 0, "extra": {"uid": 89, "ebikes": 0, "number": 9837, "online": true}}, {"id": "3fade2587dd5a43322deb4a5aa00ff1c", "name": "HOSHANGABAAD ROAD 3", "latitude": 23.192864, "longitude": 77.450197, "timestamp": "2025-05-03T03:03:36.578257+00:00Z", "free_bikes": 9, "empty_slots": 1, "extra": {"uid": 57, "ebikes": 0, "number": 9803, "online": true}}, {"id": "4359ff4048ca2d24336b025f89d57d73", "name": "SHAHPURA LAKE", "latitude": 23.202557, "longitude": 77.425174, "timestamp": "2025-05-03T03:03:36.612310+00:00Z", "free_bikes": 6, "empty_slots": 0, "extra": {"uid": 85, "ebikes": 0, "number": 9833, "online": true}}, {"id": "46aac9a62b762db21422368d4eb01577", "name": "SMART PARKING T.T. NAGAR", "latitude": 23.233769, "longitude": 77.39904, "timestamp": "2025-05-03T03:03:36.608452+00:00Z", "free_bikes": 8, "empty_slots": 0, "extra": {"uid": 102, "ebikes": 0, "number": 9851, "online": true}}, {"id": "484b84f4d0b6613dd2c238d0e9299d16", "name": "MOGLI PARK MINAAL", "latitude": 23.274505, "longitude": 77.460654, "timestamp": "2025-05-03T03:03:36.611118+00:00Z", "free_bikes": 5, "empty_slots": 1, "extra": {"uid": 121, "ebikes": 0, "number": 9870, "online": true}}, {"id": "4cfedc01ab91a6150714bb9aa6c20e6d", "name": "POLICE CONTROL ROOM", "latitude": 23.243731, "longitude": 77.4104, "timestamp": "2025-05-03T03:03:36.612179+00:00Z", "free_bikes": 5, "empty_slots": 1, "extra": {"uid": 98, "ebikes": 0, "number": 9846, "online": true}}, {"id": "4d41afc86e8032eac39be5b983a8d0b1", "name": "BOAT CLUB 2", "latitude": 23.242482, "longitude": 77.381173, "timestamp": "2025-05-03T03:03:36.607630+00:00Z", "free_bikes": 7, "empty_slots": 3, "extra": {"uid": 74, "ebikes": 0, "number": 9822, "online": true}}, {"id": "52160696e52399f26aee0e76577b0f4a", "name": "MAYUR PARK LINK ROAD NO. 1", "latitude": 23.231905, "longitude": 77.411919, "timestamp": "2025-05-03T03:03:36.612292+00:00Z", "free_bikes": 5, "empty_slots": 5, "extra": {"uid": 69, "ebikes": 0, "number": 9817, "online": true}}, {"id": "532f8ef5431c093d67083eea6f1de05e", "name": "VAN VIHAR (RAMU GATE)", "latitude": 23.217862, "longitude": 77.369535, "timestamp": "2025-05-03T03:03:36.702126+00:00Z", "free_bikes": 6, "empty_slots": 4, "extra": {"uid": 99, "ebikes": 0, "number": 9847, "online": true}}, {"id": "57384fa269b7e58f8dc2c78a9ac27094", "name": "NUTAN COLLEGE", "latitude": 23.225072, "longitude": 77.42874, "timestamp": "2025-05-03T03:03:36.612316+00:00Z", "free_bikes": 3, "empty_slots": 3, "extra": {"uid": 67, "ebikes": 0, "number": 9814, "online": true}}, {"id": "5759c2998c6735949fb0198f29ab47c1", "name": "KAMLA NEHRU GIRLS SCHOOL T.T. NAGAR", "latitude": 23.23295, "longitude": 77.401322, "timestamp": "2025-05-03T03:03:36.610136+00:00Z", "free_bikes": 7, "empty_slots": 0, "extra": {"uid": 70, "ebikes": 0, "number": 9818, "online": true}}, {"id": "5c197a3a67828471aea3b1d9605a2309", "name": "RM MARG 1", "latitude": 23.233658, "longitude": 77.434393, "timestamp": "2025-05-03T03:03:36.612238+00:00Z", "free_bikes": 2, "empty_slots": 4, "extra": {"uid": 62, "ebikes": 0, "number": 9807, "online": true}}, {"id": "5d4ebcbe22e77520d054c3915ddefb3f", "name": "GAUHAR MAHAL ", "latitude": 23.25491, "longitude": 77.397813, "timestamp": "2025-05-03T03:03:36.612384+00:00Z", "free_bikes": 6, "empty_slots": 0, "extra": {"uid": 197, "ebikes": 0, "number": 9884, "online": true}}, {"id": "6dc074a8b58a4b4f3771d1f77d318f21", "name": "ISBT", "latitude": 23.229068, "longitude": 77.442164, "timestamp": "2025-05-03T03:03:36.612359+00:00Z", "free_bikes": 9, "empty_slots": 1, "extra": {"uid": 60, "ebikes": 0, "number": 9806, "online": true}}, {"id": "6e152240f34b587a06f83416834ce336", "name": "RCVP NORONHA ACADEMY", "latitude": 23.208461, "longitude": 77.427461, "timestamp": "2025-05-03T03:03:36.578109+00:00Z", "free_bikes": 5, "empty_slots": 1, "extra": {"uid": 100, "ebikes": 0, "number": 9848, "online": true}}, {"id": "6e69a0b3762f1448e5491ab53699357d", "name": "BMC PARKING ZONE II", "latitude": 23.231342, "longitude": 77.436114, "timestamp": "2025-05-03T03:03:36.578271+00:00Z", "free_bikes": 60, "empty_slots": 0, "extra": {"uid": 93, "ebikes": 0, "number": 9841, "online": true}}, {"id": "7a61ae2a318292a554f71ee55fce7d4d", "name": "HOSHANGABAAD ROAD 7", "latitude": 23.164564, "longitude": 77.467552, "timestamp": "2025-05-03T03:03:36.612368+00:00Z", "free_bikes": 6, "empty_slots": 0, "extra": {"uid": 92, "ebikes": 0, "number": 9840, "online": true}}, {"id": "810ed5606d0a76dfca389e97629028f0", "name": "POLYTECHNIC SQUARE", "latitude": 23.243884, "longitude": 77.397579, "timestamp": "2025-05-03T03:03:36.612333+00:00Z", "free_bikes": 6, "empty_slots": 0, "extra": {"uid": 72, "ebikes": 0, "number": 9820, "online": true}}, {"id": "985449fb6466880cbb3935ee0f9656cb", "name": "10 NO. MARKET, BMC PARKING", "latitude": 23.2146, "longitude": 77.435593, "timestamp": "2025-05-03T03:03:36.611085+00:00Z", "free_bikes": 7, "empty_slots": 0, "extra": {"uid": 87, "ebikes": 0, "number": 9835, "online": true}}, {"id": "9cdbe2a85d8eed4fcc3f63520869a58e", "name": "DEPOT SQUARE", "latitude": 23.226139, "longitude": 77.386867, "timestamp": "2025-05-03T03:03:36.578074+00:00Z", "free_bikes": 6, "empty_slots": 0, "extra": {"uid": 77, "ebikes": 0, "number": 9825, "online": true}}, {"id": "a014528869c501ad81155d328c7785da", "name": "CHITRAGUPT MARG", "latitude": 23.232933, "longitude": 77.430657, "timestamp": "2025-05-03T03:03:36.612313+00:00Z", "free_bikes": 0, "empty_slots": 6, "extra": {"uid": 64, "ebikes": 0, "number": 9810, "online": true}}, {"id": "a9d6f5609b054c36e690acb0e2f46872", "name": "SAKET NAGAR AIIMS ROAD 2", "latitude": 23.211058, "longitude": 77.454529, "timestamp": "2025-05-03T03:03:36.578247+00:00Z", "free_bikes": 6, "empty_slots": 0, "extra": {"uid": 108, "ebikes": 0, "number": 9857, "online": true}}, {"id": "ae4d1173ed5919ff1f15d9b3416c3d40", "name": "SHAKTI NAGAR MARKET", "latitude": 23.217937, "longitude": 77.450672, "timestamp": "2025-05-03T03:03:36.578227+00:00Z", "free_bikes": 46, "empty_slots": 0, "extra": {"uid": 104, "ebikes": 0, "number": 9853, "online": true}}, {"id": "b371ef2499d92f6f39aecd14aa834f73", "name": "NANDAN KANAN PARK", "latitude": 23.222624, "longitude": 77.424051, "timestamp": "2025-05-03T03:03:36.578266+00:00Z", "free_bikes": 2, "empty_slots": 4, "extra": {"uid": 122, "ebikes": 0, "number": 9871, "online": true}}, {"id": "b8bebc0ae584bc8f79d072e235d98809", "name": "DANISH SQUARE ", "latitude": 23.18573, "longitude": 77.453916, "timestamp": "2025-05-03T03:03:36.607518+00:00Z", "free_bikes": 0, "empty_slots": 6, "extra": {"uid": 132, "ebikes": 0, "number": 9881, "online": true}}, {"id": "badd2d175a50a6e6470c8f3377a25221", "name": "SMART CITY", "latitude": 23.231724, "longitude": 77.457836, "timestamp": "2025-05-03T03:03:36.610460+00:00Z", "free_bikes": 3, "empty_slots": 2, "extra": {"uid": 130, "ebikes": 0, "number": 9879, "online": true}}, {"id": "c389846553dcc6b9b602013f95f8e358", "name": "CHARTERED BIKE WORKSHOP BHOPAL", "latitude": 23.228904, "longitude": 77.444074, "timestamp": "2025-05-03T03:03:36.612430+00:00Z", "free_bikes": 17, "empty_slots": 507, "extra": {"uid": 196, "ebikes": 0, "number": 10002, "online": true}}, {"id": "cb4b32b07a47f4c1ba54e80d2c324156", "name": "VAN VIHAR GATE NO. 1", "latitude": 23.24165, "longitude": 77.374374, "timestamp": "2025-05-03T03:03:36.608555+00:00Z", "free_bikes": 7, "empty_slots": 3, "extra": {"uid": 76, "ebikes": 0, "number": 9824, "online": true}}, {"id": "cc3a164b4a08cac228675aaea6e49462", "name": "Van Vihar gate no. 1 E-bike", "latitude": 23.24165, "longitude": 77.37443, "timestamp": "2025-05-03T03:03:36.611311+00:00Z", "free_bikes": 0, "empty_slots": 19, "extra": {"uid": 419, "ebikes": 1, "number": 9703, "online": true}}, {"id": "d342da57ea20cb48b0fd641fcf95a0e9", "name": "SHALIMAR ENCLAVE", "latitude": 23.211206, "longitude": 77.441297, "timestamp": "2025-05-03T03:03:36.612346+00:00Z", "free_bikes": 4, "empty_slots": 0, "extra": {"uid": 110, "ebikes": 0, "number": 9859, "online": true}}, {"id": "d3e108ba4fd1228c3e99528fe66173b0", "name": "BEEMA HOSPITAL SECTOR C", "latitude": 23.25004, "longitude": 77.467072, "timestamp": "2025-05-03T03:03:36.578233+00:00Z", "free_bikes": 10, "empty_slots": 0, "extra": {"uid": 125, "ebikes": 0, "number": 9874, "online": true}}, {"id": "d95902020acc4b3b87322340da878882", "name": "6 NO. MARKET", "latitude": 23.22874, "longitude": 77.428269, "timestamp": "2025-05-03T03:03:36.612329+00:00Z", "free_bikes": 4, "empty_slots": 2, "extra": {"uid": 66, "ebikes": 0, "number": 9813, "online": true}}, {"id": "dd5845c02e5e9cb700fcc70cb944b115", "name": "HOSHANGABAAD ROAD 1", "latitude": 23.203445, "longitude": 77.446469, "timestamp": "2025-05-03T03:03:36.612283+00:00Z", "free_bikes": 10, "empty_slots": 0, "extra": {"uid": 55, "ebikes": 0, "number": 9801, "online": true}}, {"id": "e0ae0ac8b1f8409db93ebeba565fa4c2", "name": "HOSHANGABAAD ROAD 5", "latitude": 23.182398, "longitude": 77.455573, "timestamp": "2025-05-03T03:03:36.612362+00:00Z", "free_bikes": 4, "empty_slots": 2, "extra": {"uid": 59, "ebikes": 0, "number": 9805, "online": true}}, {"id": "e2b71806569aded653318bef6aa7a98f", "name": "SAKET NAGAR AIIMS ROAD 1", "latitude": 23.210729, "longitude": 77.452595, "timestamp": "2025-05-03T03:03:36.612365+00:00Z", "free_bikes": 4, "empty_slots": 0, "extra": {"uid": 109, "ebikes": 0, "number": 9858, "online": true}}, {"id": "e3e3292dc66bb87ec1413832032fcdde", "name": "AURA MALL", "latitude": 23.188674, "longitude": 77.4338, "timestamp": "2025-05-03T03:03:36.612378+00:00Z", "free_bikes": 6, "empty_slots": 0, "extra": {"uid": 115, "ebikes": 0, "number": 9864, "online": true}}, {"id": "e700a25ce21f64282f96d6d1b0042c57", "name": "VIP ROAD (KARBALA) ", "latitude": 23.259188, "longitude": 77.38237, "timestamp": "2025-05-03T03:03:36.612391+00:00Z", "free_bikes": 0, "empty_slots": 4, "extra": {"uid": 199, "ebikes": 0, "number": 9886, "online": true}}, {"id": "ee59f14018c5931d18431ea0242666fc", "name": "MINAAL SHOPPING MALL", "latitude": 23.268475, "longitude": 77.45751, "timestamp": "2025-05-03T03:03:36.608377+00:00Z", "free_bikes": 6, "empty_slots": 0, "extra": {"uid": 120, "ebikes": 0, "number": 9869, "online": true}}, {"id": "f0044ca74a66d13f30856f95f1ba0aab", "name": "BITTAN SQUARE", "latitude": 23.217316, "longitude": 77.430646, "timestamp": "2025-05-03T03:03:36.610891+00:00Z", "free_bikes": 6, "empty_slots": 0, "extra": {"uid": 88, "ebikes": 0, "number": 9836, "online": true}}, {"id": "f1bddd8117647c5aa5aeedbf6c6d3c4b", "name": "ROSHANPURA SQUARE", "latitude": 23.237019, "longitude": 77.40025, "timestamp": "2025-05-03T03:03:36.612326+00:00Z", "free_bikes": 3, "empty_slots": 3, "extra": {"uid": 71, "ebikes": 0, "number": 9819, "online": true}}, {"id": "f7ff67ee78f014ce547c5de411b1177b", "name": "RAJIV GANDHI CHOWK", "latitude": 23.215321, "longitude": 77.426918, "timestamp": "2025-05-03T03:03:36.612320+00:00Z", "free_bikes": 4, "empty_slots": 2, "extra": {"uid": 84, "ebikes": 0, "number": 9832, "online": true}}, {"id": "fd59f6628fd35c859f6aed6a7610b0c9", "name": "Boat Club E-bike", "latitude": 23.24428884650912, "longitude": 77.3871337835708, "timestamp": "2025-05-03T03:03:36.607482+00:00Z", "free_bikes": 0, "empty_slots": 18, "extra": {"uid": 420, "ebikes": 2, "number": 9704, "online": true}}, {"id": "fe3b8f18c4c54c5b4538da60b2d9f616", "name": "TULSI NAGAR", "latitude": 23.22866, "longitude": 77.415382, "timestamp": "2025-05-03T03:03:36.612286+00:00Z", "free_bikes": 3, "empty_slots": 3, "extra": {"uid": 68, "ebikes": 0, "number": 9816, "online": true}}]}