{"id": "chartered-bike-prayagraj", "name": "Chartered Bike", "location": {"latitude": 25.43802, "longitude": 81.83383, "city": "Prayagraj", "country": "IN"}, "href": "/v2/networks/chartered-bike-prayagraj", "company": ["CHARTERED BIKE PRIVATE LIMITED"], "system": "Chartered Bike", "stations": [{"id": "04a21bd9efdf331e4029e4e22e6fea30", "name": "Shantipuram", "latitude": 25.526806, "longitude": 81.852987, "timestamp": "2025-05-03T03:03:38.680651+00:00Z", "free_bikes": 11, "empty_slots": 4, "extra": {"uid": 617, "ebikes": 0, "number": 8061, "online": true}}, {"id": "0f26d23e38d79615738f893d93a4f651", "name": "L1-Leprosy Chouraha", "latitude": 25.414156, "longitude": 81.857244, "timestamp": "2025-05-03T03:03:38.680415+00:00Z", "free_bikes": 8, "empty_slots": 10, "extra": {"uid": 384, "ebikes": 0, "number": 8028, "online": true}}, {"id": "129042db29f16f1dbfeb635e4b94e068", "name": "Niranjan ", "latitude": 25.444987, "longitude": 81.838014, "timestamp": "2025-05-03T03:03:38.680886+00:00Z", "free_bikes": 6, "empty_slots": 6, "extra": {"uid": 632, "ebikes": 0, "number": 8068, "online": true}}, {"id": "1317b65417401c67a0b23e4450b1f109", "name": "Rajshree Tandon", "latitude": 25.534305, "longitude": 81.853921, "timestamp": "2025-05-03T03:03:38.680311+00:00Z", "free_bikes": 8, "empty_slots": 7, "extra": {"uid": 618, "ebikes": 0, "number": 8062, "online": true}}, {"id": "13258b8a2830bb4a69b031c164ea2162", "name": "BDO CHAKA", "latitude": 25.384928, "longitude": 81.840129, "timestamp": "2025-05-03T03:03:38.680350+00:00Z", "free_bikes": 4, "empty_slots": 14, "extra": {"uid": 613, "ebikes": 0, "number": 8056, "online": true}}, {"id": "181203202ffa24cdb684d08f2fdb272b", "name": "Uptron Chauraha", "latitude": 25.495481, "longitude": 81.869569, "timestamp": "2025-05-03T03:03:38.680780+00:00Z", "free_bikes": 7, "empty_slots": 8, "extra": {"uid": 592, "ebikes": 0, "number": 8040, "online": true}}, {"id": "226b343099d75ed6b70261b9c96e7474", "name": "L3-IPEM International School", "latitude": 25.45077, "longitude": 81.828458, "timestamp": "2025-05-03T03:03:38.680057+00:00Z", "free_bikes": 12, "empty_slots": 0, "extra": {"uid": 355, "ebikes": 0, "number": 8005, "online": true}}, {"id": "26608199a4da1383911670a7eb2a6e2a", "name": "L2-Divisional Commissioner Office", "latitude": 25.473225, "longitude": 81.857287, "timestamp": "2025-05-03T03:03:38.679458+00:00Z", "free_bikes": 4, "empty_slots": 11, "extra": {"uid": 360, "ebikes": 0, "number": 8010, "online": true}}, {"id": "28877184149dd727abfe997acc8df32c", "name": "L3-Saraswati Ghat", "latitude": 25.431036, "longitude": 81.868456, "timestamp": "2025-05-03T03:03:38.681212+00:00Z", "free_bikes": 7, "empty_slots": 5, "extra": {"uid": 375, "ebikes": 0, "number": 8022, "online": true}}, {"id": "2dd6aa50b2ea557bde99c00b0b6803d4", "name": "L1-Bank Road Fountain", "latitude": 25.469008, "longitude": 81.863031, "timestamp": "2025-05-03T03:03:38.680275+00:00Z", "free_bikes": 11, "empty_slots": 7, "extra": {"uid": 382, "ebikes": 0, "number": 8027, "online": true}}, {"id": "2f0af4b2e92d270fb2709293d3a5821a", "name": "L3-Baba Chouraha", "latitude": 25.466941, "longitude": 81.824726, "timestamp": "2025-05-03T03:03:38.681271+00:00Z", "free_bikes": 13, "empty_slots": 0, "extra": {"uid": 380, "ebikes": 0, "number": 8025, "online": true}}, {"id": "30a54a53848bd7d3843c785638dbfd18", "name": "L2-Bishop Johnson Girls Wing", "latitude": 25.466223, "longitude": 81.849287, "timestamp": "2025-05-03T03:03:38.680185+00:00Z", "free_bikes": 10, "empty_slots": 5, "extra": {"uid": 365, "ebikes": 0, "number": 8015, "online": true}}, {"id": "35e1b08ff2210a6f3113f8ed7bc96dff", "name": "Meerapur Gol Park", "latitude": 25.4309526, "longitude": 81.8285678, "timestamp": "2025-05-03T03:03:38.680022+00:00Z", "free_bikes": 5, "empty_slots": 7, "extra": {"uid": 603, "ebikes": 0, "number": 8046, "online": true}}, {"id": "37ba9b50b0ef7ffc511ac6c2a8d85895", "name": "Hasimpur Chauraha", "latitude": 25.460174, "longitude": 81.865175, "timestamp": "2025-05-03T03:03:38.680467+00:00Z", "free_bikes": 7, "empty_slots": 8, "extra": {"uid": 614, "ebikes": 0, "number": 8057, "online": true}}, {"id": "4115a508bc85aadb5e4098a4e822d1c9", "name": "L3-Traffic Chouraha", "latitude": 25.466919, "longitude": 81.843521, "timestamp": "2025-05-03T03:03:38.680960+00:00Z", "free_bikes": 11, "empty_slots": 1, "extra": {"uid": 378, "ebikes": 0, "number": 8023, "online": true}}, {"id": "414fad9aea4c092912ab23bd34b1fd4b", "name": "L2-Salori", "latitude": 25.475555, "longitude": 81.871029, "timestamp": "2025-05-03T03:03:38.680774+00:00Z", "free_bikes": 7, "empty_slots": 8, "extra": {"uid": 372, "ebikes": 0, "number": 8018, "online": true}}, {"id": "477125c2ac47f714579994d6d3077fd6", "name": "Glass Factory", "latitude": 25.450931, "longitude": 81.724421, "timestamp": "2025-05-03T03:03:38.679830+00:00Z", "free_bikes": 4, "empty_slots": 11, "extra": {"uid": 634, "ebikes": 0, "number": 8070, "online": true}}, {"id": "480b84031c88decc6f75dfd4ecbe8f0b", "name": "Bhairana", "latitude": 25.43941, "longitude": 81.86055, "timestamp": "2025-05-03T03:03:38.680381+00:00Z", "free_bikes": 7, "empty_slots": 8, "extra": {"uid": 609, "ebikes": 0, "number": 8052, "online": true}}, {"id": "498ab36f5dad453ca69b9aa6eec349e0", "name": "Mewa Lal ki Bagiya Naini", "latitude": 25.389761, "longitude": 81.8638551, "timestamp": "2025-05-03T03:03:38.679817+00:00Z", "free_bikes": 5, "empty_slots": 7, "extra": {"uid": 588, "ebikes": 0, "number": 8036, "online": true}}, {"id": "4a7cae55c49e215bc006dae443fc1ed2", "name": "L3-Mohak Hospital", "latitude": 25.476159, "longitude": 81.849153, "timestamp": "2025-05-03T03:03:38.680871+00:00Z", "free_bikes": 11, "empty_slots": 1, "extra": {"uid": 364, "ebikes": 0, "number": 8014, "online": true}}, {"id": "506b6a7f2382a3acfb6f16713940dfc6", "name": "Happy Home", "latitude": 25.448653, "longitude": 81.747878, "timestamp": "2025-05-03T03:03:38.679493+00:00Z", "free_bikes": 9, "empty_slots": 6, "extra": {"uid": 594, "ebikes": 0, "number": 8042, "online": true}}, {"id": "510539334ad73688dbbe8229647d39d9", "name": "Trivenipuram Chauraha", "latitude": 25.428631, "longitude": 81.932657, "timestamp": "2025-05-03T03:03:38.680148+00:00Z", "free_bikes": 8, "empty_slots": 7, "extra": {"uid": 624, "ebikes": 0, "number": 8064, "online": true}}, {"id": "557496a5a56d48d94e471a02ebebab12", "name": "United Medicity Rawatpur", "latitude": 25.395057, "longitude": 81.75637, "timestamp": "2025-05-03T03:03:38.679783+00:00Z", "free_bikes": 8, "empty_slots": 4, "extra": {"uid": 474, "ebikes": 0, "number": 8034, "online": true}}, {"id": "5abc7fed5a7ee66b2c2dfb6f2b3e5c50", "name": "L3-Allahapur", "latitude": 25.468338, "longitude": 81.854602, "timestamp": "2025-05-03T03:03:38.680114+00:00Z", "free_bikes": 5, "empty_slots": 7, "extra": {"uid": 381, "ebikes": 0, "number": 8026, "online": true}}, {"id": "5b69b3e59d53d9baea249a5510100586", "name": "Pritam Nagar", "latitude": 25.451169, "longitude": 81.780811, "timestamp": "2025-05-03T03:03:38.680220+00:00Z", "free_bikes": 6, "empty_slots": 6, "extra": {"uid": 595, "ebikes": 0, "number": 8043, "online": true}}, {"id": "6473025361382abae6b85793c7f4fac7", "name": "L3-Holland Hall", "latitude": 25.464517, "longitude": 81.857285, "timestamp": "2025-05-03T03:03:38.679923+00:00Z", "free_bikes": 8, "empty_slots": 4, "extra": {"uid": 359, "ebikes": 0, "number": 8009, "online": true}}, {"id": "680a8ef6514efd309a60dd37e1efc139", "name": "Arail Ghat", "latitude": 25.419742, "longitude": 81.882489, "timestamp": "2025-05-03T03:03:38.680897+00:00Z", "free_bikes": 5, "empty_slots": 10, "extra": {"uid": 630, "ebikes": 0, "number": 8066, "online": true}}, {"id": "75273f4f234d05bac186727e4ae43a4c", "name": "L1-Chandra Shekhar Azad Park Gate No.1", "latitude": 25.454532, "longitude": 81.845319, "timestamp": "2025-05-03T03:03:38.680430+00:00Z", "free_bikes": 6, "empty_slots": 12, "extra": {"uid": 354, "ebikes": 0, "number": 8004, "online": true}}, {"id": "7ebd6f67d2ad9c27637569917b4a1b68", "name": "Chauftka ", "latitude": 25.443072, "longitude": 81.800873, "timestamp": "2025-05-03T03:03:38.680921+00:00Z", "free_bikes": 7, "empty_slots": 11, "extra": {"uid": 590, "ebikes": 0, "number": 8038, "online": true}}, {"id": "811c74b8ed9e4fc4994a2579935c62d1", "name": "Kalyani Devi Mandir", "latitude": 25.431342, "longitude": 81.833333, "timestamp": "2025-05-03T03:03:38.679338+00:00Z", "free_bikes": 3, "empty_slots": 9, "extra": {"uid": 604, "ebikes": 0, "number": 8047, "online": true}}, {"id": "839a4f2627af53dc114991f825ad339c", "name": "Rajju Bhaiya University", "latitude": 25.356899, "longitude": 81.886047, "timestamp": "2025-05-03T03:03:38.679752+00:00Z", "free_bikes": 6, "empty_slots": 9, "extra": {"uid": 651, "ebikes": 0, "number": 8077, "online": true}}, {"id": "84f9cbf618e5a1b0da6a23844ff24294", "name": "CHARTERED BIKE WORKSHOP (Prayagraj)", "latitude": 25.43221, "longitude": 81.795239, "timestamp": "2025-05-03T03:03:38.679410+00:00Z", "free_bikes": 172707, "empty_slots": 0, "extra": {"uid": 343, "ebikes": 0, "number": 8000, "online": true}}, {"id": "8f55aa5f2578477ed58b3d990a79829d", "name": "Rajkiya Hospital Jhushi", "latitude": 25.431343, "longitude": 81.904019, "timestamp": "2025-05-03T03:03:38.679873+00:00Z", "free_bikes": 4, "empty_slots": 11, "extra": {"uid": 612, "ebikes": 0, "number": 8055, "online": true}}, {"id": "981ec47e17a556c0e715a4ae265a587c", "name": "Nyay Nagar", "latitude": 25.428978, "longitude": 81.913652, "timestamp": "2025-05-03T03:03:38.679970+00:00Z", "free_bikes": 7, "empty_slots": 8, "extra": {"uid": 611, "ebikes": 0, "number": 8054, "online": true}}, {"id": "9af43d3b3425145d49e903986be17b05", "name": "Medical Chauraha", "latitude": 25.446828, "longitude": 81.851358, "timestamp": "2025-05-03T03:03:38.680478+00:00Z", "free_bikes": 10, "empty_slots": 5, "extra": {"uid": 631, "ebikes": 0, "number": 8067, "online": true}}, {"id": "9bdfac48a194c25d38bb6ef132f218c0", "name": "Prayagraj Junction City Side", "latitude": 25.444275, "longitude": 81.824431, "timestamp": "2025-05-03T03:03:38.679529+00:00Z", "free_bikes": 8, "empty_slots": 10, "extra": {"uid": 597, "ebikes": 0, "number": 8033, "online": true}}, {"id": "9cfc97078b9075c801e728714b53f6a4", "name": "Phafamau Pani Tanki ", "latitude": 25.525118, "longitude": 81.86106, "timestamp": "2025-05-03T03:03:38.680972+00:00Z", "free_bikes": 5, "empty_slots": 10, "extra": {"uid": 650, "ebikes": 0, "number": 8076, "online": true}}, {"id": "a0f1bfa2a93634b6451390d3a7c1a157", "name": "Rasoolabad", "latitude": 25.49397, "longitude": 81.85592, "timestamp": "2025-05-03T03:03:38.680125+00:00Z", "free_bikes": 7, "empty_slots": 5, "extra": {"uid": 608, "ebikes": 0, "number": 8051, "online": true}}, {"id": "a7009377f70a20def095a733447d4315", "name": "T.B Hospital", "latitude": 25.499118, "longitude": 81.864071, "timestamp": "2025-05-03T03:03:38.679835+00:00Z", "free_bikes": 12, "empty_slots": 3, "extra": {"uid": 633, "ebikes": 0, "number": 8069, "online": true}}, {"id": "a8716129ef910afca0bbd755d38ec9c9", "name": "L1-Motilal Nehru National Institute of Technology", "latitude": 25.494433, "longitude": 81.861457, "timestamp": "2025-05-03T03:03:38.680514+00:00Z", "free_bikes": 11, "empty_slots": 7, "extra": {"uid": 361, "ebikes": 0, "number": 8011, "online": true}}, {"id": "aa4fd594ad7cfc6a4f9b5e32a6111675", "name": "Manmohan Park", "latitude": 25.461794, "longitude": 81.850475, "timestamp": "2025-05-03T03:03:38.680623+00:00Z", "free_bikes": 15, "empty_slots": 0, "extra": {"uid": 648, "ebikes": 0, "number": 8074, "online": true}}, {"id": "b15a7277f246f683a39f3bbcc2a6c626", "name": "L3-Mayo Hall Chauraha", "latitude": 25.461425, "longitude": 81.84195, "timestamp": "2025-05-03T03:03:38.680957+00:00Z", "free_bikes": 13, "empty_slots": 0, "extra": {"uid": 357, "ebikes": 0, "number": 8007, "online": true}}, {"id": "ba13a279869fc467fa01b5cf4df70efe", "name": "Mustafa Complex", "latitude": 25.430484, "longitude": 81.822264, "timestamp": "2025-05-03T03:03:38.680407+00:00Z", "free_bikes": 8, "empty_slots": 4, "extra": {"uid": 602, "ebikes": 0, "number": 8045, "online": true}}, {"id": "bd441aeb8c4eab6ab36b839adce638f4", "name": "Kendriya Vidyalaya ", "latitude": 25.472274, "longitude": 81.683899, "timestamp": "2025-05-03T03:03:38.680007+00:00Z", "free_bikes": 3, "empty_slots": 12, "extra": {"uid": 635, "ebikes": 0, "number": 8071, "online": true}}, {"id": "bd69ab92a8da84c06524ddd2b930edb8", "name": "L3-Mishra Bhavan", "latitude": 25.452247, "longitude": 81.840961, "timestamp": "2025-05-03T03:03:38.680122+00:00Z", "free_bikes": 9, "empty_slots": 3, "extra": {"uid": 353, "ebikes": 0, "number": 8003, "online": true}}, {"id": "c380fe8527a8ddd32e9688a65c1e475e", "name": "Rambagh Railway Station", "latitude": 25.439152, "longitude": 81.848135, "timestamp": "2025-05-03T03:03:38.679797+00:00Z", "free_bikes": 12, "empty_slots": 0, "extra": {"uid": 610, "ebikes": 0, "number": 8053, "online": true}}, {"id": "c5f00243bfc4cc126e42e4144bd96ad5", "name": "L1-Dr. Lohiya Marg", "latitude": 25.460182, "longitude": 81.829833, "timestamp": "2025-05-03T03:03:38.681022+00:00Z", "free_bikes": 8, "empty_slots": 10, "extra": {"uid": 377, "ebikes": 0, "number": 8020, "online": true}}, {"id": "c79741ed2b81847a9c166523948a7064", "name": "Calvin Hospital", "latitude": 25.439222, "longitude": 81.828826, "timestamp": "2025-05-03T03:03:38.680322+00:00Z", "free_bikes": 4, "empty_slots": 8, "extra": {"uid": 616, "ebikes": 0, "number": 8060, "online": true}}, {"id": "cec4b81e5ccba0a89fc090623dcbad6a", "name": "L3-CMP Degree College", "latitude": 25.444539, "longitude": 81.858752, "timestamp": "2025-05-03T03:03:38.680581+00:00Z", "free_bikes": 11, "empty_slots": 1, "extra": {"uid": 373, "ebikes": 0, "number": 8019, "online": true}}, {"id": "cf5e11efc4bee2cf40c1af9648237317", "name": "L2-Cantoment Marriage Hall", "latitude": 25.467551, "longitude": 81.817275, "timestamp": "2025-05-03T03:03:38.681227+00:00Z", "free_bikes": 5, "empty_slots": 10, "extra": {"uid": 376, "ebikes": 0, "number": 8021, "online": true}}, {"id": "d094bbbd6b25bc306deeff708c64bbd0", "name": "L3-Sangam Petrol Pump", "latitude": 25.448936, "longitude": 81.863868, "timestamp": "2025-05-03T03:03:38.679521+00:00Z", "free_bikes": 8, "empty_slots": 4, "extra": {"uid": 362, "ebikes": 0, "number": 8012, "online": true}}, {"id": "d1f8fe76ccad631fb4f219b2992b10f9", "name": "SHIATS", "latitude": 25.413929, "longitude": 81.845346, "timestamp": "2025-05-03T03:03:38.680088+00:00Z", "free_bikes": 9, "empty_slots": 6, "extra": {"uid": 589, "ebikes": 0, "number": 8037, "online": true}}, {"id": "d71a2524b13a3afa07a83454f3977e7f", "name": "L2-Cotton Mill (Naini Road)", "latitude": 25.399817, "longitude": 81.867524, "timestamp": "2025-05-03T03:03:38.680528+00:00Z", "free_bikes": 2, "empty_slots": 13, "extra": {"uid": 385, "ebikes": 0, "number": 8029, "online": true}}, {"id": "d9ab5e4818edfd76d70c641c27172ecc", "name": "L3-Chandra Shekhar Azad Park Gate No,03", "latitude": 25.458233, "longitude": 81.851757, "timestamp": "2025-05-03T03:03:38.680711+00:00Z", "free_bikes": 6, "empty_slots": 6, "extra": {"uid": 345, "ebikes": 0, "number": 8002, "online": true}}, {"id": "d9e0a0aa50bb514c57cddf05197ce311", "name": "L2-Subhash Chauraha", "latitude": 25.450574, "longitude": 81.834377, "timestamp": "2025-05-03T03:03:38.680838+00:00Z", "free_bikes": 4, "empty_slots": 11, "extra": {"uid": 346, "ebikes": 0, "number": 8001, "online": true}}, {"id": "da776809ce91916bb9129c11b5a60479", "name": "Transport Nagar", "latitude": 25.451281, "longitude": 81.766523, "timestamp": "2025-05-03T03:03:38.680496+00:00Z", "free_bikes": 8, "empty_slots": 7, "extra": {"uid": 593, "ebikes": 0, "number": 8041, "online": true}}, {"id": "dbf6436120ad00ebd77798c30b805e8d", "name": "MG Marg", "latitude": 25.44777, "longitude": 81.848622, "timestamp": "2025-05-03T03:03:38.680674+00:00Z", "free_bikes": 6, "empty_slots": 12, "extra": {"uid": 596, "ebikes": 0, "number": 8044, "online": true}}, {"id": "e85997d3439a5ec5eb4b2158c08d3272", "name": "United Engineering college", "latitude": 25.342862, "longitude": 81.897858, "timestamp": "2025-05-03T03:03:38.680287+00:00Z", "free_bikes": 6, "empty_slots": 12, "extra": {"uid": 606, "ebikes": 0, "number": 8049, "online": true}}, {"id": "f4c82aba85acf968ef95f28cb2387ac0", "name": "L3-Alopibagh Tikuniya", "latitude": 25.44168, "longitude": 81.866182, "timestamp": "2025-05-03T03:03:38.679772+00:00Z", "free_bikes": 12, "empty_slots": 0, "extra": {"uid": 386, "ebikes": 0, "number": 8030, "online": true}}, {"id": "f60c6450b9d2c00e85dcd03b1fa4e9b4", "name": "L3-Girls High School and College", "latitude": 25.45338, "longitude": 81.830761, "timestamp": "2025-05-03T03:03:38.681067+00:00Z", "free_bikes": 9, "empty_slots": 3, "extra": {"uid": 356, "ebikes": 0, "number": 8006, "online": true}}, {"id": "f8baf320f5e9e2fc429cf75a488890bd", "name": "L3-Bhardwaj Park", "latitude": 25.457123, "longitude": 81.859142, "timestamp": "2025-05-03T03:03:38.680874+00:00Z", "free_bikes": 8, "empty_slots": 1, "extra": {"uid": 358, "ebikes": 0, "number": 8008, "online": true}}, {"id": "fb621894485998c1e003110c02ca5a65", "name": "L3-Science Faculty Allahabad University", "latitude": 25.461883, "longitude": 81.854228, "timestamp": "2025-05-03T03:03:38.680846+00:00Z", "free_bikes": 6, "empty_slots": 6, "extra": {"uid": 366, "ebikes": 0, "number": 8016, "online": true}}]}