{"id": "ciclopi", "name": "Ciclopi", "location": {"latitude": 43.7228386, "longitude": 10.4016888, "city": "Pisa", "country": "IT"}, "href": "/v2/networks/ciclopi", "company": ["Comunicare S.r.l."], "system": "Bicincitt\u00e0", "source": "https://www.bicincitta.com/frmLeStazioni.aspx?ID=144", "stations": [{"id": "03a43d8cdee15344b4c4afb75d1061f7", "name": "14. Palacongressi", "latitude": 43.71001320663703, "longitude": 10.410232543945312, "timestamp": "2025-05-03T03:03:52.267043+00:00Z", "free_bikes": 5, "empty_slots": 10, "extra": {"uid": "935", "number": 14, "status": "online", "score": 3.3, "reviews": 35}}, {"id": "16d00d46ef262c5b2ac145b24c685cf9", "name": "21. M. Liberta`", "latitude": 43.719864417699746, "longitude": 10.403020969311456, "timestamp": "2025-05-03T03:03:52.267091+00:00Z", "free_bikes": 4, "empty_slots": 6, "extra": {"uid": "1445", "number": 21, "status": "online", "score": 1.9, "reviews": 17}}, {"id": "1fe43dbd4bf8e9627a64dcceb2956e3e", "name": "29. I Passi", "latitude": 43.737217, "longitude": 10.400724, "timestamp": "2025-05-03T03:03:52.267142+00:00Z", "free_bikes": 9, "empty_slots": 5, "extra": {"uid": "1622", "number": 29, "status": "online", "score": 3.5, "reviews": 3}}, {"id": "258304fd491f8abedb20bd246186a80b", "name": "24. CNR", "latitude": 43.71937664670127, "longitude": 10.423707704299204, "timestamp": "2025-05-03T03:03:52.267111+00:00Z", "free_bikes": 2, "empty_slots": 8, "extra": {"uid": "1448", "number": 24, "status": "online", "score": 2.1, "reviews": 16}}, {"id": "27630ac03bdf093d5ab27e21072830d4", "name": "11. Ospedale Cisanello", "latitude": 43.70569076301554, "longitude": 10.441861152648928, "timestamp": "2025-05-03T03:03:52.267024+00:00Z", "free_bikes": 2, "empty_slots": 7, "extra": {"uid": "932", "number": 11, "status": "online", "score": 3.1, "reviews": 22}}, {"id": "406b86f4fbc2e20e3a7862a1d1c8484a", "name": "25. Sesta Porta", "latitude": 43.709172743715676, "longitude": 10.395846200737424, "timestamp": "2025-05-03T03:03:52.267118+00:00Z", "free_bikes": 5, "empty_slots": 6, "extra": {"uid": "1540", "number": 25, "status": "online", "score": 2.1, "reviews": 6}}, {"id": "45f0516668b0af4ebb337d8a728fc688", "name": "10. Pratale", "latitude": 43.721251521991505, "longitude": 10.420242547988892, "timestamp": "2025-05-03T03:03:52.267016+00:00Z", "free_bikes": 2, "empty_slots": 3, "extra": {"uid": "931", "number": 10, "status": "offline", "score": 2.5, "reviews": 55}}, {"id": "46a4ace341b6aaba3054595c17877bdf", "name": "28. Vecchi Macelli", "latitude": 43.7170097, "longitude": 10.3914902, "timestamp": "2025-05-03T03:03:52.267136+00:00Z", "free_bikes": 5, "empty_slots": 5, "extra": {"uid": "1621", "number": 28, "status": "online", "score": 0.5, "reviews": 6}}, {"id": "46d40ab10240c8a90bf297bfcfdd61e0", "name": "05. Borgo Stretto", "latitude": 43.71850756685601, "longitude": 10.402157753705978, "timestamp": "2025-05-03T03:03:52.266982+00:00Z", "free_bikes": 5, "empty_slots": 3, "extra": {"uid": "926", "number": 5, "status": "online", "score": 2.4, "reviews": 108}}, {"id": "4d0079101ac06247f6866d25727181db", "name": "19. Livornese", "latitude": 43.708118345328074, "longitude": 10.384021881753597, "timestamp": "2025-05-03T03:03:52.267077+00:00Z", "free_bikes": 5, "empty_slots": 2, "extra": {"uid": "1443", "number": 19, "status": "online", "score": 2.3, "reviews": 40}}, {"id": "4f986959f72c1860352e4c12ab1a6056", "name": "07. Duomo", "latitude": 43.72288113973688, "longitude": 10.39179127129023, "timestamp": "2025-05-03T03:03:52.266996+00:00Z", "free_bikes": 9, "empty_slots": 3, "extra": {"uid": "928", "number": 7, "status": "online", "score": 2.5, "reviews": 78}}, {"id": "51c29039294aea678ecef517da7d54f8", "name": "37. USL Garibaldi", "latitude": 43.7178706, "longitude": 10.4178235, "timestamp": "2025-05-03T03:03:52.267177+00:00Z", "free_bikes": 3, "empty_slots": 2, "extra": {"uid": "1630", "number": 37, "status": "online", "score": 1.9, "reviews": 5}}, {"id": "6aff30b7d48a9b3422c641976dee3562", "name": "22. Galleria Gerace", "latitude": 43.71081663441501, "longitude": 10.420468790351833, "timestamp": "2025-05-03T03:03:52.267098+00:00Z", "free_bikes": 7, "empty_slots": 2, "extra": {"uid": "1446", "number": 22, "status": "online", "score": 3.6, "reviews": 7}}, {"id": "6d9f5f4a6d63c64f634973f62f977d18", "name": "13. Vittorio Emanuele", "latitude": 43.71017025126551, "longitude": 10.398750007152557, "timestamp": "2025-05-03T03:03:52.267036+00:00Z", "free_bikes": 3, "empty_slots": 8, "extra": {"uid": "934", "number": 13, "status": "online", "score": 3.5, "reviews": 31}}, {"id": "72a4859f021d247cced7c0f1c414cac3", "name": "32. Edificio 6", "latitude": 43.707802906909635, "longitude": 10.44185399921844, "timestamp": "2025-05-03T03:03:52.267147+00:00Z", "free_bikes": 1, "empty_slots": 5, "extra": {"uid": "1625", "number": 32, "status": "online", "score": 1.0, "reviews": 1}}, {"id": "733e27cf7ba718b7d1fba1144f30f7da", "name": "33. Isola Verde", "latitude": 43.7100391, "longitude": 10.4333151, "timestamp": "2025-05-03T03:03:52.267154+00:00Z", "free_bikes": 10, "empty_slots": 0, "extra": {"uid": "1626", "number": 33, "status": "online", "score": 0.6, "reviews": 8}}, {"id": "7468210d602810f587c66d98eea1c296", "name": "06. Polo Marzotto", "latitude": 43.71978699640267, "longitude": 10.407198965549469, "timestamp": "2025-05-03T03:03:52.266989+00:00Z", "free_bikes": 4, "empty_slots": 9, "extra": {"uid": "927", "number": 6, "status": "online", "score": -5.2, "reviews": 333}}, {"id": "7727cb1f67d78c9cb2f11b63ce77149a", "name": "35. Praticelli", "latitude": 43.7192168, "longitude": 10.4275737, "timestamp": "2025-05-03T03:03:52.267166+00:00Z", "free_bikes": 2, "empty_slots": 9, "extra": {"uid": "1628", "number": 35, "status": "online", "score": 3.6, "reviews": 9}}, {"id": "7a54fd6321724f170efbfb1c774e35d7", "name": "36. La Fontina", "latitude": 43.7262394, "longitude": 10.4205777, "timestamp": "2025-05-03T03:03:52.267171+00:00Z", "free_bikes": 2, "empty_slots": 6, "extra": {"uid": "1629", "number": 36, "status": "online", "score": 0.8, "reviews": 4}}, {"id": "7ecb4b896e037cb2d98c5c4c81757592", "name": "26. San Paolo", "latitude": 43.7126409, "longitude": 10.3946354, "timestamp": "2025-05-03T03:03:52.267124+00:00Z", "free_bikes": 5, "empty_slots": 5, "extra": {"uid": "1619", "number": 26, "status": "online", "score": 2.3, "reviews": 2}}, {"id": "815253bd1cb3e7aff11b50c015fb871e", "name": "12. Sms Biblioteca", "latitude": 43.706422, "longitude": 10.4187143, "timestamp": "2025-05-03T03:03:52.267030+00:00Z", "free_bikes": 5, "empty_slots": 5, "extra": {"uid": "933", "number": 12, "status": "online", "score": 3.3, "reviews": 29}}, {"id": "81dd0efd195298c4af07ba3f4a20e92f", "name": "39. San Giusto", "latitude": 43.7023688, "longitude": 10.4001123, "timestamp": "2025-05-03T03:03:52.267183+00:00Z", "free_bikes": 5, "empty_slots": 7, "extra": {"uid": "1632", "number": 39, "status": "online", "score": 4.1, "reviews": 5}}, {"id": "95089a42e326a6446af178cd0a6a7fad", "name": "15. Porta a Lucca", "latitude": 43.724249448743706, "longitude": 10.402196310659065, "timestamp": "2025-05-03T03:03:52.267050+00:00Z", "free_bikes": 8, "empty_slots": 2, "extra": {"uid": "1116", "number": 15, "status": "online", "score": 2.8, "reviews": 39}}, {"id": "965d921ed17bc95b0fb3cb6d140d0912", "name": "16. Solferino", "latitude": 43.71569279104801, "longitude": 10.395006805557273, "timestamp": "2025-05-03T03:03:52.267057+00:00Z", "free_bikes": 6, "empty_slots": 4, "extra": {"uid": "1390", "number": 16, "status": "online", "score": 2.6, "reviews": 19}}, {"id": "99d7c9c37b1b1c64ce2a1f327b651444", "name": "09. Paparelli", "latitude": 43.724455713221055, "longitude": 10.410447120666504, "timestamp": "2025-05-03T03:03:52.267010+00:00Z", "free_bikes": 3, "empty_slots": 10, "extra": {"uid": "930", "number": 9, "status": "online", "score": 3.3, "reviews": 37}}, {"id": "9a211de300a193ad297c8369ce622d04", "name": "08. Pietrasantina", "latitude": 43.729021341163644, "longitude": 10.392712354660034, "timestamp": "2025-05-03T03:03:52.267003+00:00Z", "free_bikes": 8, "empty_slots": 0, "extra": {"uid": "929", "number": 8, "status": "online", "score": 3.7, "reviews": 34}}, {"id": "a3e0171d11aa12f87c6b1fb4ae0069f5", "name": "34. CUS Pisa", "latitude": 43.726234, "longitude": 10.412891, "timestamp": "2025-05-03T03:03:52.267160+00:00Z", "free_bikes": 2, "empty_slots": 7, "extra": {"uid": "1627", "number": 34, "status": "online", "score": 0.6, "reviews": 2}}, {"id": "bd6cedf55bee9270a680cdb9fdb78035", "name": "02. Stazione F.S.", "latitude": 43.708474729164045, "longitude": 10.399020910263062, "timestamp": "2025-05-03T03:03:52.266966+00:00Z", "free_bikes": 14, "empty_slots": 9, "extra": {"uid": "923", "number": 2, "status": "online", "score": 2.4, "reviews": 70}}, {"id": "c515ae6db84e102f8997aa4950f80b5a", "name": "17. San Rossore F.S.", "latitude": 43.722220128128825, "longitude": 10.388224964309757, "timestamp": "2025-05-03T03:03:52.267064+00:00Z", "free_bikes": 8, "empty_slots": 0, "extra": {"uid": "1391", "number": 17, "status": "online", "score": 3.0, "reviews": 38}}, {"id": "cf5245f3dc1ab559003ac1084cf15375", "name": "03. Comune Palazzo Blu", "latitude": 43.715540542144296, "longitude": 10.400466620922089, "timestamp": "2025-05-03T03:03:52.266975+00:00Z", "free_bikes": 5, "empty_slots": 11, "extra": {"uid": "924", "number": 3, "status": "online", "score": 2.5, "reviews": 39}}, {"id": "d606bb7397ca32635fbf50743008439e", "name": "18. Guerrazzi", "latitude": 43.71035298602386, "longitude": 10.405330168647765, "timestamp": "2025-05-03T03:03:52.267070+00:00Z", "free_bikes": 4, "empty_slots": 5, "extra": {"uid": "1392", "number": 18, "status": "online", "score": 2.3, "reviews": 9}}, {"id": "de4ce15157afa551ebe8f1543231bec2", "name": "23. C. Marchesi", "latitude": 43.7149988319841, "longitude": 10.419548502516136, "timestamp": "2025-05-03T03:03:52.267105+00:00Z", "free_bikes": 1, "empty_slots": 6, "extra": {"uid": "1447", "number": 23, "status": "online", "score": 2.9, "reviews": 10}}, {"id": "dfa12d478b989a5423f14454fe479978", "name": "27. CEP", "latitude": 43.7116241, "longitude": 10.3723553, "timestamp": "2025-05-03T03:03:52.267130+00:00Z", "free_bikes": 4, "empty_slots": 6, "extra": {"uid": "1620", "number": 27, "status": "online", "score": 1.0, "reviews": 1}}, {"id": "eb5a2de25be0c2b2109aa43e38b22683", "name": "01. Aeroporto", "latitude": 43.69906947876629, "longitude": 10.399396419852566, "timestamp": "2025-05-03T03:03:52.266943+00:00Z", "free_bikes": 4, "empty_slots": 2, "extra": {"uid": "922", "number": 1, "status": "online", "score": 0.2, "reviews": 1177}}, {"id": "efbee9980490c753f66cec3ff223848a", "name": "20. Cavalieri", "latitude": 43.719862256627756, "longitude": 10.40019726309049, "timestamp": "2025-05-03T03:03:52.267084+00:00Z", "free_bikes": 4, "empty_slots": 8, "extra": {"uid": "1444", "number": 20, "status": "online", "score": -3.9, "reviews": 244}}]}