{"id": "citybike-lima", "name": "CityBike Lima", "location": {"latitude": -12.1209, "longitude": -77.0296, "city": "Lima", "country": "PE"}, "href": "/v2/networks/citybike-lima", "company": ["CityBike Miraflores S.A.C.", "CityBike San Isidro S.A.C", "Fifteen", "Moventia"], "stations": [{"id": "008a35afc6b4060be57b48bf90bec44c", "name": "18027 Ov. Julio Ram\u00f3n Riveyro - Av. Pardo", "latitude": -12.1190126, "longitude": -77.039928, "timestamp": "2025-05-03T03:03:32.990826+00:00Z", "free_bikes": 7, "empty_slots": 7, "extra": {"uid": "2133", "slots": 14}}, {"id": "03367da30caea302b11c838d8b98df55", "name": "18009 Ca. Luis Schereiber Cdra. 2 (C.C. Aurora)", "latitude": -12.122125, "longitude": -77.011506, "timestamp": "2025-05-03T03:03:32.990770+00:00Z", "free_bikes": 9, "empty_slots": 7, "extra": {"uid": "2121", "slots": 16}}, {"id": "06dd87a8b87232577015b1c9a4ba08ed", "name": "18024 Ov. Bolognesi - Ca. Madrid", "latitude": -12.123368, "longitude": -77.035637, "timestamp": "2025-05-03T03:03:32.990816+00:00Z", "free_bikes": 10, "empty_slots": 4, "extra": {"uid": "2081", "slots": 14}}, {"id": "0927eccbf04e2aadd179595c55c52bbe", "name": "18047 Malec\u00f3n Cisneros - Ca. Tr\u00edpoli", "latitude": -12.1250365, "longitude": -77.0373073, "timestamp": "2025-05-03T03:03:32.990888+00:00Z", "free_bikes": 7, "empty_slots": 9, "extra": {"uid": "2094", "slots": 16}}, {"id": "0ac132eb1a147b7b23a753185cbebd1d", "name": "18026 Malec\u00f3n de la Marina - Parque Grau", "latitude": -12.118497, "longitude": -77.045048, "timestamp": "2025-05-03T03:03:32.990823+00:00Z", "free_bikes": 12, "empty_slots": 8, "extra": {"uid": "2151", "slots": 20}}, {"id": "11c5d99df877943158c7e7c693242e26", "name": "18022 Malec\u00f3n de la Reserva - Malec\u00f3n 28 de Julio", "latitude": -12.1283328, "longitude": -77.0353586, "timestamp": "2025-05-03T03:03:32.990810+00:00Z", "free_bikes": 8, "empty_slots": 12, "extra": {"uid": "2108", "slots": 20}}, {"id": "1ff7b00c8a2af2eeb129df70939eb20b", "name": "18034 Ca. Tacna - Av. A. Arambur\u00fa", "latitude": -12.103375, "longitude": -77.029535, "timestamp": "2025-05-03T03:03:32.990848+00:00Z", "free_bikes": 2, "empty_slots": 14, "extra": {"uid": "2086", "slots": 16}}, {"id": "263e9a1c4f245c4070f8c85b88d0f10d", "name": "18021 Av. Armendariz -Av. Larco (Larcomar)", "latitude": -12.13176, "longitude": -77.02971, "timestamp": "2025-05-03T03:03:32.990807+00:00Z", "free_bikes": 20, "empty_slots": 8, "extra": {"uid": "2078", "slots": 28}}, {"id": "3ab2451c995f47035d2b14590753236a", "name": "18018 Av. Nu\u00f1ez de Balboa - Av. Reducto", "latitude": -12.1295502, "longitude": -77.0241593, "timestamp": "2025-05-03T03:03:32.990798+00:00Z", "free_bikes": 10, "empty_slots": 10, "extra": {"uid": "2077", "slots": 20}}, {"id": "3c8e489aaccbcbbe87f59457fe1901d1", "name": "18016 Ca. Manco Capac - Av. Larco", "latitude": -12.1278816, "longitude": -77.0294289, "timestamp": "2025-05-03T03:03:32.990792+00:00Z", "free_bikes": 3, "empty_slots": 13, "extra": {"uid": "2076", "slots": 16}}, {"id": "409c57fe8f27975938e2e0248a4d45bc", "name": "18002 Ca. Oscar R. Benavides - Ov. Miraflores (Parque Kennedy)", "latitude": -12.1197331, "longitude": -77.0290916, "timestamp": "2025-05-03T03:03:32.990748+00:00Z", "free_bikes": 13, "empty_slots": 7, "extra": {"uid": "2106", "slots": 20}}, {"id": "4158a25459abe328f8ab8c32c0db7b6b", "name": "18043 Ca. Mariano Melgar - Ca. Gral. Mendiburu", "latitude": -12.1107703, "longitude": -77.0494, "timestamp": "2025-05-03T03:03:32.990875+00:00Z", "free_bikes": 5, "empty_slots": 11, "extra": {"uid": "2090", "slots": 16}}, {"id": "438d63a7c5cb69db70e9cd6665120d61", "name": "18001 Ca. Oscar R. Benavides - Ca. Schell (Parque Kennedy)", "latitude": -12.122464, "longitude": -77.031208, "timestamp": "2025-05-03T03:03:32.990741+00:00Z", "free_bikes": 16, "empty_slots": 4, "extra": {"uid": "2070", "slots": 20}}, {"id": "439e3845a612d6b0a61506b0ebe52a91", "name": "18004 Av. Ernesto Diez Canseco - Av. Paseo de la Rep\u00fablica", "latitude": -12.1220145, "longitude": -77.0246459, "timestamp": "2025-05-03T03:03:32.990755+00:00Z", "free_bikes": 4, "empty_slots": 8, "extra": {"uid": "2120", "slots": 12}}, {"id": "55c0bf37006a2c06875866c6e9e13156", "name": "18039 Psje. Juana Alarco De Dammert - Ov. Gutierrez", "latitude": -12.110583, "longitude": -77.036259, "timestamp": "2025-05-03T03:03:32.990863+00:00Z", "free_bikes": 11, "empty_slots": 7, "extra": {"uid": "2088", "slots": 18}}, {"id": "57ded81c72e11e6fc644698ee200d750", "name": "18045 Malec\u00f3n de la Marina - Av. Federico Villarreal", "latitude": -12.113541, "longitude": -77.049135, "timestamp": "2025-05-03T03:03:32.990882+00:00Z", "free_bikes": 15, "empty_slots": 5, "extra": {"uid": "2092", "slots": 20}}, {"id": "5b7914e3a19e2d392967c8ff9a1eeb5e", "name": "18010 Ca. Placencia - Av. Benavides", "latitude": -12.127469, "longitude": -77.011515, "timestamp": "2025-05-03T03:03:32.990773+00:00Z", "free_bikes": 10, "empty_slots": 6, "extra": {"uid": "2073", "slots": 16}}, {"id": "6483875f7b7770a47a79c18bb17bc54e", "name": "18036 Ca. Carlos Tenaud - Av. Arequipa", "latitude": -12.108822, "longitude": -77.030403, "timestamp": "2025-05-03T03:03:32.990854+00:00Z", "free_bikes": 3, "empty_slots": 13, "extra": {"uid": "2087", "slots": 16}}, {"id": "66ba95532fd0758049c624f5a08d8e4d", "name": "18007 Ca. Schell - Av. La Paz", "latitude": -12.1232664, "longitude": -77.0268261, "timestamp": "2025-05-03T03:03:32.990764+00:00Z", "free_bikes": 6, "empty_slots": 14, "extra": {"uid": "2131", "slots": 20}}, {"id": "6769076dbc301448af071082f5822f8c", "name": "18040 Ca. Torre Tagle - Parque Piura", "latitude": -12.116439, "longitude": -77.037294, "timestamp": "2025-05-03T03:03:32.990866+00:00Z", "free_bikes": 6, "empty_slots": 6, "extra": {"uid": "2138", "slots": 12}}, {"id": "696787ac674aad03dc56a790f1f9e6ed", "name": "18033 Ca. Scipi\u00f3n Llona Cdra.3", "latitude": -12.107284, "longitude": -77.028261, "timestamp": "2025-05-03T03:03:32.990844+00:00Z", "free_bikes": 6, "empty_slots": 10, "extra": {"uid": "2085", "slots": 16}}, {"id": "6b34990c05dc96c8251a0a369cb69401", "name": "18037 Av. Angamos Oeste - Parque Naciones Unidas", "latitude": -12.110498, "longitude": -77.044991, "timestamp": "2025-05-03T03:03:32.990857+00:00Z", "free_bikes": 7, "empty_slots": 21, "extra": {"uid": "2136", "slots": 28}}, {"id": "6cc6c7fa220969e769d6ade973d20fc4", "name": "18003 Av.Ricardo Palma - Av. La Paz", "latitude": -12.119361, "longitude": -77.026758, "timestamp": "2025-05-03T03:03:32.990751+00:00Z", "free_bikes": 6, "empty_slots": 18, "extra": {"uid": "2130", "slots": 24}}, {"id": "73f1bdfa0b91640c04cf7d4d17ec9bd7", "name": "18017 Ca. Manco Capac - Av. La Paz", "latitude": -12.1289245, "longitude": -77.0269035, "timestamp": "2025-05-03T03:03:32.990795+00:00Z", "free_bikes": 5, "empty_slots": 15, "extra": {"uid": "2124", "slots": 20}}, {"id": "7445571ff483b34f2e41c478e6d83588", "name": "18020 Mlcn. De la Reserva - Av. N. de Balboa (Parque Domodossola)", "latitude": -12.133867, "longitude": -77.028311, "timestamp": "2025-05-03T03:03:32.990804+00:00Z", "free_bikes": 9, "empty_slots": 15, "extra": {"uid": "2126", "slots": 24}}, {"id": "757937ea9bcfaefaef0a20a336c024cf", "name": "18028 Av. Jorge Ch\u00e1vez - Av. Jose Pardo", "latitude": -12.11928, "longitude": -77.03687, "timestamp": "2025-05-03T03:03:32.990829+00:00Z", "free_bikes": 5, "empty_slots": 14, "extra": {"uid": "2019", "slots": 20}}, {"id": "758f33f3320ac4a7aca286cf7e57bef4", "name": "18038 Ca. Gral. Borgo\u00f1o - Ca. Ayacucho", "latitude": -12.111647, "longitude": -77.033347, "timestamp": "2025-05-03T03:03:32.990860+00:00Z", "free_bikes": 6, "empty_slots": 14, "extra": {"uid": "2137", "slots": 20}}, {"id": "8301c7ecad3d99b5e04f03b87ffb8af4", "name": "18023 Ca.BellavistaCdra.5", "latitude": -12.12378, "longitude": -77.033694, "timestamp": "2025-05-03T03:03:32.990813+00:00Z", "free_bikes": 4, "empty_slots": 10, "extra": {"uid": "2149", "slots": 14}}, {"id": "876923a9839232b31d01c19a6af87e6f", "name": "18019 Boulevard Armendariz - Av. La Paz", "latitude": -12.135091, "longitude": -77.024853, "timestamp": "2025-05-03T03:03:32.990801+00:00Z", "free_bikes": 8, "empty_slots": 12, "extra": {"uid": "2125", "slots": 20}}, {"id": "87d95a956d801c0953b6169325661979", "name": "18005 Av. Ricardo Palma - Av. Roca y Bolo\u00f1a ( Pq. Las Tradiciones)", "latitude": -12.12225, "longitude": -77.020597, "timestamp": "2025-05-03T03:03:32.990758+00:00Z", "free_bikes": 4, "empty_slots": 16, "extra": {"uid": "2115", "slots": 20}}, {"id": "88a9e07a36d29cb5801f82cedd2534b4", "name": "18013 Ca. Tejada - Av. 28 de Julio", "latitude": -12.1305704, "longitude": -77.0195018, "timestamp": "2025-05-03T03:03:32.990782+00:00Z", "free_bikes": 6, "empty_slots": 6, "extra": {"uid": "2123", "slots": 12}}, {"id": "92f82729a1aa0e98e16bac393ddaf91b", "name": "18029 Ca. Gral. Recavarren - Av. Jos\u00e9 Pardo", "latitude": -12.119232, "longitude": -77.033696, "timestamp": "2025-05-03T03:03:32.990832+00:00Z", "free_bikes": 3, "empty_slots": 15, "extra": {"uid": "2082", "slots": 18}}, {"id": "9652d392478ec6d31cb23d0a2d22aa30", "name": "18044 Estadio Manuel Bonilla - Malec\u00f3n de la Marina", "latitude": -12.111361, "longitude": -77.051797, "timestamp": "2025-05-03T03:03:32.990879+00:00Z", "free_bikes": 17, "empty_slots": 7, "extra": {"uid": "2091", "slots": 24}}, {"id": "9b481ef2d05f69c2b56ac04ac189cc8d", "name": "18049 Ca. Ignacio Merino - Av. La Mar", "latitude": -12.113362, "longitude": -77.0457856, "timestamp": "2025-05-03T03:03:32.990894+00:00Z", "free_bikes": 7, "empty_slots": 7, "extra": {"uid": "2102", "slots": 14}}, {"id": "a08754c736d95b13253dc6e7ab0a84bf", "name": "18031 Ca. Gonzales Prada - Av. Paseo de la Rep\u00fablica  (Parque Miranda)", "latitude": -12.116391, "longitude": -77.026614, "timestamp": "2025-05-03T03:03:32.990838+00:00Z", "free_bikes": 6, "empty_slots": 11, "extra": {"uid": "2083", "slots": 17}}, {"id": "a1c5bf0bc5ddcdb928871fbb97e89ada", "name": "18041 Ca. Gral. Varela - Av. Angamos Oeste", "latitude": -12.114198, "longitude": -77.038894, "timestamp": "2025-05-03T03:03:32.990869+00:00Z", "free_bikes": 8, "empty_slots": 4, "extra": {"uid": "2139", "slots": 12}}, {"id": "aea4af9a353483a0761b042ca8758636", "name": "18030 Ca. Atahualpa Cdra.6 (Parque Bonilla)", "latitude": -12.1135528, "longitude": -77.0310859, "timestamp": "2025-05-03T03:03:32.990835+00:00Z", "free_bikes": 4, "empty_slots": 12, "extra": {"uid": "2134", "slots": 16}}, {"id": "aeddcf808d428c290c0d523999b4a298", "name": "18006 Av. Rep. de Panam\u00e1 - Av. Gran Mcal. Ram\u00f3n Castilla", "latitude": -12.1219288, "longitude": -77.018143, "timestamp": "2025-05-03T03:03:32.990761+00:00Z", "free_bikes": 15, "empty_slots": 5, "extra": {"uid": "2107", "slots": 20}}, {"id": "b01138adb0102e1f6862bb8ba54b9721", "name": "18014 Ca. Ramon Ribeyro - Av. Benavides", "latitude": -12.1258495, "longitude": -77.0219643, "timestamp": "2025-05-03T03:03:32.990786+00:00Z", "free_bikes": 6, "empty_slots": 18, "extra": {"uid": "2075", "slots": 24}}, {"id": "b167c074941be5e72c84b015140b95ae", "name": "18008 Ca.Lola Pardo - Ca. Mayor Arce de Oliva", "latitude": -12.1193071, "longitude": -77.015962, "timestamp": "2025-05-03T03:03:32.990767+00:00Z", "free_bikes": 0, "empty_slots": 18, "extra": {"uid": "2141", "slots": 18}}, {"id": "bb40d8da8fed6afda3b2ff8f0c59e48d", "name": "18048 Av. Mariscal La Mar - Av. Santa Cruz", "latitude": -12.1170034, "longitude": -77.042041, "timestamp": "2025-05-03T03:03:32.990891+00:00Z", "free_bikes": 9, "empty_slots": 5, "extra": {"uid": "2020", "slots": 14}}, {"id": "c00d815ca6322144c5510d9f9e7121da", "name": "18011 Ca. Germ\u00e1nA.Gom\u00e9z\u00a0- Av.JoseR.Gast\u00f3n", "latitude": -12.126933, "longitude": -77.0092536, "timestamp": "2025-05-03T03:03:32.990776+00:00Z", "free_bikes": 4, "empty_slots": 12, "extra": {"uid": "2146", "slots": 16}}, {"id": "c07eaacbff9bf0e1bc77ee5fd3b14bb9", "name": "18025 Malec\u00f3n Cisneros - (Parque del Faro La Marina)", "latitude": -12.1231563, "longitude": -77.0397424, "timestamp": "2025-05-03T03:03:32.990820+00:00Z", "free_bikes": 6, "empty_slots": 14, "extra": {"uid": "2101", "slots": 20}}, {"id": "c87a72c82867fcd9f59503de195895b3", "name": "18035 Ca. Santander - Av. Santa Cruz", "latitude": -12.105838, "longitude": -77.033209, "timestamp": "2025-05-03T03:03:32.990851+00:00Z", "free_bikes": 3, "empty_slots": 9, "extra": {"uid": "2135", "slots": 12}}, {"id": "dc710115aa6014501e5b457a0b14ef25", "name": "18015 Ca. Bolivar - Ca. Alcanfores", "latitude": -12.1257284, "longitude": -77.02794, "timestamp": "2025-05-03T03:03:32.990789+00:00Z", "free_bikes": 9, "empty_slots": 15, "extra": {"uid": "2147", "slots": 24}}, {"id": "e14ff39be43b5e75c56b2be2606d3a3e", "name": "18042 Ca. Retiro - Av. Angamos Oeste", "latitude": -12.113642, "longitude": -77.040507, "timestamp": "2025-05-03T03:03:32.990872+00:00Z", "free_bikes": 8, "empty_slots": 8, "extra": {"uid": "2089", "slots": 16}}, {"id": "e8c7678be73f7c2febaadc3366c822ac", "name": "18050 Ca. Gral. Borgo\u00f1o - Parque Manuel Solari", "latitude": -12.1153256, "longitude": -77.0332091, "timestamp": "2025-05-03T03:03:32.990897+00:00Z", "free_bikes": 5, "empty_slots": 7, "extra": {"uid": "2140", "slots": 12}}, {"id": "eb0b102f9e9bb933d2194064e70496ad", "name": "18032 Ca. Gral. Suarez - Av .Angamos Oeste", "latitude": -12.113475, "longitude": -77.027247, "timestamp": "2025-05-03T03:03:32.990841+00:00Z", "free_bikes": 1, "empty_slots": 17, "extra": {"uid": "2084", "slots": 18}}, {"id": "edd8ff1ca69c234b86958ec42e3dd651", "name": "18046 Malec\u00f3n de la Marina - Skate Park", "latitude": -12.117261, "longitude": -77.045922, "timestamp": "2025-05-03T03:03:32.990885+00:00Z", "free_bikes": 6, "empty_slots": 10, "extra": {"uid": "2093", "slots": 16}}, {"id": "eff5bc44fad7421819820f56aa6ded68", "name": "18012 Ca. Ignacio La Puente - Av. Benavides", "latitude": -12.126223, "longitude": -77.017232, "timestamp": "2025-05-03T03:03:32.990780+00:00Z", "free_bikes": 9, "empty_slots": 11, "extra": {"uid": "2122", "slots": 20}}]}