{"id": "clujbike", "name": "Cluj Bike", "location": {"latitude": 46.775, "longitude": 23.5975, "city": "Cluj-Napoca", "country": "RO"}, "href": "/v2/networks/clujbike", "company": ["Municipiul Cluj-Napoca"], "system": "Clujbike", "stations": [{"id": "0667191a67d1d6e34e072a0c02db72d9", "name": "Floresti/Somesului", "latitude": 46.7474, "longitude": 23.497829, "timestamp": "2025-05-03T03:03:52.087983+00:00Z", "free_bikes": 0, "empty_slots": 10, "extra": {"address": "Floresti/Somesului, langa stadion", "status": "offline"}}, {"id": "0766b3ce098659d1d9fc18527964a7b2", "name": "Iuliu Hossu", "latitude": 46.769608, "longitude": 23.582917, "timestamp": "2025-05-03T03:03:52.088005+00:00Z", "free_bikes": 5, "empty_slots": 15, "extra": {"address": "Iuliu Hossu - in parc", "status": "online"}}, {"id": "16becbc7cb712249a1e972422e93ac10", "name": "Ion Ratiu", "latitude": 46.768925, "longitude": 23.588016, "timestamp": "2025-05-03T03:03:52.088074+00:00Z", "free_bikes": 6, "empty_slots": 13, "extra": {"address": "Ion Ratiu (straduta mica)", "status": "online"}}, {"id": "1a720866de66ce7d91a7f1fe25af1e57", "name": "Primaverii Gutenberg", "latitude": 46.751581, "longitude": 23.544476, "timestamp": "2025-05-03T03:03:52.088062+00:00Z", "free_bikes": 0, "empty_slots": 9, "extra": {"address": "Primaverii Gutenberg (Clabucet). Capat tramvaie", "status": "offline"}}, {"id": "1e30f045854e3536299cbbecf5571332", "name": "Piata Mihai Viteazul", "latitude": 46.774363, "longitude": 23.592638, "timestamp": "2025-05-03T03:03:52.088095+00:00Z", "free_bikes": 5, "empty_slots": 14, "extra": {"address": "Piata Mihai Viteazul", "status": "online"}}, {"id": "2a85323a3b17a470b848e30c354ff8bb", "name": "Hasdeu", "latitude": 46.7628, "longitude": 23.578261, "timestamp": "2025-05-03T03:03:52.088046+00:00Z", "free_bikes": 7, "empty_slots": 8, "extra": {"address": "Str. Hasdeu", "status": "online"}}, {"id": "2e774752795aa2d477d6d5c046b2e68e", "name": "Piata Detunata", "latitude": 46.767918, "longitude": 23.629864, "timestamp": "2025-05-03T03:03:52.087904+00:00Z", "free_bikes": 5, "empty_slots": 15, "extra": {"address": "Piata Detunata\r\n", "status": "online"}}, {"id": "35dcf702a8bb720ab94d97bd76e29cee", "name": "1 decembrie 1918", "latitude": 46.762822, "longitude": 23.545428, "timestamp": "2025-05-03T03:03:52.088088+00:00Z", "free_bikes": 12, "empty_slots": 26, "extra": {"address": "1 decembrie 1918, dupa pod, SUN", "status": "online"}}, {"id": "3946047fdef568fa06a3eea1726d1337", "name": "Petuniei", "latitude": 46.76948, "longitude": 23.555266, "timestamp": "2025-05-03T03:03:52.088059+00:00Z", "free_bikes": 5, "empty_slots": 13, "extra": {"address": "Str. Petuniei", "status": "online"}}, {"id": "5785a57b09279cd72f0d1f15a3fce2c1", "name": "Piata 14 iulie", "latitude": 46.770733, "longitude": 23.567052, "timestamp": "2025-05-03T03:03:52.087966+00:00Z", "free_bikes": 7, "empty_slots": 13, "extra": {"address": "Piata 14 iulie - la restaurant\r\n", "status": "online"}}, {"id": "60253f2cf2817e8a45049e263bc2d652", "name": "Floresti - Tauti", "latitude": 46.742789, "longitude": 23.502312, "timestamp": "2025-05-03T03:03:52.087963+00:00Z", "free_bikes": 9, "empty_slots": 9, "extra": {"address": "Floresti - Tauti", "status": "offline"}}, {"id": "66b1ee559a451e1131975bfe342598a3", "name": "Splaiul Independetei", "latitude": 46.766998, "longitude": 23.567028, "timestamp": "2025-05-03T03:03:52.088086+00:00Z", "free_bikes": 0, "empty_slots": 40, "extra": {"address": "PE Splaiul Independetei, la sala sporturilor", "status": "offline"}}, {"id": "67800b6be3cf4076fed20414b624df77", "name": "T.Turcului", "latitude": 46.77678, "longitude": 23.561371, "timestamp": "2025-05-03T03:03:52.087916+00:00Z", "free_bikes": 7, "empty_slots": 13, "extra": {"address": "Taietura Turcului", "status": "online"}}, {"id": "6f53f3e03c76bcdb2536c6405ed376ac", "name": "Iulius Mall", "latitude": 46.771519, "longitude": 23.625588, "timestamp": "2025-05-03T03:03:52.088083+00:00Z", "free_bikes": 17, "empty_slots": 21, "extra": {"address": "Iulius Mall, in fata", "status": "online"}}, {"id": "6f5a1162cfedd7e3f41bcf6e9a194507", "name": "Horea - Gara", "latitude": 46.783973, "longitude": 23.587788, "timestamp": "2025-05-03T03:03:52.088065+00:00Z", "free_bikes": 6, "empty_slots": 3, "extra": {"address": "Horea - la Gara", "status": "online"}}, {"id": "7b1b29d1c0caaa071abac0e211ae7a5e", "name": "La Terenuri", "latitude": 46.751584, "longitude": 23.554305, "timestamp": "2025-05-03T03:03:52.088097+00:00Z", "free_bikes": 3, "empty_slots": 13, "extra": {"address": "Manastur - La Terenuri", "status": "offline"}}, {"id": "7f9de877b1401e37309ad799dffb4ce1", "name": "Str Izlazului", "latitude": 46.755111, "longitude": 23.557079, "timestamp": "2025-05-03T03:03:52.087986+00:00Z", "free_bikes": 7, "empty_slots": 12, "extra": {"address": "Str Izlazului intersectie cu Primaverii", "status": "online"}}, {"id": "808af75442fa796fe815f4e08b58649e", "name": "Independentei", "latitude": 46.767023, "longitude": 23.567645, "timestamp": "2025-05-03T03:03:52.088030+00:00Z", "free_bikes": 0, "empty_slots": 18, "extra": {"address": "Independentei", "status": "online"}}, {"id": "863fbfb583056008bb0aaefe07951b8f", "name": "Motilor 7", "latitude": 46.768093, "longitude": 23.584576, "timestamp": "2025-05-03T03:03:52.088092+00:00Z", "free_bikes": 6, "empty_slots": 12, "extra": {"address": "Motilor 7 - la primarie", "status": "online"}}, {"id": "89dd095393ec9f69943f84ebdafd5685", "name": "Str Miraslau", "latitude": 46.766268, "longitude": 23.550334, "timestamp": "2025-05-03T03:03:52.087944+00:00Z", "free_bikes": 15, "empty_slots": 4, "extra": {"address": "Str Miraslau", "status": "online"}}, {"id": "8c17f49d9074fd9a19a458660a74e123", "name": "Stefan cel Mare", "latitude": 46.769608, "longitude": 23.597431, "timestamp": "2025-05-03T03:03:52.087980+00:00Z", "free_bikes": 5, "empty_slots": 15, "extra": {"address": "Stefan cel Mare, la opera, in parc", "status": "online"}}, {"id": "8cf9eacd3df4460d14f5340aff69099b", "name": "Fabricii", "latitude": 46.781058, "longitude": 23.613891, "timestamp": "2025-05-03T03:03:52.088077+00:00Z", "free_bikes": 7, "empty_slots": 3, "extra": {"address": "Fabricii  - Kaufland", "status": "online"}}, {"id": "8e06e084596931d66380c4c409515ac2", "name": "Floresti - Primarie", "latitude": 46.742305, "longitude": 23.485727, "timestamp": "2025-05-03T03:03:52.088042+00:00Z", "free_bikes": 1, "empty_slots": 18, "extra": {"address": "Floresti - La Primarie", "status": "offline"}}, {"id": "965982efe652b753047be0d1aef136aa", "name": "Emil Isac", "latitude": 46.772222, "longitude": 23.584211, "timestamp": "2025-05-03T03:03:52.087951+00:00Z", "free_bikes": 2, "empty_slots": 16, "extra": {"address": "Emil Isac", "status": "online"}}, {"id": "96a75a06b8e14d9a90996f24955d6e71", "name": "Dragalina", "latitude": 46.77234, "longitude": 23.581734, "timestamp": "2025-05-03T03:03:52.088068+00:00Z", "free_bikes": 0, "empty_slots": 10, "extra": {"address": "Str. Dragalina, la bifurcatie", "status": "offline"}}, {"id": "97c7249a08b51f439583872e6692d6a4", "name": "Horea - Baritiu", "latitude": 46.774025, "longitude": 23.588062, "timestamp": "2025-05-03T03:03:52.088033+00:00Z", "free_bikes": 12, "empty_slots": 8, "extra": {"address": "Str Horea - Baritiu", "status": "online"}}, {"id": "991f40aad9004033802c17b6450170ed", "name": "Apahida Victoria", "latitude": 46.7923, "longitude": 23.743112, "timestamp": "2025-05-03T03:03:52.087970+00:00Z", "free_bikes": 0, "empty_slots": 18, "extra": {"address": "Apahida - La Motel Victoria", "status": "offline"}}, {"id": "997c7f0315c03e65f203dc3bcf2be278", "name": "Constantin Brancusi", "latitude": 46.767507, "longitude": 23.601352, "timestamp": "2025-05-03T03:03:52.088009+00:00Z", "free_bikes": 2, "empty_slots": 17, "extra": {"address": "Constantin Brancusi", "status": "online"}}, {"id": "9a56c2eb2bd51e83fe5ca0ae1f6b3ec6", "name": "21 decembrie BRD", "latitude": 46.776449, "longitude": 23.606762, "timestamp": "2025-05-03T03:03:52.088049+00:00Z", "free_bikes": 10, "empty_slots": 9, "extra": {"address": "21 decembrie 1989, la BRD", "status": "online"}}, {"id": "9aae22d8d4a33b7662c7ac22b3490f7e", "name": "Piata Abator", "latitude": 46.779954, "longitude": 23.595671, "timestamp": "2025-05-03T03:03:52.087912+00:00Z", "free_bikes": 6, "empty_slots": 13, "extra": {"address": "Piata Abator", "status": "online"}}, {"id": "9ac8b79dd83879776490ab23f6c698a0", "name": "G.Cosbuc", "latitude": 46.76862, "longitude": 23.574637, "timestamp": "2025-05-03T03:03:52.088090+00:00Z", "free_bikes": 9, "empty_slots": 11, "extra": {"address": "G.Cosbuc - La stadion", "status": "online"}}, {"id": "9f5563c76c64dada5ad8e3a42d2f2dca", "name": "Maramuresului", "latitude": 46.790105, "longitude": 23.58357, "timestamp": "2025-05-03T03:03:52.088071+00:00Z", "free_bikes": 8, "empty_slots": 10, "extra": {"address": "str. Maramuresului, colt cu nicolae telcu", "status": "online"}}, {"id": "ab79ee293166aa9f8e7f3042e4e52d0b", "name": "B-Dul Muncii", "latitude": 46.795884, "longitude": 23.636194, "timestamp": "2025-05-03T03:03:52.087955+00:00Z", "free_bikes": 6, "empty_slots": 14, "extra": {"address": "B-Dul Muncii - La Fabory", "status": "online"}}, {"id": "acdc5e30019ebce7805ededce76c0eee", "name": "Titulescu", "latitude": 46.769232, "longitude": 23.617327, "timestamp": "2025-05-03T03:03:52.088036+00:00Z", "free_bikes": 12, "empty_slots": 5, "extra": {"address": "Str Titulescu, langa biserica", "status": "online"}}, {"id": "b1d7d2aa1a55cd70bfd61fdd41fea837", "name": "Aeroport", "latitude": 46.7818, "longitude": 23.68153, "timestamp": "2025-05-03T03:03:52.088099+00:00Z", "free_bikes": 9, "empty_slots": 11, "extra": {"address": "a111", "status": "online"}}, {"id": "b3344ab8909d2186b03a6d9054d8e8a8", "name": "Gh. Dima", "latitude": 46.75259, "longitude": 23.57755, "timestamp": "2025-05-03T03:03:52.088016+00:00Z", "free_bikes": 0, "empty_slots": 1, "extra": {"address": "Gh. Dima", "status": "offline"}}, {"id": "c4d5d40d1b3f4a218b804b926d8df7f9", "name": "Biblioteca Centrala", "latitude": 46.777037, "longitude": 23.615109, "timestamp": "2025-05-03T03:03:52.087892+00:00Z", "free_bikes": 9, "empty_slots": 8, "extra": {"address": "Biblioteca Jude\u021bean\u0103 Octavian Goga", "status": "online"}}, {"id": "c63c0a17494f613e989601c03ff94753", "name": "Apahida (la primarie)", "latitude": 46.804635, "longitude": 23.752302, "timestamp": "2025-05-03T03:03:52.088039+00:00Z", "free_bikes": 0, "empty_slots": 17, "extra": {"address": "Apahida (la primarie)", "status": "offline"}}, {"id": "c79a2ed802cddb0b97ec2e958e93c22e", "name": "Babes B", "latitude": 46.767485, "longitude": 23.591146, "timestamp": "2025-05-03T03:03:52.088023+00:00Z", "free_bikes": 0, "empty_slots": 20, "extra": {"address": "Babes B", "status": "offline"}}, {"id": "c82b8dc2464ae4770f73eb9fb9eddc64", "name": "21 decembrie", "latitude": 46.77797, "longitude": 23.611837, "timestamp": "2025-05-03T03:03:52.088056+00:00Z", "free_bikes": 14, "empty_slots": 5, "extra": {"address": "21 decembrie 1989, vis-a-vis Piata Marasti", "status": "online"}}, {"id": "cb7dbe358518a100a38e92c2ef0f31de", "name": "Str Fabricii de zahar", "latitude": 46.782735, "longitude": 23.621839, "timestamp": "2025-05-03T03:03:52.087977+00:00Z", "free_bikes": 9, "empty_slots": 11, "extra": {"address": "Str Fabricii de zahar, la camin", "status": "online"}}, {"id": "d4badd54f1e9dddc3bb589291397464b", "name": "Aurel Vlaicu", "latitude": 46.778815, "longitude": 23.615914, "timestamp": "2025-05-03T03:03:52.087959+00:00Z", "free_bikes": 7, "empty_slots": 12, "extra": {"address": "Aurel Vlaicu - l\u00e2ng\u0103 CEC ( l\u00e2ng\u0103 Vam\u0103 )", "status": "online"}}, {"id": "db91a3b815578908a73c807bd231c558", "name": "Kogalniceanu", "latitude": 46.767837, "longitude": 23.594083, "timestamp": "2025-05-03T03:03:52.088027+00:00Z", "free_bikes": 0, "empty_slots": 20, "extra": {"address": "Kogalniceanu", "status": "offline"}}, {"id": "dfe237d25b5ff8e04e970fda1b4db232", "name": "Calea Motilor", "latitude": 46.764446, "longitude": 23.574624, "timestamp": "2025-05-03T03:03:52.088019+00:00Z", "free_bikes": 8, "empty_slots": 5, "extra": {"address": "Calea Motilor", "status": "online"}}, {"id": "e058d1d721eda2e8179f3140addd2eff", "name": "Horea - Roth", "latitude": 46.775865, "longitude": 23.587104, "timestamp": "2025-05-03T03:03:52.087991+00:00Z", "free_bikes": 5, "empty_slots": 15, "extra": {"address": "Str Horea(roth)", "status": "online"}}, {"id": "e0f790216a7305a1354ad59571cf6d5e", "name": "Apahida Agrotransilvania", "latitude": 46.780511, "longitude": 23.704142, "timestamp": "2025-05-03T03:03:52.087994+00:00Z", "free_bikes": 0, "empty_slots": 16, "extra": {"address": "Apahida 2 - Piata Agrotransilvania", "status": "offline"}}, {"id": "e2ea7bd42c850f57fe7ca3945b35490c", "name": "Observatorului MOL", "latitude": 46.754602, "longitude": 23.585543, "timestamp": "2025-05-03T03:03:52.088080+00:00Z", "free_bikes": 30, "empty_slots": 9, "extra": {"address": "Observatorului, la MOL", "status": "online"}}, {"id": "ee3c54860a329cfac1d730eae9071d04", "name": "Observatorului LDL", "latitude": 46.755642, "longitude": 23.594869, "timestamp": "2025-05-03T03:03:52.087973+00:00Z", "free_bikes": 7, "empty_slots": 13, "extra": {"address": "Observatorului, la LDL", "status": "online"}}, {"id": "f065ec375248ff5b21076dc683d3f065", "name": "Floresti - Polus", "latitude": 46.753985, "longitude": 23.534431, "timestamp": "2025-05-03T03:03:52.088000+00:00Z", "free_bikes": 1, "empty_slots": 12, "extra": {"address": "Floresti - La  Polus Center\r\nIn spate la Bosch", "status": "offline"}}, {"id": "f0d52599f96af36e96390fa6ce4207fb", "name": "Calea Floresti", "latitude": 46.757572, "longitude": 23.545917, "timestamp": "2025-05-03T03:03:52.087908+00:00Z", "free_bikes": 4, "empty_slots": 16, "extra": {"address": "Calea Floresti", "status": "online"}}, {"id": "f4169ef2529abf9fb73b4faaaaec7e8a", "name": "Piata Ion Agarbiceanu", "latitude": 46.762024, "longitude": 23.606223, "timestamp": "2025-05-03T03:03:52.088013+00:00Z", "free_bikes": 8, "empty_slots": 11, "extra": {"address": "Piata Ion Agarbiceanu, la taxi", "status": "online"}}, {"id": "f6e460718cde9e2c1cd17c82289519d1", "name": "Pasteur", "latitude": 46.758662, "longitude": 23.583945, "timestamp": "2025-05-03T03:03:52.088052+00:00Z", "free_bikes": 5, "empty_slots": 5, "extra": {"address": "Str Pasteur", "status": "online"}}]}