{"id": "cyclopolis-chania", "name": "Cyclopolis", "location": {"latitude": 35.5148425, "longitude": 24.0177549, "city": "Chania", "country": "GR"}, "href": "/v2/networks/cyclopolis-chania", "company": ["Cyclopolis Systems"], "system": "Cyclopolis", "stations": [{"id": "38f7327a80d0155db4e23bf66318494d", "name": "Defkalionos", "latitude": 35.51859704591695, "longitude": 24.023825562763424, "timestamp": "2025-05-03T03:03:57.658299+00:00Z", "free_bikes": 0, "empty_slots": 7, "extra": {"uid": "4cfd6a42-34b1-4381-b61f-880eb8d0ce17", "is_renting": true, "is_returning": true, "online": true}}, {"id": "6b3ad34d8e4c7582c58726361d4d2222", "name": "Parko Markopoulou", "latitude": 35.50678929797445, "longitude": 24.02732537314421, "timestamp": "2025-05-03T03:03:57.658315+00:00Z", "free_bikes": 0, "empty_slots": 8, "extra": {"uid": "a7717245-08e8-44af-a77e-14bca5b519d0", "is_renting": false, "is_returning": false, "online": false}}, {"id": "6c05f09680a93b1f3674856b1bd62dcb", "name": "Parking Kydon", "latitude": 35.51165462402704, "longitude": 24.02025730358849, "timestamp": "2025-05-03T03:03:57.658320+00:00Z", "free_bikes": 0, "empty_slots": 5, "extra": {"uid": "0c7d6aed-9a38-410f-8eb8-13e03e508aa3", "is_renting": false, "is_returning": false, "online": false}}, {"id": "b9bdd5b552624df098a02dfbca3ffb0b", "name": "Regina", "latitude": 35.51497304874151, "longitude": 24.02380558957165, "timestamp": "2025-05-03T03:03:57.658309+00:00Z", "free_bikes": 0, "empty_slots": 7, "extra": {"uid": "f93c1781-eb69-43b0-9838-37566aaf0e1a", "is_renting": true, "is_returning": true, "online": true}}]}