{"id": "cykl", "name": "Cykl", "location": {"latitude": 51.974, "longitude": 5.6671, "city": "Wageningen", "country": "NL"}, "href": "/v2/networks/cykl", "company": ["Open Source Bike Share"], "system": "OpenSourceBikeShare", "stations": [{"id": "023150d824838cb4e01679e46ceaab9f", "name": "Haarweg", "latitude": 51.96647, "longitude": 5.64897, "timestamp": "2025-05-03T03:03:40.106905+00:00Z", "free_bikes": 0, "empty_slots": null, "extra": {"uid": 2, "photo": "img/uploads/haarweg.JPG", "description": "Bikes should be parked in front of the building displayed on the map (131-227)."}}, {"id": "1ea315e92dfd33d9ab1ffb5af8afa779", "name": "Cantil", "latitude": 51.97017, "longitude": 5.66765, "timestamp": "2025-05-03T03:03:40.106894+00:00Z", "free_bikes": 4, "empty_slots": null, "extra": {"uid": 12, "photo": "img/uploads/cantil.JPG", "description": "Bikes should be parked next to the KSV Franciscus building (see photo)."}}, {"id": "1fb9ab64591073f511c67e9c5beddbbd", "name": "Nieuwe Kanaal", "latitude": 51.97483, "longitude": 5.64977, "timestamp": "2025-05-03T03:03:40.106917+00:00Z", "free_bikes": 1, "empty_slots": null, "extra": {"uid": 332, "photo": "img/uploads/nieuwe_kanaal.jpg", "description": "Bikes should be parked in the racks next to the latern post opposite to the entrance at the Northern side of the building."}}, {"id": "2399b2389c61a6f93c871018e9534c4e", "name": "Dijkgraaf", "latitude": 51.98078, "longitude": 5.65658, "timestamp": "2025-05-03T03:03:40.106897+00:00Z", "free_bikes": 3, "empty_slots": null, "extra": {"uid": 9, "photo": "img/uploads/dijkgraaf.JPG", "description": "Bikes should be parked next to the tree, as seen in the picture."}}, {"id": "2f583602e1ebf95355951903e55da22a", "name": "Orion", "latitude": 51.9851, "longitude": 5.66771, "timestamp": "2025-05-03T03:03:40.106920+00:00Z", "free_bikes": 0, "empty_slots": null, "extra": {"uid": 27, "photo": "img/uploads/WUR_orion.JPG", "description": "Bikes should be parked in the southeastern corner of the bike parking."}}, {"id": "2f77c7c29c4d895451d40aebd97e93e8", "name": "Duivendaal", "latitude": 51.96672, "longitude": 5.65954, "timestamp": "2025-05-03T03:03:40.106899+00:00Z", "free_bikes": 1, "empty_slots": null, "extra": {"uid": 7, "photo": "img/uploads/duivendaal.JPG", "description": "Bikes should be parked at the end of the bicycle racks (as seen from the Duivendaal building)."}}, {"id": "48f72ee27b0dc9411ae98c682516b16f", "name": "Atlas", "latitude": 51.9865, "longitude": 5.66634, "timestamp": "2025-05-03T03:03:40.106883+00:00Z", "free_bikes": 1, "empty_slots": null, "extra": {"uid": 3, "photo": "img/uploads/WUR_atlas.JPG", "description": "Bikes should be parked at the the racks closest to Forum."}}, {"id": "550c6d81fb49c6e0c1fe21a8087224e1", "name": "Marijkeweg 20", "latitude": 51.969751, "longitude": 5.654003, "timestamp": "2025-05-03T03:03:40.106911+00:00Z", "free_bikes": 2, "empty_slots": null, "extra": {"uid": 355, "photo": "img/uploads/marijkeweg20.jpg", "description": "Bikes should be parked in the metal bike stands outside the building."}}, {"id": "5ffcf018048c8f0f23baf25a8d984d25", "name": "Forum", "latitude": 51.98529, "longitude": 5.66453, "timestamp": "2025-05-03T03:03:40.106902+00:00Z", "free_bikes": 2, "empty_slots": null, "extra": {"uid": 28, "photo": "img/uploads/WUR_forum.JPG", "description": "Bikes should be parked at the eastern side of Forum, in the racks closest the Orion."}}, {"id": "613bb967bb1f93863a9c3f26f042fa24", "name": "Mouterij", "latitude": 51.97363, "longitude": 5.67269, "timestamp": "2025-05-03T03:03:40.106914+00:00Z", "free_bikes": 0, "empty_slots": null, "extra": {"uid": 345, "photo": "img/uploads/mouterij.jpg", "description": "Bikes should be parked on the Northern side of the building, in the racks opposite to Aldi, close to the bus stop."}}, {"id": "e62ed1a08f427d761a45d24d9c5c0e92", "name": "Campus Plaza", "latitude": 51.98331, "longitude": 5.66368, "timestamp": "2025-05-03T03:03:40.106891+00:00Z", "free_bikes": 5, "empty_slots": null, "extra": {"uid": 29, "photo": "img/uploads/campusplaza.JPG", "description": "Bikes should be parked in the racks opposite to Subway."}}, {"id": "e6aa058172f4745e048796165310ed92", "name": "Hoevestein", "latitude": 51.98172, "longitude": 5.67188, "timestamp": "2025-05-03T03:03:40.106907+00:00Z", "free_bikes": 1, "empty_slots": null, "extra": {"uid": 1, "photo": "img/uploads/hoevestein.JPG", "description": "Bikes should be parked in the racks on the western side of the building opposite to the blue doors."}}]}