{"id": "dcs-bike", "name": "DCS Bike", "location": {"latitude": 49.5346, "longitude": 8.47004, "city": "Mannheim", "country": "DE"}, "href": "/v2/networks/dcs-bike", "company": ["Nextbike GmbH"], "system": "Nextbike", "stations": [{"id": "0bed9d152323c89470ee0044adc5689e", "name": "Geb\u00e4ude 470i", "latitude": 49.52892, "longitude": 8.477808, "timestamp": "2025-05-03T03:03:48.764662+00:00Z", "free_bikes": 8, "empty_slots": null, "extra": {"uid": "371360787", "number": "25759", "bike_uids": ["439909", "439916", "439918", "439912", "439919", "439911", "439914", "439913"], "virtual": true}}, {"id": "2fbc9b53eba1bb965ebef24cea1c1a19", "name": "Tor 4", "latitude": 49.531058, "longitude": 8.480131, "timestamp": "2025-05-03T03:03:48.764639+00:00Z", "free_bikes": 7, "empty_slots": null, "extra": {"uid": "371360661", "number": "25758", "bike_uids": ["439906", "439901", "439942", "439945", "439943", "439948", "439934"], "virtual": true}}, {"id": "5a0535bdd41f40c5d6891589eb8ab952", "name": "DCS - Geb\u00e4ude", "latitude": 49.53432, "longitude": 8.47748, "timestamp": "2025-05-03T03:03:48.764548+00:00Z", "free_bikes": 11, "empty_slots": null, "extra": {"uid": "146886887", "number": "25756", "bike_uids": ["439936", "439929", "439932", "439927", "439944", "439920", "439937", "439917", "439900", "439938", "439933"], "virtual": true}}, {"id": "76c84d07e0a9fe04e3d976f6eaed19cf", "name": "Tor 1", "latitude": 49.529589, "longitude": 8.468732, "timestamp": "2025-05-03T03:03:48.764615+00:00Z", "free_bikes": 11, "empty_slots": null, "extra": {"uid": "371360481", "number": "25757", "bike_uids": ["439903", "439904", "439923", "439940", "439922", "439941", "439946", "439947", "439939", "439949", "439935"], "virtual": true}}, {"id": "980227b91afce56dc4cf0556361a6964", "name": "Casino", "latitude": 49.531354, "longitude": 8.474364, "timestamp": "2025-05-03T03:03:48.764590+00:00Z", "free_bikes": 11, "empty_slots": null, "extra": {"uid": "146887647", "number": "25755", "bike_uids": ["439907", "439905", "439908", "439902", "439924", "439925", "439926", "439930", "439915", "439931", "439928"], "virtual": true}}]}