{"id": "denver", "name": "Lyft", "location": {"latitude": 39.72055, "longitude": -104.95253, "city": "Denver, CO", "country": "US"}, "href": "/v2/networks/denver", "company": ["Lyft Inc."], "gbfs_href": "https://s3.amazonaws.com/lyft-lastmile-production-iad/lbs/den/gbfs.json", "stations": [{"id": "030536fa9f5cd5757a32ac8aeeb67418", "name": "27th St at Welton St", "latitude": 39.754741, "longitude": -104.97793, "timestamp": "2025-05-03T02:54:41.799133+00:00Z", "free_bikes": 0, "empty_slots": 16, "extra": {"uid": "1749932062176305762", "renting": 1, "returning": 1, "last_updated": 1675103437, "address": "27th Street, Five Points, Denver, Colorado, 80205, United States", "has_ebikes": true, "ebikes": 0, "slots": 16, "virtual": false}}, {"id": "0629e31baf184d9c9e0897c714d31bae", "name": "18th St at Wynkoop St", "latitude": 39.7537028, "longitude": -104.9983586, "timestamp": "2025-05-03T02:54:41.799074+00:00Z", "free_bikes": 0, "empty_slots": 16, "extra": {"uid": "1807101524754111232", "renting": 1, "returning": 1, "last_updated": 1683052790, "address": "1691 18th St, Denver, CO 80202, United States", "has_ebikes": true, "ebikes": 0, "slots": 16, "virtual": false}}, {"id": "074fc3826f1c244ac54dcb25c082eab9", "name": "Champa St at 17th St", "latitude": 39.747395, "longitude": -104.992955, "timestamp": "2025-05-03T02:54:41.798346+00:00Z", "free_bikes": 0, "empty_slots": 16, "extra": {"uid": "1829027261868901166", "renting": 1, "returning": 1, "last_updated": 1688157667, "address": "1690 Champa St, Denver, CO 80202, United States", "has_ebikes": true, "ebikes": 0, "slots": 16, "virtual": false}}, {"id": "0e3de49ee7950071460c7e5a2e573f78", "name": "18th St at Wazee St", "latitude": 39.75296271, "longitude": -104.9974017, "timestamp": "2025-05-03T02:54:41.798545+00:00Z", "free_bikes": 0, "empty_slots": 6, "extra": {"uid": "1812614210297193140", "renting": 1, "returning": 1, "last_updated": 1684336218, "address": "1578 18th St, Denver, CO 80202, United States", "has_ebikes": true, "ebikes": 0, "slots": 16, "virtual": false}}, {"id": "128b23eba4ad13d9da33d1b59c04e601", "name": "25th St at Larimer St", "latitude": 39.757547, "longitude": -104.986402, "timestamp": "2025-05-03T02:54:41.798553+00:00Z", "free_bikes": 1, "empty_slots": 15, "extra": {"uid": "1749637951882008770", "renting": 1, "returning": 1, "last_updated": 1675103850, "address": "Ramble Hotel, 1280, 25th Street, Five Points, Denver, Colorado, 80205, United States", "has_ebikes": true, "ebikes": 1, "slots": 16, "virtual": false}}, {"id": "16e67448baf56dfea065ea9744415b24", "name": "Erie St at Tejon St", "latitude": 39.760678, "longitude": -105.0110208, "timestamp": "2025-05-03T02:54:41.798560+00:00Z", "free_bikes": 0, "empty_slots": 14, "extra": {"uid": "1757830812693631036", "renting": 1, "returning": 1, "last_updated": 1675101186, "address": "Erie Street, Highland, Denver, Colorado, 80211, United States", "has_ebikes": true, "ebikes": 0, "slots": 16, "virtual": false}}, {"id": "19c9a3b10e84b41e7b8846912475ca88", "name": "35th St at Larimer St", "latitude": 39.7668946, "longitude": -104.9743533, "timestamp": "2025-05-03T02:54:41.799066+00:00Z", "free_bikes": 0, "empty_slots": 14, "extra": {"uid": "1738167316169392464", "renting": 1, "returning": 1, "last_updated": 1675104169, "address": "Link 35, 1220, 35th Street, Five Points, Denver, Colorado, 80205, United States", "has_ebikes": true, "ebikes": 0, "slots": 16, "virtual": false}}, {"id": "1c779f69bd086815026c864f9b6382a3", "name": "W 14th Ave at Fox St", "latitude": 39.7384434, "longitude": -104.9956133, "timestamp": "2025-05-03T02:54:41.798430+00:00Z", "free_bikes": 0, "empty_slots": 16, "extra": {"uid": "1754825615368931928", "renting": 1, "returning": 1, "last_updated": 1675101950, "address": "West 14th Avenue & Galapago Street, West 14th Avenue, Golden Triangle, Denver, Colorado, 80293, United States", "has_ebikes": true, "ebikes": 0, "slots": 16, "virtual": false}}, {"id": "1ebcdaf14ad5002ebf519de16fcb34b4", "name": "26th St at Welton St", "latitude": 39.7539262, "longitude": -104.9794034, "timestamp": "2025-05-03T02:54:41.798976+00:00Z", "free_bikes": 0, "empty_slots": 16, "extra": {"uid": "1732922674616686718", "renting": 1, "returning": 1, "last_updated": 1675103349, "address": "605, 26th Street, Five Points, Denver, Colorado, 80205, United States", "has_ebikes": true, "ebikes": 0, "slots": 16, "virtual": false}}, {"id": "1ee01de01afa9c00aad8193f0d0bc72f", "name": "Brighton Blvd at 29th St", "latitude": 39.7643291, "longitude": -104.9867745, "timestamp": "2025-05-03T02:54:41.798998+00:00Z", "free_bikes": 0, "empty_slots": 10, "extra": {"uid": "1797574762207008916", "renting": 1, "returning": 1, "last_updated": 1680834535, "address": "1802 W 29th St, Denver, CO 80216, United States", "has_ebikes": true, "ebikes": 0, "slots": 16, "virtual": false}}, {"id": "24f0434bd2de0e6ca6712f1d7624fcd9", "name": "15th St at Curtis St", "latitude": 39.7465564, "longitude": -104.9958241, "timestamp": "2025-05-03T02:54:41.799118+00:00Z", "free_bikes": 7, "empty_slots": 9, "extra": {"uid": "1675806320458381748", "renting": 1, "returning": 1, "last_updated": 1675101875, "address": "1500, Curtis Street, Central Business District, Denver, Colorado, 80202, United States", "has_ebikes": true, "ebikes": 7, "slots": 16, "virtual": false}}, {"id": "257ca1b23d20bd06030721fbb80187df", "name": "Tremont Pl at Park Ave W", "latitude": 39.7501737, "longitude": -104.9804304, "timestamp": "2025-05-03T02:54:41.798961+00:00Z", "free_bikes": 2, "empty_slots": 13, "extra": {"uid": "1754825768375845782", "renting": 1, "returning": 1, "last_updated": 1680286354, "address": "2337, Tremont Place, Five Points, Denver, Colorado, 80205, United States", "has_ebikes": true, "ebikes": 2, "slots": 16, "virtual": false}}, {"id": "2d0ac38f1039061890521c0cd9062940", "name": "Wewatta St at 17th St", "latitude": 39.754198, "longitude": -105.001257, "timestamp": "2025-05-03T02:54:41.799125+00:00Z", "free_bikes": 4, "empty_slots": 11, "extra": {"uid": "1675806324753349048", "renting": 1, "returning": 1, "last_updated": 1675101444, "address": "Wewatta Pavilion, 17th Street Gardens, Union Station, Denver, Colorado, 80202, United States", "has_ebikes": true, "ebikes": 4, "slots": 16, "virtual": false}}, {"id": "2d2d74b1e8339afafaa53822e5ec163c", "name": "W 30th Ave at Zuni St", "latitude": 39.7596819, "longitude": -105.0156723, "timestamp": "2025-05-03T02:54:41.798374+00:00Z", "free_bikes": 0, "empty_slots": 14, "extra": {"uid": "1753730839683391724", "renting": 1, "returning": 1, "last_updated": 1675101124, "address": "2323, West 30th Avenue, Highland, Denver, Colorado, 80211, United States", "has_ebikes": true, "ebikes": 0, "slots": 16, "virtual": false}}, {"id": "2fb9700bc2a89195aceb35c0275c1f77", "name": "Glenarm Pl at 14th St", "latitude": 39.7418668, "longitude": -104.9929222, "timestamp": "2025-05-03T02:54:41.798969+00:00Z", "free_bikes": 0, "empty_slots": 15, "extra": {"uid": "1795242324168030636", "renting": 1, "returning": 1, "last_updated": 1680291522, "address": "1350 Glenarm Pl, Denver, CO 80204, United States", "has_ebikes": true, "ebikes": 0, "slots": 16, "virtual": false}}, {"id": "3156ac7b763fa1376000aae838995143", "name": "Lawrence St at 17th St ", "latitude": 39.7496126, "longitude": -104.995105, "timestamp": "2025-05-03T02:54:41.798515+00:00Z", "free_bikes": 1, "empty_slots": 12, "extra": {"uid": "1843098656021065950", "renting": 1, "returning": 1, "last_updated": 1691433925, "address": "1125 17th St, Denver, CO 80202, United States", "has_ebikes": true, "ebikes": 1, "slots": 16, "virtual": false}}, {"id": "32bab8a84c818dacd2907ef1d2104fee", "name": "Blake St at 22nd", "latitude": 39.75642, "longitude": -104.99201, "timestamp": "2025-05-03T02:54:41.798931+00:00Z", "free_bikes": 0, "empty_slots": 16, "extra": {"uid": "1800116816700827990", "renting": 1, "returning": 1, "last_updated": 1681426568, "address": "2209 Blake St, Denver, CO 80205, United States", "has_ebikes": true, "ebikes": 0, "slots": 16, "virtual": false}}, {"id": "39c74e68949591dbf79a8369ee310234", "name": "Larimer St at 31st St", "latitude": 39.7631337, "longitude": -104.9795555, "timestamp": "2025-05-03T02:54:41.798859+00:00Z", "free_bikes": 0, "empty_slots": 15, "extra": {"uid": "1844258234160048452", "renting": 1, "returning": 1, "last_updated": 1691703895, "address": "3047 Larimer St, Denver, CO 80205, United States", "has_ebikes": true, "ebikes": 0, "slots": 16, "virtual": false}}, {"id": "3ddd0a4c8961c149389e28eb4d4c6236", "name": "N Marion St at Colfax Ave", "latitude": 39.7401668, "longitude": -104.972203, "timestamp": "2025-05-03T02:54:41.799028+00:00Z", "free_bikes": 0, "empty_slots": 15, "extra": {"uid": "1732924583830405218", "renting": 1, "returning": 1, "last_updated": 1675102106, "address": "1509, Marion Street, City Park West, Denver, Colorado, 80218, United States", "has_ebikes": true, "ebikes": 0, "slots": 16, "virtual": false}}, {"id": "41a4c1b7867a81790dffcd1bf6913928", "name": "Lawrence St at 33rd St", "latitude": 39.7645408, "longitude": -104.9759737, "timestamp": "2025-05-03T02:54:41.798538+00:00Z", "free_bikes": 0, "empty_slots": 13, "extra": {"uid": "1757831483608957912", "renting": 1, "returning": 1, "last_updated": 1675104156, "address": "3301, Lawrence Street, Five Points, Denver, Colorado, 80205, United States", "has_ebikes": true, "ebikes": 0, "slots": 16, "virtual": false}}, {"id": "49bd6deac83253875cb621201cbd8248", "name": "Grant St at E 11th Ave", "latitude": 39.733998, "longitude": -104.9836776, "timestamp": "2025-05-03T02:54:41.798462+00:00Z", "free_bikes": 0, "empty_slots": 16, "extra": {"uid": "1757830620320530782", "renting": 1, "returning": 1, "last_updated": 1675102044, "address": "Dennis Sheedy Mansion, 1115, Grant Street, Capitol Hill, Denver, Colorado, 80203, United States", "has_ebikes": true, "ebikes": 0, "slots": 16, "virtual": false}}, {"id": "4e73b39f6b21aa55a3f2f270beca0d6a", "name": "19th St at Wynkoop St", "latitude": 39.75459034, "longitude": -104.9971026, "timestamp": "2025-05-03T02:54:41.799051+00:00Z", "free_bikes": 4, "empty_slots": 8, "extra": {"uid": "1807113748892979606", "renting": 1, "returning": 1, "last_updated": 1683055548, "address": "1677 19th St, Denver, CO 80202, United States", "has_ebikes": true, "ebikes": 4, "slots": 16, "virtual": false}}, {"id": "504c776b2b570345361080294483a51b", "name": "E 10th Ave at Grant St", "latitude": 39.7320882, "longitude": -104.9833903, "timestamp": "2025-05-03T02:54:41.798530+00:00Z", "free_bikes": 0, "empty_slots": 16, "extra": {"uid": "1757831026219921896", "renting": 1, "returning": 1, "last_updated": 1675102026, "address": "Executive House Apartments, 330, East 10th Avenue, Capitol Hill, Denver, Colorado, 80203, United States", "has_ebikes": true, "ebikes": 0, "slots": 16, "virtual": false}}, {"id": "512993465b9c4e63d0ac50d77f0071d4", "name": "21st St at Welton St", "latitude": 39.7491124, "longitude": -104.98513, "timestamp": "2025-05-03T02:54:41.799096+00:00Z", "free_bikes": 2, "empty_slots": 14, "extra": {"uid": "1732919599772275316", "renting": 1, "returning": 1, "last_updated": 1675103256, "address": "597, 21st Street, Five Points, Denver, Colorado, 80205, United States", "has_ebikes": true, "ebikes": 2, "slots": 16, "virtual": false}}, {"id": "54c8596aca8c1d9e6f29bfe35000032c", "name": "18th St at Arapahoe St", "latitude": 39.7496545, "longitude": -104.9930748, "timestamp": "2025-05-03T02:54:41.798954+00:00Z", "free_bikes": 0, "empty_slots": 15, "extra": {"uid": "1812615019296571492", "renting": 1, "returning": 1, "last_updated": 1684336408, "address": "1093 18th St, Denver, CO 80202, United States", "has_ebikes": true, "ebikes": 0, "slots": 16, "virtual": false}}, {"id": "54e1e9776f3aefd26a53640dee2f49b3", "name": "32nd St at Larimer St", "latitude": 39.7641559, "longitude": -104.9779038, "timestamp": "2025-05-03T02:54:41.798915+00:00Z", "free_bikes": 0, "empty_slots": 15, "extra": {"uid": "1844258020795678858", "renting": 1, "returning": 1, "last_updated": 1691703858, "address": "3200 Larimer St, Denver, CO 80205, United States", "has_ebikes": true, "ebikes": 0, "slots": 16, "virtual": false}}, {"id": "572a3b0011d16aaa6afc92f4ee6a6edb", "name": "29th St at Larimer St", "latitude": 39.7613886, "longitude": -104.9817286, "timestamp": "2025-05-03T02:54:41.798389+00:00Z", "free_bikes": 0, "empty_slots": 13, "extra": {"uid": "1779316556483330154", "renting": 1, "returning": 1, "last_updated": 1676583497, "address": "2927 Larimer St, Denver, CO 80205, United States", "has_ebikes": true, "ebikes": 0, "slots": 16, "virtual": false}}, {"id": "5e7910365667db09a2fe669cc5abcebe", "name": "Boulder Street & 16th Street", "latitude": 39.7594322, "longitude": -105.0104252, "timestamp": "2025-05-03T02:54:41.798493+00:00Z", "free_bikes": 0, "empty_slots": 15, "extra": {"uid": "1675806320458381750", "renting": 1, "returning": 1, "last_updated": 1675101248, "address": "1636, Boulder Street, Highland, Denver, Colorado, 80211, United States", "has_ebikes": true, "ebikes": 0, "slots": 16, "virtual": false}}, {"id": "6b841c132193b331c76cd9cd9be271e5", "name": "E 12th Ave at Grant St", "latitude": 39.7353179, "longitude": -104.9832527, "timestamp": "2025-05-03T02:54:41.798422+00:00Z", "free_bikes": 0, "empty_slots": 16, "extra": {"uid": "1738168064643033464", "renting": 1, "returning": 1, "last_updated": 1675102083, "address": "Modera Capitol Hill, 1200, Grant Street, Capitol Hill, Denver, Colorado, 80203, United States", "has_ebikes": true, "ebikes": 0, "slots": 16, "virtual": false}}, {"id": "6cf9c0b9b3c56c3e93833d394bfdd0d4", "name": "Wazee Street & 15th Street", "latitude": 39.7499163, "longitude": -105.0016052, "timestamp": "2025-05-03T02:54:41.798438+00:00Z", "free_bikes": 8, "empty_slots": 4, "extra": {"uid": "1666800247266738662", "renting": 1, "returning": 1, "last_updated": 1675104239, "address": "Elephant Corral Building, 1420, Wazee Street, Lower Downtown, Denver, Colorado, 80202, United States", "has_ebikes": true, "ebikes": 8, "slots": 16, "virtual": false}}, {"id": "707da800a6fde7cb53a51077766094aa", "name": "W 12th Ave at Cherokee St", "latitude": 39.7353033, "longitude": -104.9914745, "timestamp": "2025-05-03T02:54:41.798923+00:00Z", "free_bikes": 1, "empty_slots": 11, "extra": {"uid": "1776812678791742290", "renting": 1, "returning": 1, "last_updated": 1676000502, "address": "290 W 12th Ave, Denver, CO 80204, United States", "has_ebikes": true, "ebikes": 1, "slots": 16, "virtual": false}}, {"id": "735fc6bbb7a9733927fe9ae01bf2cba4", "name": "16th St at Platte St", "latitude": 39.7572151, "longitude": -105.0077941, "timestamp": "2025-05-03T02:54:41.798398+00:00Z", "free_bikes": 5, "empty_slots": 7, "extra": {"uid": "1666800242971771362", "renting": 1, "returning": 1, "last_updated": 1675101421, "address": "National Velvet, 16th Street, Highland, Denver, Colorado, 80217, United States", "has_ebikes": true, "ebikes": 5, "slots": 16, "virtual": false}}, {"id": "76225eb6b4358a2870a22e4c05b883a1", "name": "Larimer St at 27th St", "latitude": 39.759395, "longitude": -104.984393, "timestamp": "2025-05-03T02:54:41.798406+00:00Z", "free_bikes": 0, "empty_slots": 16, "extra": {"uid": "1757831283917959996", "renting": 1, "returning": 1, "last_updated": 1675103918, "address": "H.H. Tammen Curio Company Building, 2669, Larimer Street, Five Points, Denver, Colorado, 80205, United States", "has_ebikes": true, "ebikes": 0, "slots": 16, "virtual": false}}, {"id": "79f879eb5b4cee3d776304d8770205fc", "name": "W 29th Ave at Inca St", "latitude": 39.7584767, "longitude": -104.9982378, "timestamp": "2025-05-03T02:54:41.798938+00:00Z", "free_bikes": 3, "empty_slots": 3, "extra": {"uid": "1776813434425353044", "renting": 1, "returning": 1, "last_updated": 1676000713, "address": "2907 Inca St, Denver, CO 80202, United States", "has_ebikes": true, "ebikes": 3, "slots": 6, "virtual": false}}, {"id": "7ab15b6da59ec1c204da1d601ed63f36", "name": "Pennsylvania St at E 19th St", "latitude": 39.746396, "longitude": -104.981148, "timestamp": "2025-05-03T02:54:41.799088+00:00Z", "free_bikes": 0, "empty_slots": 15, "extra": {"uid": "1753728165691748864", "renting": 1, "returning": 1, "last_updated": 1675102167, "address": "Uptown Square, 1955, Pennsylvania Street, North Capitol Hill, Denver, Colorado, 80203, United States", "has_ebikes": true, "ebikes": 0, "slots": 16, "virtual": false}}, {"id": "80827b0dc396535ea34a84facc0fede0", "name": "Delgany St at 15th St", "latitude": 39.7526474, "longitude": -105.0035237, "timestamp": "2025-05-03T02:54:41.798575+00:00Z", "free_bikes": 5, "empty_slots": 4, "extra": {"uid": "1656029080048740552", "renting": 1, "returning": 1, "last_updated": 1675101519, "address": "DaVita Parking Garage, 2000, 16th Street Mall, Denver, Colorado, 80202, United States", "has_ebikes": true, "ebikes": 5, "slots": 16, "virtual": false}}, {"id": "80cbd084d5db854886d1e3ddc8aa7b68", "name": "Wynkoop St at 17th St", "latitude": 39.752701, "longitude": -104.999787, "timestamp": "2025-05-03T02:54:41.798991+00:00Z", "free_bikes": 0, "empty_slots": 16, "extra": {"uid": "1602305533737064252", "renting": 1, "returning": 1, "last_updated": 1678471395, "address": "Streetcar Stables Lofts, 1700, Wynkoop Street, 16th Street Mall, Denver, Denver County, Colorado, 80202, United States", "has_ebikes": true, "ebikes": 0, "slots": 16, "virtual": false}}, {"id": "8798154fe4da6266e4a52c978975d02d", "name": "E 11th Ave at Logan St", "latitude": 39.7337557, "longitude": -104.9821118, "timestamp": "2025-05-03T02:54:41.798946+00:00Z", "free_bikes": 0, "empty_slots": 16, "extra": {"uid": "1755957393940656370", "renting": 1, "returning": 1, "last_updated": 1675102060, "address": "Canterbury Tales Condos, 1100, Logan Street, Capitol Hill, Denver, Colorado, 80203, United States", "has_ebikes": true, "ebikes": 0, "slots": 16, "virtual": false}}, {"id": "8d677b6747b8e36d31f565d4a763972e", "name": "E Asbury Ave at S University Blvd", "latitude": 39.680309, "longitude": -104.9591093, "timestamp": "2025-05-03T02:54:41.798907+00:00Z", "free_bikes": 0, "empty_slots": 16, "extra": {"uid": "1844307129374229430", "renting": 1, "returning": 1, "last_updated": 1691715350, "address": "1986 S University Blvd, Denver, CO 80210, United States", "has_ebikes": true, "ebikes": 0, "slots": 16, "virtual": false}}, {"id": "8d9d6f7f03d99b310728d25a3135452b", "name": "Central St at Kensing Ct", "latitude": 39.7589105, "longitude": -105.0086523, "timestamp": "2025-05-03T02:54:41.798478+00:00Z", "free_bikes": 7, "empty_slots": 5, "extra": {"uid": "1754825481293136730", "renting": 1, "returning": 1, "last_updated": 1675101266, "address": "Rush Bowls, 1665, Central Street, Highland, Denver, Colorado, 80211, United States", "has_ebikes": true, "ebikes": 7, "slots": 16, "virtual": false}}, {"id": "95a71e04b293947e78b4e87fce922622", "name": "Vallejo St at W 29th Ave", "latitude": 39.7582758, "longitude": -105.0131165, "timestamp": "2025-05-03T02:54:41.799044+00:00Z", "free_bikes": 0, "empty_slots": 16, "extra": {"uid": "1760820551054967102", "renting": 1, "returning": 1, "last_updated": 1675101161, "address": "2837, Vallejo Street, Highland, Denver, Colorado, 80211, United States", "has_ebikes": true, "ebikes": 0, "slots": 16, "virtual": false}}, {"id": "973d55e89d054457288d5d2619199e4a", "name": "Stout St at 22nd St", "latitude": 39.7512447, "longitude": -104.9860453, "timestamp": "2025-05-03T02:54:41.798899+00:00Z", "free_bikes": 0, "empty_slots": 14, "extra": {"uid": "1754824681079960556", "renting": 1, "returning": 1, "last_updated": 1675103291, "address": "Renaissance Stout Street Lofts, 2180, Stout Street, Five Points, Denver, Colorado, 80205, United States", "has_ebikes": true, "ebikes": 0, "slots": 16, "virtual": false}}, {"id": "9adaccac32b3d5893f41fb0ced3e4654", "name": "11th at Broadway", "latitude": 39.7339564, "longitude": -104.987657, "timestamp": "2025-05-03T02:54:41.799059+00:00Z", "free_bikes": 0, "empty_slots": 7, "extra": {"uid": "1666800247266738664", "renting": 1, "returning": 1, "last_updated": 1675102015, "address": "54, West 11th Avenue, Golden Triangle, Denver, Colorado, 80204, United States", "has_ebikes": true, "ebikes": 0, "slots": 16, "virtual": false}}, {"id": "9cb9c7c5f790c6dbd200b846cff48c83", "name": "Blake St at Park Ave W", "latitude": 39.757175, "longitude": -104.990517, "timestamp": "2025-05-03T02:54:41.799036+00:00Z", "free_bikes": 6, "empty_slots": 6, "extra": {"uid": "1758525581225625746", "renting": 1, "returning": 1, "last_updated": 1675103774, "address": "2301, Blake Street, Five Points, Denver, Colorado, 80205, United States", "has_ebikes": true, "ebikes": 6, "slots": 16, "virtual": false}}, {"id": "a34acb7ce108e59382fbeb1a6cebd927", "name": "Broadway at Walnut St", "latitude": 39.7581242, "longitude": -104.9872752, "timestamp": "2025-05-03T02:54:41.798501+00:00Z", "free_bikes": 5, "empty_slots": 10, "extra": {"uid": "1725143607931095810", "renting": 1, "returning": 1, "last_updated": 1675103824, "address": "Trade Deficit, 25th Street, Five Points, Denver, Colorado, 80294, United States", "has_ebikes": true, "ebikes": 5, "slots": 16, "virtual": false}}, {"id": "a606401bda9c047563f026a9854f9572", "name": "Wynkoop St at 15th St", "latitude": 39.7508683, "longitude": -105.0023092, "timestamp": "2025-05-03T02:54:41.799103+00:00Z", "free_bikes": 4, "empty_slots": 10, "extra": {"uid": "1751033738041549816", "renting": 1, "returning": 1, "last_updated": 1675101659, "address": "Steel Bridge Lofts, 1449, Wynkoop Street, Lower Downtown, Denver, Colorado, 80202, United States", "has_ebikes": true, "ebikes": 4, "slots": 16, "virtual": false}}, {"id": "abacfeacbdab611e9b62bdac1af9bb67", "name": "Brighton Blvd at 33rd St", "latitude": 39.7683802, "longitude": -104.98115, "timestamp": "2025-05-03T02:54:41.798325+00:00Z", "free_bikes": 1, "empty_slots": 7, "extra": {"uid": "1755957166307389598", "renting": 1, "returning": 1, "last_updated": 1675104201, "address": "3310, Brighton Boulevard, Five Points, Denver, Colorado, 80216, United States", "has_ebikes": true, "ebikes": 1, "slots": 16, "virtual": false}}, {"id": "ae57d25c84525b1bb30620faf21d3185", "name": "18th St at Champa St", "latitude": 39.74864489, "longitude": -104.991756, "timestamp": "2025-05-03T02:54:41.798568+00:00Z", "free_bikes": 0, "empty_slots": 15, "extra": {"uid": "1807900075730721682", "renting": 1, "returning": 1, "last_updated": 1683238649, "address": "910 18th St, Denver, CO 80202, United States", "has_ebikes": true, "ebikes": 0, "slots": 16, "virtual": false}}, {"id": "aef02bbb8c7e042cd2c142786f3f2d83", "name": "25th St at Lawrence St", "latitude": 39.7569027, "longitude": -104.9854662, "timestamp": "2025-05-03T02:54:41.798470+00:00Z", "free_bikes": 5, "empty_slots": 11, "extra": {"uid": "1760376390774221540", "renting": 1, "returning": 1, "last_updated": 1675103865, "address": "2500, Lawrence Street, Five Points, Denver, Colorado, 80294, United States", "has_ebikes": true, "ebikes": 5, "slots": 16, "virtual": false}}, {"id": "b00c539fd8a7729d8cd43ddd4ab0dd1c", "name": "31st St at California St", "latitude": 39.7592646, "longitude": -104.9742307, "timestamp": "2025-05-03T02:54:41.798446+00:00Z", "free_bikes": 0, "empty_slots": 13, "extra": {"uid": "1734395923126643366", "renting": 1, "returning": 1, "last_updated": 1675103516, "address": "709, 31st Street, Five Points, Denver, Colorado, 80205, United States", "has_ebikes": true, "ebikes": 0, "slots": 16, "virtual": false}}, {"id": "b4142961d9f3fae5e72a69b76ca04aef", "name": "21st St at Lawrence St", "latitude": 39.753335, "longitude": -104.990856, "timestamp": "2025-05-03T02:54:41.799006+00:00Z", "free_bikes": 1, "empty_slots": 15, "extra": {"uid": "1602305529442096952", "renting": 1, "returning": 1, "last_updated": 1675103304, "address": "1222, 21st Street, Five Points, Denver, Denver County, Colorado, 80205, United States", "has_ebikes": true, "ebikes": 1, "slots": 16, "virtual": false}}, {"id": "b6113dcf2d4aad580073ff4b5635cf88", "name": "Humboldt St at E Colfax Ave", "latitude": 39.7398565, "longitude": -104.9696043, "timestamp": "2025-05-03T02:54:41.798357+00:00Z", "free_bikes": 0, "empty_slots": 16, "extra": {"uid": "1751100663328850426", "renting": 1, "returning": 1, "last_updated": 1675102139, "address": "Hamilton Condos, 1475, Humboldt Street, Cheesman Park, Denver, Colorado, 80218, United States", "has_ebikes": true, "ebikes": 0, "slots": 16, "virtual": false}}, {"id": "b87889dc1bc3a475dba1c7171b1b53ed", "name": "19th St at Larimer St", "latitude": 39.75194111, "longitude": -104.9936239, "timestamp": "2025-05-03T02:54:41.798382+00:00Z", "free_bikes": 0, "empty_slots": 14, "extra": {"uid": "1812614465245790784", "renting": 1, "returning": 1, "last_updated": 1684336288, "address": "1907 Larimer St, Denver, CO 80202, United States", "has_ebikes": true, "ebikes": 0, "slots": 16, "virtual": false}}, {"id": "b8987c0c9610293c82c26da61a064bbf", "name": "21st St at Tremont Pl", "latitude": 39.7479403, "longitude": -104.9837465, "timestamp": "2025-05-03T02:54:41.798366+00:00Z", "free_bikes": 0, "empty_slots": 16, "extra": {"uid": "1749637395497741056", "renting": 1, "returning": 1, "last_updated": 1675102197, "address": "407, 21st Street, Five Points, Denver, Colorado, 80205, United States", "has_ebikes": true, "ebikes": 0, "slots": 16, "virtual": false}}, {"id": "b930b0b803eb4663d643ee4c67291ac0", "name": "Larimer St at 16th St", "latitude": 39.7494994, "longitude": -104.9971826, "timestamp": "2025-05-03T02:54:41.798872+00:00Z", "free_bikes": 0, "empty_slots": 15, "extra": {"uid": "1829027715625915104", "renting": 1, "returning": 1, "last_updated": 1688157817, "address": "1475 16th St, Denver, CO 80202, United States", "has_ebikes": true, "ebikes": 0, "slots": 16, "virtual": false}}, {"id": "bad59b503e7c14e61bc4da33751b30a1", "name": "12th St at Auraria Pkwy", "latitude": 39.748321, "longitude": -105.0043619, "timestamp": "2025-05-03T02:54:41.799111+00:00Z", "free_bikes": 1, "empty_slots": 15, "extra": {"uid": "1833146137760487440", "renting": 1, "returning": 1, "last_updated": 1689116676, "address": "1221 Auraria Pkwy, Denver, CO 80204, United States", "has_ebikes": true, "ebikes": 1, "slots": 16, "virtual": false}}, {"id": "c1e27776683719e6588521bd9c3ad0ca", "name": "Welton St at 17th St", "latitude": 39.7455193, "longitude": -104.9899082, "timestamp": "2025-05-03T02:54:41.799081+00:00Z", "free_bikes": 3, "empty_slots": 11, "extra": {"uid": "1753727737377155858", "renting": 1, "returning": 1, "last_updated": 1675101924, "address": "555, 17th Street, Central Business District, Denver, Colorado, 80202, United States", "has_ebikes": true, "ebikes": 3, "slots": 16, "virtual": false}}, {"id": "c2df315db6e9ef186badcc8349e071b3", "name": "Court Pl at 15th St", "latitude": 39.7414257, "longitude": -104.9900552, "timestamp": "2025-05-03T02:54:41.799013+00:00Z", "free_bikes": 0, "empty_slots": 12, "extra": {"uid": "1736186663469890504", "renting": 1, "returning": 1, "last_updated": 1675101936, "address": "1439, Court Place, Central Business District, Denver, Colorado, 80202, United States", "has_ebikes": true, "ebikes": 0, "slots": 16, "virtual": false}}, {"id": "c46be27c1e1190018ff96c201b49d3e3", "name": "Wynkoop St at 16th St", "latitude": 39.7520686, "longitude": -105.0007928, "timestamp": "2025-05-03T02:54:41.798508+00:00Z", "free_bikes": 6, "empty_slots": 0, "extra": {"uid": "1725143612226063110", "renting": 1, "returning": 1, "last_updated": 1678471307, "address": "One Union Station, 1615, Wynkoop Street, 16th Street Mall, Denver, Colorado, 80202, United States", "has_ebikes": true, "ebikes": 6, "slots": 16, "virtual": false}}, {"id": "c8cb4d7276928a847daf69346994d318", "name": "W 12 Ave at Broadway", "latitude": 39.7353177, "longitude": -104.9878646, "timestamp": "2025-05-03T02:54:41.798454+00:00Z", "free_bikes": 0, "empty_slots": 14, "extra": {"uid": "1789646552142737540", "renting": 1, "returning": 1, "last_updated": 1678988598, "address": "1201 N Broadway, Denver, CO 80203, United States", "has_ebikes": true, "ebikes": 0, "slots": 16, "virtual": false}}, {"id": "d8cf3cc04e4ccba75fefb24bd3979337", "name": "Lawrence St at 18th St", "latitude": 39.7504992, "longitude": -104.9939508, "timestamp": "2025-05-03T02:54:41.798414+00:00Z", "free_bikes": 0, "empty_slots": 15, "extra": {"uid": "1792273298363317016", "renting": 1, "returning": 1, "last_updated": 1679600221, "address": "1800 Lawrence St, Denver, CO 80202, United States", "has_ebikes": true, "ebikes": 0, "slots": 16, "virtual": false}}, {"id": "dc15f38c4c4f2ffe5e07bf6d92bc32f6", "name": "W 29th Ave at Zuni St", "latitude": 39.758575, "longitude": -105.015749, "timestamp": "2025-05-03T02:54:41.798486+00:00Z", "free_bikes": 1, "empty_slots": 15, "extra": {"uid": "1749637786976606352", "renting": 1, "returning": 1, "last_updated": 1675101140, "address": "2900, Zuni Street, Highland, Denver, Colorado, 80211, United States", "has_ebikes": true, "ebikes": 1, "slots": 16, "virtual": false}}, {"id": "e96be96af9ec15c260635d1d3d670f0b", "name": "Blake St at 29th St", "latitude": 39.762586, "longitude": -104.9835284, "timestamp": "2025-05-03T02:54:41.798984+00:00Z", "free_bikes": 4, "empty_slots": 6, "extra": {"uid": "1736186183897860098", "renting": 1, "returning": 1, "last_updated": 1675104118, "address": "Modera River North, 2840, Blake Street, Five Points, Denver, Colorado, 80205, United States", "has_ebikes": true, "ebikes": 4, "slots": 16, "virtual": false}}, {"id": "f00df6aefebd0bf140b9f48f5888f323", "name": "Grant St at E 19th Ave", "latitude": 39.74641, "longitude": -104.98367, "timestamp": "2025-05-03T02:54:41.798890+00:00Z", "free_bikes": 4, "empty_slots": 11, "extra": {"uid": "1753729243407270758", "renting": 1, "returning": 1, "last_updated": 1675102179, "address": "Sova, 1901, Grant Street, North Capitol Hill, Denver, Colorado, 80203, United States", "has_ebikes": true, "ebikes": 4, "slots": 16, "virtual": false}}, {"id": "f5defb7a6c306f466e3a778e7d874642", "name": "Walnut St at 26th St", "latitude": 39.759344, "longitude": -104.986164, "timestamp": "2025-05-03T02:54:41.798523+00:00Z", "free_bikes": 0, "empty_slots": 15, "extra": {"uid": "1602305529442096954", "renting": 1, "returning": 1, "last_updated": 1675103891, "address": "2601, Walnut Street, Five Points, Denver, Denver County, Colorado, 80205, United States", "has_ebikes": true, "ebikes": 0, "slots": 16, "virtual": false}}, {"id": "fb90e348809b5c545f33aa2e7d747cc1", "name": "Welton St at 15th St", "latitude": 39.74373, "longitude": -104.99226, "timestamp": "2025-05-03T02:54:41.799021+00:00Z", "free_bikes": 4, "empty_slots": 11, "extra": {"uid": "1732923742016815206", "renting": 1, "returning": 1, "last_updated": 1675101900, "address": "Sage Hospitality, 1575, Welton Street, Central Business District, Denver, Colorado, 80202, United States", "has_ebikes": true, "ebikes": 4, "slots": 16, "virtual": false}}]}