{"id": "dott-murcia", "name": "Dott", "location": {"latitude": 37.9872, "longitude": -1.1287, "city": "Murcia", "country": "ES"}, "href": "/v2/networks/dott-murcia", "company": ["Dott"], "gbfs_href": "https://gbfs.api.ridedott.com/public/v2/murcia/gbfs.json", "stations": [{"id": "000a7af1e66770cf2bd9ccd3deacc665", "name": "Palacio Deportes Murcia I", "latitude": 37.993611, "longitude": -1.1124329, "timestamp": "2025-05-03T02:57:47.112192+00:00Z", "free_bikes": 0, "empty_slots": null, "extra": {"uid": "dbac9cb4-378c-4403-915d-ce6a03b753ac", "renting": true, "returning": true, "last_updated": 1745802717, "scooters": 4, "has_scooters": true, "virtual": true}}, {"id": "0040538ab5927c1baca18b9420c3c078", "name": "Paseo Fern\u00e1ndez Caballero", "latitude": 38.00143, "longitude": -1.1326656, "timestamp": "2025-05-03T02:57:47.023881+00:00Z", "free_bikes": 0, "empty_slots": null, "extra": {"uid": "c021f046-3acc-42ee-a332-4d12bfac5aa4", "renting": true, "returning": true, "last_updated": 1746230290, "scooters": 4, "has_scooters": true, "virtual": true}}, {"id": "0044df118e213369cd8555620385ba56", "name": "Pl. San Nicol\u00e1s II", "latitude": 37.985676, "longitude": -1.134781, "timestamp": "2025-05-03T02:57:47.112252+00:00Z", "free_bikes": 0, "empty_slots": null, "extra": {"uid": "0c432c79-d272-48ca-b03f-1882659f0508", "renting": true, "returning": true, "last_updated": 1746217157, "scooters": 4, "has_scooters": true, "virtual": true}}, {"id": "00784cc306cb9db60113f9ecff410ebd", "name": "Nonduermas1", "latitude": 37.972269, "longitude": -1.171762, "timestamp": "2025-05-03T02:57:47.125807+00:00Z", "free_bikes": 5, "empty_slots": null, "extra": {"uid": "771f1d17-192c-494a-8ac9-476880349a64", "renting": true, "returning": true, "last_updated": 1746226006, "scooters": 4, "has_scooters": true, "ebikes": 5, "has_ebikes": true, "virtual": true}}, {"id": "00c71e58396439f9b9335832e1070a5a", "name": "Bellas Artes", "latitude": 38.024321, "longitude": -1.175046, "timestamp": "2025-05-03T02:57:47.111733+00:00Z", "free_bikes": 0, "empty_slots": null, "extra": {"uid": "3c6e5eb8-606e-4c83-a245-5027a3a0e9d8", "renting": true, "returning": true, "last_updated": 1731327221, "scooters": 4, "has_scooters": true, "virtual": true}}, {"id": "010062d71bed84c19c8b80ec782a0cd9", "name": "Guadalupe-Auditorio", "latitude": 38.00156662, "longitude": -1.175040807, "timestamp": "2025-05-03T02:57:47.125771+00:00Z", "free_bikes": 5, "empty_slots": null, "extra": {"uid": "7626a641-dee4-4d50-9d88-e5ec2776b3e0", "renting": true, "returning": true, "last_updated": 1746234812, "scooters": 5, "has_scooters": true, "ebikes": 5, "has_ebikes": true, "virtual": true}}, {"id": "019e19f89a21bee19508360c1f3319a7", "name": "Av. Reino de Valencia", "latitude": 38.001215, "longitude": -1.119336, "timestamp": "2025-05-03T02:57:47.110143+00:00Z", "free_bikes": 0, "empty_slots": null, "extra": {"uid": "753c2265-ee62-4ada-8aae-bca66b7de4a0", "renting": true, "returning": true, "last_updated": 1745918942, "scooters": 4, "has_scooters": true, "virtual": true}}, {"id": "02788fb12fb0b4efb118fb5c8bfb9f34", "name": "Instituto Alfonso Vistalegre", "latitude": 37.994631, "longitude": -1.1264285, "timestamp": "2025-05-03T02:57:47.110984+00:00Z", "free_bikes": 0, "empty_slots": null, "extra": {"uid": "3c861f64-bdde-4cd5-8022-408467b0cdbc", "renting": true, "returning": true, "last_updated": 1746220551, "scooters": 4, "has_scooters": true, "virtual": true}}, {"id": "036306b1b08d74a65e28b2013bbbac6c", "name": "Nonduermas Alcaldia", "latitude": 37.9716976, "longitude": -1.1721334, "timestamp": "2025-05-03T02:57:47.111497+00:00Z", "free_bikes": 0, "empty_slots": null, "extra": {"uid": "3dac98d0-fcca-4619-bdb5-27435e02e45c", "renting": true, "returning": true, "last_updated": 1746225468, "scooters": 4, "has_scooters": true, "virtual": true}}, {"id": "036494109b20cc5592a724ee1baff564", "name": "UCAM Temp 1", "latitude": 37.992211, "longitude": -1.186287, "timestamp": "2025-05-03T02:57:47.110770+00:00Z", "free_bikes": 0, "empty_slots": null, "extra": {"uid": "c6954544-3e9d-45a0-b5af-23446cff2050", "renting": true, "returning": true, "last_updated": 1746223124, "scooters": 4, "has_scooters": true, "virtual": true}}, {"id": "03b391722bde7a6efae82a7c8738ac50", "name": "El Infante. Media Markt", "latitude": 37.97602, "longitude": -1.114745, "timestamp": "2025-05-03T02:57:47.113045+00:00Z", "free_bikes": 0, "empty_slots": null, "extra": {"uid": "f51a79ef-1bbc-4f5b-8e0d-6cda1657aea0", "renting": true, "returning": true, "last_updated": 1746216008, "scooters": 4, "has_scooters": true, "virtual": true}}, {"id": "051a104a2b75af9cb25b8e3f86bab9cb", "name": "UCAM HITECH", "latitude": 37.994186, "longitude": -1.179831, "timestamp": "2025-05-03T02:57:47.112733+00:00Z", "free_bikes": 0, "empty_slots": null, "extra": {"uid": "9e139d05-c269-45e4-8e47-b3cf407a24cc", "renting": true, "returning": true, "last_updated": 1746192165, "scooters": 4, "has_scooters": true, "virtual": true}}, {"id": "05d119015cc92b63db9f950d1e674eac", "name": "Puente Tocinos ", "latitude": 37.9913705, "longitude": -1.1015115, "timestamp": "2025-05-03T02:57:47.112182+00:00Z", "free_bikes": 0, "empty_slots": null, "extra": {"uid": "f2cb496e-eeb1-401c-9fd9-586cdb6b6120", "renting": true, "returning": true, "last_updated": 1745917040, "scooters": 4, "has_scooters": true, "virtual": true}}, {"id": "05d7400d73d572df652ca0630b470766", "name": "San Andres", "latitude": 37.9854826, "longitude": -1.1367326, "timestamp": "2025-05-03T02:57:47.112679+00:00Z", "free_bikes": 0, "empty_slots": null, "extra": {"uid": "991410e1-6a02-45df-bb4f-a44b03b03a70", "renting": true, "returning": true, "last_updated": 1746006771, "scooters": 4, "has_scooters": true, "virtual": true}}, {"id": "067b1c963b343a794eeec92e5a737a1c", "name": "DIM Media Lab CERCA HOTEL AC", "latitude": 38.00416094, "longitude": -1.142701453, "timestamp": "2025-05-03T02:57:47.112262+00:00Z", "free_bikes": 0, "empty_slots": null, "extra": {"uid": "d466fddf-1830-48c7-8103-8a53e5facd38", "renting": true, "returning": true, "last_updated": 1746050800, "scooters": 4, "has_scooters": true, "virtual": true}}, {"id": "06b7cadcc93fec53db3f61a7ad60c278", "name": "PUENTE TOCINOS A LLANO DE BRUJAS 3", "latitude": 38.001426, "longitude": -1.077794, "timestamp": "2025-05-03T02:57:47.110522+00:00Z", "free_bikes": 0, "empty_slots": null, "extra": {"uid": "d1d5dcb5-7e0b-4c31-b01d-6624ba487b14", "renting": true, "returning": true, "last_updated": 1739636996, "scooters": 4, "has_scooters": true, "virtual": true}}, {"id": "070e6b157b6d81027f58098c4b082f60", "name": "Abenarabi 2", "latitude": 37.9973268, "longitude": -1.1290031, "timestamp": "2025-05-03T02:57:47.111426+00:00Z", "free_bikes": 0, "empty_slots": null, "extra": {"uid": "d21979d9-8416-45dc-8db9-c4672ed9589c", "renting": true, "returning": true, "last_updated": 1746234104, "scooters": 4, "has_scooters": true, "virtual": true}}, {"id": "076dcafa5d36566f32d7e169c7fe490f", "name": "EL RAAL CAMPO DE F\u00daTBOL ", "latitude": 38.030483, "longitude": -1.042401, "timestamp": "2025-05-03T02:57:47.110910+00:00Z", "free_bikes": 0, "empty_slots": null, "extra": {"uid": "3a252949-1f25-4603-8137-2c97d0183140", "renting": true, "returning": true, "last_updated": 1744855216, "scooters": 4, "has_scooters": true, "virtual": true}}, {"id": "078f35cfb445cb90f84bb5ca9e7b9356", "name": "69", "latitude": 37.99578318, "longitude": -1.136982299, "timestamp": "2025-05-03T02:57:47.114157+00:00Z", "free_bikes": 0, "empty_slots": null, "extra": {"uid": "49f24ae6-001a-4ec3-bb69-62f5c9908e34", "renting": true, "returning": true, "last_updated": 1745059764, "scooters": 4, "has_scooters": true, "virtual": true}}, {"id": "083651d1fae9d2a1bbe13d7ff1f47bfa", "name": "Campo de Futbol los Garres", "latitude": 37.962513, "longitude": -1.086617, "timestamp": "2025-05-03T02:57:47.110544+00:00Z", "free_bikes": 0, "empty_slots": null, "extra": {"uid": "b21b3bf2-fbdb-458d-9612-cd76777938c0", "renting": true, "returning": true, "last_updated": 1746239210, "scooters": 4, "has_scooters": true, "virtual": true}}, {"id": "0852a1cfaf6a9f8a7be2b84e84186e85", "name": "HOTEL SERCOTEL AMISTAD", "latitude": 37.9889876, "longitude": -1.1349194, "timestamp": "2025-05-03T02:57:47.114231+00:00Z", "free_bikes": 0, "empty_slots": null, "extra": {"uid": "72688c90-a8ba-47a9-9946-bbdf2154d768", "renting": true, "returning": true, "last_updated": 1745935637, "scooters": 4, "has_scooters": true, "virtual": true}}, {"id": "085b25447146677991934372c4d6f4c6", "name": "Sta Catalina Farmacia", "latitude": 37.9650886, "longitude": -1.1382551, "timestamp": "2025-05-03T02:57:47.110230+00:00Z", "free_bikes": 0, "empty_slots": null, "extra": {"uid": "000bcc77-b537-4614-9930-9bd2aaf8aa54", "renting": true, "returning": true, "last_updated": 1746238700, "scooters": 4, "has_scooters": true, "virtual": true}}, {"id": "08cc3035f1ef1b5e4f73d0c797ec3788", "name": "Av. Juan de Borb\u00f3n", "latitude": 38.00739463, "longitude": -1.129251734, "timestamp": "2025-05-03T02:57:47.125756+00:00Z", "free_bikes": 0, "empty_slots": null, "extra": {"uid": "02345321-8ec5-4ab8-8706-6d260754095c", "renting": true, "returning": true, "last_updated": 1746239615, "scooters": 4, "has_scooters": true, "virtual": true}}, {"id": "09214a67f341153beb49f401eb2fecb0", "name": "C. Uruguay 4", "latitude": 37.9606131, "longitude": -1.1998103, "timestamp": "2025-05-03T02:57:47.023911+00:00Z", "free_bikes": 0, "empty_slots": null, "extra": {"uid": "860c6520-47ba-44dc-97ed-245d640b1414", "renting": true, "returning": true, "last_updated": 1738749849, "scooters": 4, "has_scooters": true, "virtual": true}}, {"id": "097d512a168a30483985f2fb7d886b98", "name": "Carril Olmos", "latitude": 37.964914, "longitude": -1.128435, "timestamp": "2025-05-03T02:57:47.126003+00:00Z", "free_bikes": 0, "empty_slots": null, "extra": {"uid": "cce2967a-65f5-4ee5-b460-394dbe820eb4", "renting": true, "returning": true, "last_updated": 1746003645, "scooters": 4, "has_scooters": true, "virtual": true}}, {"id": "09e2f0788b6bb794b238d5b8b2685264", "name": "C. de la Cruz", "latitude": 38.011886, "longitude": -1.152087, "timestamp": "2025-05-03T02:57:47.126253+00:00Z", "free_bikes": 0, "empty_slots": null, "extra": {"uid": "94d9f6ce-eb28-4dc0-8ab2-2379970214e4", "renting": true, "returning": true, "last_updated": 1746014559, "scooters": 4, "has_scooters": true, "virtual": true}}, {"id": "09ef4f4a280d35e9a8c2e6f2374d45ed", "name": "San Ant\u00f3n 27", "latitude": 37.9911752, "longitude": -1.140882, "timestamp": "2025-05-03T02:57:47.112722+00:00Z", "free_bikes": 0, "empty_slots": null, "extra": {"uid": "d72f6514-f2cd-4eae-b039-127b414b9e0c", "renting": true, "returning": true, "last_updated": 1746131232, "scooters": 4, "has_scooters": true, "virtual": true}}, {"id": "0a1025c1f23eeae3ea0e536a95ee3246", "name": "CAMPO DE FUTBOL( EL RANERO) MURCIA", "latitude": 37.9998346, "longitude": -1.1495909, "timestamp": "2025-05-03T02:57:47.023972+00:00Z", "free_bikes": 0, "empty_slots": null, "extra": {"uid": "52edd8d4-05af-47c7-a200-9b94924dbd20", "renting": true, "returning": true, "last_updated": 1746206443, "scooters": 4, "has_scooters": true, "virtual": true}}, {"id": "0ae035684e00e47b8fe7ff8dd00aa4dd", "name": "Los garres pabellon deportivo", "latitude": 37.9535557, "longitude": -1.0928597, "timestamp": "2025-05-03T02:57:47.110974+00:00Z", "free_bikes": 0, "empty_slots": null, "extra": {"uid": "80fa2d75-77d2-4a70-99d5-abf9ef442518", "renting": true, "returning": true, "last_updated": 1746214948, "scooters": 4, "has_scooters": true, "virtual": true}}, {"id": "0af0c62afcc9471556f91fd7304d4245", "name": "El Carmen Casa del cel\u00edaco", "latitude": 37.9777158, "longitude": -1.1262254, "timestamp": "2025-05-03T02:57:47.024214+00:00Z", "free_bikes": 0, "empty_slots": null, "extra": {"uid": "7c51afe4-587c-47c6-b701-d2c3d6121088", "renting": true, "returning": true, "last_updated": 1746185987, "scooters": 4, "has_scooters": true, "virtual": true}}, {"id": "0b53f117d2ca892ba353af0202641717", "name": "Terra Natura Murcia", "latitude": 38.0119826, "longitude": -1.1652947, "timestamp": "2025-05-03T02:57:47.112120+00:00Z", "free_bikes": 0, "empty_slots": null, "extra": {"uid": "b9ef5840-aec2-4b68-9978-563abbae7b58", "renting": true, "returning": true, "last_updated": 1745564099, "scooters": 4, "has_scooters": true, "virtual": true}}, {"id": "0b6d3f4f749b9531cc0a925db2f343bb", "name": "Av. de las Am\u00e9ricas 2", "latitude": 37.9531771, "longitude": -1.1953886, "timestamp": "2025-05-03T02:57:47.112511+00:00Z", "free_bikes": 0, "empty_slots": null, "extra": {"uid": "e6703833-4965-4988-996a-74b287222a30", "renting": true, "returning": true, "last_updated": 1738749209, "scooters": 4, "has_scooters": true, "virtual": true}}, {"id": "0b99fd13282227d4d5cf5b251a7d5dd6", "name": "PLAZA CIRCULAR KIOSKO", "latitude": 37.99162041, "longitude": -1.131156514, "timestamp": "2025-05-03T02:57:47.110604+00:00Z", "free_bikes": 0, "empty_slots": null, "extra": {"uid": "1c451d84-3e56-48b7-8303-46e634ea036c", "renting": true, "returning": true, "last_updated": 1746240922, "scooters": 6, "has_scooters": true, "virtual": true}}, {"id": "0be6354df570d6bec3ab69d1eca8e9f9", "name": "San Antol\u00edn. Plaza Pedro Pou. Detr\u00e1s Iglesia. ", "latitude": 37.984683, "longitude": -1.137279, "timestamp": "2025-05-03T02:57:47.024647+00:00Z", "free_bikes": 0, "empty_slots": null, "extra": {"uid": "5c39464b-858a-44c9-9e52-1ba0cd53ae20", "renting": true, "returning": true, "last_updated": 1746082011, "scooters": 4, "has_scooters": true, "virtual": true}}, {"id": "0c35ac20d377c2d0d8015c93ab3743d8", "name": "Paseo Florencia 2", "latitude": 37.970104, "longitude": -1.127219, "timestamp": "2025-05-03T02:57:47.112628+00:00Z", "free_bikes": 5, "empty_slots": null, "extra": {"uid": "b3683bed-d0af-4ea8-b915-3685a3299658", "renting": true, "returning": true, "last_updated": 1746237072, "scooters": 4, "has_scooters": true, "ebikes": 5, "has_ebikes": true, "virtual": true}}, {"id": "0ced39c08e4aa3feda4df44e670abf05", "name": "Plaza de Castilla", "latitude": 37.9934522, "longitude": -1.14192283, "timestamp": "2025-05-03T02:57:47.125628+00:00Z", "free_bikes": 5, "empty_slots": null, "extra": {"uid": "493d958b-4c93-45f8-9974-caae9e33ae60", "renting": true, "returning": true, "last_updated": 1746225116, "scooters": 4, "has_scooters": true, "ebikes": 5, "has_ebikes": true, "virtual": true}}, {"id": "0de996ce420f1a99070409414b9acc60", "name": "Oficina de la Bicicleta", "latitude": 38.0005386, "longitude": -1.1351443, "timestamp": "2025-05-03T02:57:47.110584+00:00Z", "free_bikes": 5, "empty_slots": null, "extra": {"uid": "ad701503-0cf4-4c9d-84c5-ca4e2214db7c", "renting": true, "returning": true, "last_updated": 1746236161, "scooters": 4, "has_scooters": true, "ebikes": 5, "has_ebikes": true, "virtual": true}}, {"id": "0e3582790c2c6be287b1552aa9f1ea83", "name": "48", "latitude": 38.03186115, "longitude": -1.146437788, "timestamp": "2025-05-03T02:57:47.110164+00:00Z", "free_bikes": 0, "empty_slots": null, "extra": {"uid": "d7610b39-1e8b-4b93-afb4-46e3b0a57864", "renting": true, "returning": true, "last_updated": 1745966040, "scooters": 4, "has_scooters": true, "virtual": true}}, {"id": "0e5bdffbd24457abfffa161e8a31904a", "name": "C. Tejeras", "latitude": 37.961835, "longitude": -1.08348, "timestamp": "2025-05-03T02:57:47.024521+00:00Z", "free_bikes": 0, "empty_slots": null, "extra": {"uid": "59814576-0d5e-4710-b17c-862c06342020", "renting": true, "returning": true, "last_updated": 1745345968, "scooters": 4, "has_scooters": true, "virtual": true}}, {"id": "0ea8067b0340cc3cbd47ed2d1eec43f0", "name": "PLAZA CRUZ ROJA PUENTE DE HIERRO ", "latitude": 37.9820507, "longitude": -1.1268222, "timestamp": "2025-05-03T02:57:47.024174+00:00Z", "free_bikes": 0, "empty_slots": null, "extra": {"uid": "9a57cd4b-3d4a-4acd-962d-cdd1d59f0cf0", "renting": true, "returning": true, "last_updated": 1746237357, "scooters": 4, "has_scooters": true, "virtual": true}}, {"id": "0f1538e12a1cccf0e8bdf1a043cce62f", "name": "Beniajan mercadona", "latitude": 37.9717975, "longitude": -1.0712213, "timestamp": "2025-05-03T02:57:47.125830+00:00Z", "free_bikes": 0, "empty_slots": null, "extra": {"uid": "d07946ba-7351-4032-b92a-77b0d51f0180", "renting": true, "returning": true, "last_updated": 1746047579, "scooters": 4, "has_scooters": true, "virtual": true}}, {"id": "0f6564bc1743384ccc79669e3e5fd8e2", "name": "C. Bolos", "latitude": 37.985207, "longitude": -1.1393156, "timestamp": "2025-05-03T02:57:47.112272+00:00Z", "free_bikes": 0, "empty_slots": null, "extra": {"uid": "86f0fb71-6af5-456e-b8c8-9953b3110784", "renting": true, "returning": true, "last_updated": 1746116527, "scooters": 4, "has_scooters": true, "virtual": true}}, {"id": "0fb3e0ded89fe01baa227a4ac536174a", "name": "JC1 Senda de Granada", "latitude": 38.00960267, "longitude": -1.148056807, "timestamp": "2025-05-03T02:57:47.112689+00:00Z", "free_bikes": 5, "empty_slots": null, "extra": {"uid": "8a419904-53af-49db-8062-2637358eb088", "renting": true, "returning": true, "last_updated": 1746240866, "scooters": 4, "has_scooters": true, "ebikes": 5, "has_ebikes": true, "virtual": true}}, {"id": "0fe226159d34a346a46caf8aa0bf2d94", "name": "Plaza de la Ermita La \u00d1ora", "latitude": 37.991032, "longitude": -1.1981183, "timestamp": "2025-05-03T02:57:47.110880+00:00Z", "free_bikes": 0, "empty_slots": null, "extra": {"uid": "9ac8c6dd-f1d1-42f8-a0a0-e5eb033b75d8", "renting": true, "returning": true, "last_updated": 1746185571, "scooters": 4, "has_scooters": true, "virtual": true}}, {"id": "1020f2e072105f17fdf305715f508622", "name": "Campus Murcia Rio Pte Tocinos", "latitude": 37.9890674, "longitude": -1.1022578, "timestamp": "2025-05-03T02:57:47.110131+00:00Z", "free_bikes": 0, "empty_slots": null, "extra": {"uid": "a56806e8-4606-45f9-a9c3-478490718618", "renting": true, "returning": true, "last_updated": 1738749850, "scooters": 4, "has_scooters": true, "virtual": true}}, {"id": "10a5557606003c4c3787d0851e57ba30", "name": "Calle Sta. Teresa", "latitude": 37.98705405, "longitude": -1.135210271, "timestamp": "2025-05-03T02:57:47.024572+00:00Z", "free_bikes": 0, "empty_slots": null, "extra": {"uid": "c781cf52-7a31-417a-ae43-dda51fa38fd4", "renting": true, "returning": true, "last_updated": 1746195520, "scooters": 4, "has_scooters": true, "virtual": true}}, {"id": "10d4fe44a29ee16732e2ea9b0e0d0e50", "name": "SANTA CRUZ ERMITA", "latitude": 38.01885, "longitude": -1.049705, "timestamp": "2025-05-03T02:57:47.110994+00:00Z", "free_bikes": 0, "empty_slots": null, "extra": {"uid": "b2eb2086-9235-48d5-9584-5a743ba7a1f0", "renting": true, "returning": true, "last_updated": 1741283458, "scooters": 4, "has_scooters": true, "virtual": true}}, {"id": "111e47946f8849a5c217b4aaa82d6fe8", "name": "EL RANERO. JUNTO TRIGO LIMPIO.", "latitude": 37.995994, "longitude": -1.147416, "timestamp": "2025-05-03T02:57:47.110699+00:00Z", "free_bikes": 0, "empty_slots": null, "extra": {"uid": "c661d279-0f50-44a7-a44a-d9002809d300", "renting": true, "returning": true, "last_updated": 1746230090, "scooters": 5, "has_scooters": true, "virtual": true}}, {"id": "115d668ee1c6134b86f0e07669f74d60", "name": "SUPERDUMBO Calle Escultor Roque L\u00f3pez", "latitude": 37.99156611, "longitude": -1.131842345, "timestamp": "2025-05-03T02:57:47.114432+00:00Z", "free_bikes": 0, "empty_slots": null, "extra": {"uid": "4dfee2b5-dbcb-43b0-9d23-778ce51bca20", "renting": true, "returning": true, "last_updated": 1746229180, "scooters": 4, "has_scooters": true, "virtual": true}}, {"id": "12c36643cca7779103cbc47afd0612e9", "name": "Av. P\u00edo Baroja", "latitude": 37.97565552, "longitude": -1.120225781, "timestamp": "2025-05-03T02:57:47.111878+00:00Z", "free_bikes": 0, "empty_slots": null, "extra": {"uid": "5d70dc72-2cb1-4011-a025-f5f51dda6ea0", "renting": true, "returning": true, "last_updated": 1746038114, "scooters": 4, "has_scooters": true, "virtual": true}}, {"id": "13836533947cad224a688ac155de7898", "name": "Avda Primero de Mayo", "latitude": 37.9837263, "longitude": -1.1147854, "timestamp": "2025-05-03T02:57:47.125837+00:00Z", "free_bikes": 5, "empty_slots": null, "extra": {"uid": "f13c6bad-68ba-4a0d-8220-e4d13b56a320", "renting": true, "returning": true, "last_updated": 1746236652, "scooters": 4, "has_scooters": true, "ebikes": 5, "has_ebikes": true, "virtual": true}}, {"id": "14036d9e58f26fd4a6a486cf00b47307", "name": "Calle Torre", "latitude": 37.993312, "longitude": -1.1008973, "timestamp": "2025-05-03T02:57:47.112292+00:00Z", "free_bikes": 0, "empty_slots": null, "extra": {"uid": "f0cbf0da-bf73-40bc-8227-745ebcf9133c", "renting": true, "returning": true, "last_updated": 1746232110, "scooters": 4, "has_scooters": true, "virtual": true}}, {"id": "153a4d1d1c1bc51a0c83e65a4c6a0971", "name": "Calle Jer\u00f3nimo Guijarro, 1", "latitude": 37.9914222, "longitude": -1.1381092, "timestamp": "2025-05-03T02:57:47.112658+00:00Z", "free_bikes": 0, "empty_slots": null, "extra": {"uid": "7f29d26a-3dc7-4e4e-bcef-79c5aaf21e98", "renting": true, "returning": true, "last_updated": 1746238984, "scooters": 4, "has_scooters": true, "virtual": true}}, {"id": "159793713da122b9fe733089eeb70424", "name": "Calle San Pedro", "latitude": 37.984517, "longitude": -1.133958, "timestamp": "2025-05-03T02:57:47.112099+00:00Z", "free_bikes": 0, "empty_slots": null, "extra": {"uid": "66076344-3891-4ea1-81c9-bf166cb5172c", "renting": true, "returning": true, "last_updated": 1746225592, "scooters": 4, "has_scooters": true, "virtual": true}}, {"id": "15feaaf953e61dc3920b8895154fbfe9", "name": "Sta Catalina BigMat", "latitude": 37.9592198, "longitude": -1.1364878, "timestamp": "2025-05-03T02:57:47.023385+00:00Z", "free_bikes": 0, "empty_slots": null, "extra": {"uid": "566300ba-ae0e-4ce7-b5c7-15ec6eca73b4", "renting": true, "returning": true, "last_updated": 1739290265, "scooters": 4, "has_scooters": true, "virtual": true}}, {"id": "1609448b0e5847b32b5e388b334959c5", "name": "PUERTA HOSPITAL MORALES MESEGUER", "latitude": 37.993918, "longitude": -1.129103, "timestamp": "2025-05-03T02:57:47.110574+00:00Z", "free_bikes": 0, "empty_slots": null, "extra": {"uid": "4655ca23-7a4b-46bc-a572-7a258afa8f50", "renting": true, "returning": true, "last_updated": 1746197074, "scooters": 4, "has_scooters": true, "virtual": true}}, {"id": "16106c79ba706b80143e30f3ea84aaa4", "name": "HOSPITAL REINA SOFIA, DETR\u00c1S.", "latitude": 37.9834787, "longitude": -1.1201793, "timestamp": "2025-05-03T02:57:47.112058+00:00Z", "free_bikes": 0, "empty_slots": null, "extra": {"uid": "e43f0348-ccfc-40b3-8fc5-6bf8cc273ce4", "renting": true, "returning": true, "last_updated": 1745438867, "scooters": 4, "has_scooters": true, "virtual": true}}, {"id": "162570647c3c5ab68c6ab94ce1fb4547", "name": "RONDA SUR. AMUSAL", "latitude": 37.967716, "longitude": -1.1351762, "timestamp": "2025-05-03T02:57:47.111867+00:00Z", "free_bikes": 0, "empty_slots": null, "extra": {"uid": "ce9705e4-c421-40f9-a43c-9b1129935710", "renting": true, "returning": true, "last_updated": 1743971876, "scooters": 4, "has_scooters": true, "virtual": true}}, {"id": "16fbc557b85195ee1cf4a2c7d1ae130a", "name": "Sta Maria de Gracia Espacio Joven", "latitude": 37.9957304, "longitude": -1.1413192, "timestamp": "2025-05-03T02:57:47.110460+00:00Z", "free_bikes": 0, "empty_slots": null, "extra": {"uid": "6bc48ac9-00ee-4f3b-a10b-b5c0c27d25d8", "renting": true, "returning": true, "last_updated": 1746209902, "scooters": 4, "has_scooters": true, "virtual": true}}, {"id": "172efe68bec2a8f7f62da0497ab3812d", "name": "Centro Cultural de Guadalupe", "latitude": 38.00171982, "longitude": -1.172913856, "timestamp": "2025-05-03T02:57:47.111252+00:00Z", "free_bikes": 0, "empty_slots": null, "extra": {"uid": "abc51bba-e223-4bb6-9f07-5f269b50cbdc", "renting": true, "returning": true, "last_updated": 1746222651, "scooters": 4, "has_scooters": true, "virtual": true}}, {"id": "176137dff8cf7d82870f07ad835fb979", "name": "84", "latitude": 37.98712377, "longitude": -1.135980595, "timestamp": "2025-05-03T02:57:47.023482+00:00Z", "free_bikes": 0, "empty_slots": null, "extra": {"uid": "8b3670c6-cc21-4331-9d17-d5302e39cfdc", "renting": true, "returning": true, "last_updated": 1746230850, "scooters": 4, "has_scooters": true, "virtual": true}}, {"id": "17ecaac701bd90776b5adc0f0b01d0b8", "name": "Los Dolores 4", "latitude": 37.9740776, "longitude": -1.1062845, "timestamp": "2025-05-03T02:57:47.023268+00:00Z", "free_bikes": 0, "empty_slots": null, "extra": {"uid": "42dd83e1-be6b-4c0b-a6cf-89f56a1dbb48", "renting": true, "returning": true, "last_updated": 1744055820, "scooters": 4, "has_scooters": true, "virtual": true}}, {"id": "17f1d7c9f449ffa5c37145aa7153cdc1", "name": "Glorieta de Espa\u00f1a/Puente Viejo", "latitude": 37.98343611, "longitude": -1.13182259, "timestamp": "2025-05-03T02:57:47.023328+00:00Z", "free_bikes": 5, "empty_slots": null, "extra": {"uid": "0d256064-a74a-4c81-85ec-85e8b2621c2c", "renting": true, "returning": true, "last_updated": 1746208926, "scooters": 4, "has_scooters": true, "ebikes": 5, "has_ebikes": true, "virtual": true}}, {"id": "17f530c4a06fe58229748ab804518346", "name": "Avenida Ciudad de Almer\u00eda", "latitude": 37.975769, "longitude": -1.13937, "timestamp": "2025-05-03T02:57:47.125480+00:00Z", "free_bikes": 0, "empty_slots": null, "extra": {"uid": "3c9a55cf-6b0c-48b3-9b26-058c2dc1c5b4", "renting": true, "returning": true, "last_updated": 1746225106, "scooters": 4, "has_scooters": true, "virtual": true}}, {"id": "18aebd419e02d6158e8e3446b91b4f99", "name": "152", "latitude": 37.9921098, "longitude": -1.126798, "timestamp": "2025-05-03T02:57:47.110492+00:00Z", "free_bikes": 0, "empty_slots": null, "extra": {"uid": "7e2c23ad-6ab9-4655-b018-8616beeee27c", "renting": true, "returning": true, "last_updated": 1746217988, "scooters": 4, "has_scooters": true, "virtual": true}}, {"id": "190418e0ee0a5890e0a080cba41476de", "name": "Centro de Salud Santa Mar\u00eda de Gracia", "latitude": 37.99585405, "longitude": -1.139168984, "timestamp": "2025-05-03T02:57:47.125879+00:00Z", "free_bikes": 0, "empty_slots": null, "extra": {"uid": "7974d272-e43b-4504-9956-f11f28774be0", "renting": true, "returning": true, "last_updated": 1746208057, "scooters": 4, "has_scooters": true, "virtual": true}}, {"id": "1913e66a9aec11d18cfcb080c13e15a9", "name": "El Port\u00f3n", "latitude": 37.99252794, "longitude": -1.18718589, "timestamp": "2025-05-03T02:57:47.111346+00:00Z", "free_bikes": 5, "empty_slots": null, "extra": {"uid": "6738dedb-41ad-4a57-9169-2364e05ab520", "renting": true, "returning": true, "last_updated": 1746223995, "scooters": 4, "has_scooters": true, "ebikes": 5, "has_ebikes": true, "virtual": true}}, {"id": "19dc854132f344636e0ba9ff6cb44292", "name": "Santo \u00c1ngel Mercadona", "latitude": 37.9438501, "longitude": -1.130991, "timestamp": "2025-05-03T02:57:47.023044+00:00Z", "free_bikes": 0, "empty_slots": null, "extra": {"uid": "6eb091f5-5ea0-41c7-ba17-b7d7a413f088", "renting": true, "returning": true, "last_updated": 1741594080, "scooters": 4, "has_scooters": true, "virtual": true}}, {"id": "1a94ea960b28f29501966a972f275bf6", "name": "519", "latitude": 37.9908222, "longitude": -1.1091685, "timestamp": "2025-05-03T02:57:47.111026+00:00Z", "free_bikes": 0, "empty_slots": null, "extra": {"uid": "51a4f419-84e6-4e7b-8302-d35d942af770", "renting": true, "returning": true, "last_updated": 1745469100, "scooters": 4, "has_scooters": true, "virtual": true}}, {"id": "1b4192180694c30ef423f224bcf7a9e2", "name": "Barriomar 2", "latitude": 37.9753856, "longitude": -1.1434569, "timestamp": "2025-05-03T02:57:47.125779+00:00Z", "free_bikes": 0, "empty_slots": null, "extra": {"uid": "abb50fee-0ef6-4baa-9f0f-1d2bc522a9f4", "renting": true, "returning": true, "last_updated": 1746218142, "scooters": 4, "has_scooters": true, "virtual": true}}, {"id": "1bcb3114d01745ebb23d77803d774ab1", "name": "Consejer\u00eda de Sanidad", "latitude": 37.99223299, "longitude": -1.127502046, "timestamp": "2025-05-03T02:57:47.110830+00:00Z", "free_bikes": 0, "empty_slots": null, "extra": {"uid": "f2fcf02e-6e44-45d3-9941-8b441eec425c", "renting": true, "returning": true, "last_updated": 1746219339, "scooters": 4, "has_scooters": true, "virtual": true}}, {"id": "1c2a796c0f02438c21e597fe0d091687", "name": "Avda Pio Baroja", "latitude": 37.976536, "longitude": -1.120745, "timestamp": "2025-05-03T02:57:47.112774+00:00Z", "free_bikes": 5, "empty_slots": null, "extra": {"uid": "c0877734-3751-42b4-b653-9da280b02bac", "renting": true, "returning": true, "last_updated": 1746222679, "scooters": 4, "has_scooters": true, "ebikes": 5, "has_ebikes": true, "virtual": true}}, {"id": "1c73dfd60e309180062a9c2dcb577a91", "name": "Hotel Casa Emilio", "latitude": 37.9807235, "longitude": -1.1306581, "timestamp": "2025-05-03T02:57:47.113056+00:00Z", "free_bikes": 0, "empty_slots": null, "extra": {"uid": "1a7b3aa8-e5e8-48fa-82c2-ceb22579ed90", "renting": true, "returning": true, "last_updated": 1745709448, "scooters": 4, "has_scooters": true, "virtual": true}}, {"id": "1c98f63fab5c3968ea943c1af5dc4152", "name": "C. Clavel", "latitude": 38.0099479, "longitude": -1.1527436, "timestamp": "2025-05-03T02:57:47.112532+00:00Z", "free_bikes": 0, "empty_slots": null, "extra": {"uid": "57657a4e-7159-48d5-a399-551f868cfdec", "renting": true, "returning": true, "last_updated": 1746190927, "scooters": 4, "has_scooters": true, "virtual": true}}, {"id": "1cb714dad2286f103570572d3c8fc07a", "name": "Entrada Algezares", "latitude": 37.9463976, "longitude": -1.1120744, "timestamp": "2025-05-03T02:57:47.112141+00:00Z", "free_bikes": 0, "empty_slots": null, "extra": {"uid": "f52eca05-e7d2-418c-809d-dde9baa59340", "renting": true, "returning": true, "last_updated": 1746227388, "scooters": 4, "has_scooters": true, "virtual": true}}, {"id": "1d07e16024f3a6588a68b7ed5b3f50df", "name": "Av. Miguel Indur\u00e1in", "latitude": 37.9959616, "longitude": -1.1123387, "timestamp": "2025-05-03T02:57:47.111723+00:00Z", "free_bikes": 0, "empty_slots": null, "extra": {"uid": "5d36dfd9-cf06-4b17-8845-f8ee871cd1e8", "renting": true, "returning": true, "last_updated": 1746233533, "scooters": 4, "has_scooters": true, "virtual": true}}, {"id": "1d8205e32139c5e3f94622cd5da46c8e", "name": "EL RAAL", "latitude": 38.032405, "longitude": -1.042077, "timestamp": "2025-05-03T02:57:47.125372+00:00Z", "free_bikes": 0, "empty_slots": null, "extra": {"uid": "c9686c06-1a82-4c9f-978d-5c2b82f4304c", "renting": true, "returning": true, "last_updated": 1746102456, "scooters": 4, "has_scooters": true, "virtual": true}}, {"id": "1ed764c565e48220905741162552a582", "name": "C. Julio Cortazar", "latitude": 38.0213434, "longitude": -1.138012, "timestamp": "2025-05-03T02:57:47.111161+00:00Z", "free_bikes": 0, "empty_slots": null, "extra": {"uid": "eca47cb9-d1a6-4548-b7f7-76cb065e6a98", "renting": true, "returning": true, "last_updated": 1746210137, "scooters": 4, "has_scooters": true, "virtual": true}}, {"id": "1fd6f8c0909c0b97005ec9032832ff24", "name": "LOS DOLORES A LOS GARRES 2", "latitude": 37.972199, "longitude": -1.099945, "timestamp": "2025-05-03T02:57:47.114091+00:00Z", "free_bikes": 0, "empty_slots": null, "extra": {"uid": "a5a2c28a-7d96-4dc3-89cd-ae0273789f30", "renting": true, "returning": true, "last_updated": 1745499957, "scooters": 4, "has_scooters": true, "virtual": true}}, {"id": "207819e7b8cb85e0332ae917aede4ef5", "name": "La Alberca", "latitude": 37.942047, "longitude": -1.146671, "timestamp": "2025-05-03T02:57:47.111220+00:00Z", "free_bikes": 5, "empty_slots": null, "extra": {"uid": "94056418-8e05-4b0d-9833-8e36cd81e4d4", "renting": true, "returning": true, "last_updated": 1746214885, "scooters": 4, "has_scooters": true, "ebikes": 5, "has_ebikes": true, "virtual": true}}, {"id": "209821a37d8d338c80b1ac198155efa2", "name": "Centro de Iniciativas Municipales de Murcia", "latitude": 38.0041974, "longitude": -1.1338296, "timestamp": "2025-05-03T02:57:47.111621+00:00Z", "free_bikes": 0, "empty_slots": null, "extra": {"uid": "e9b633b5-1b3c-4452-ad2c-fdd7aebc7c10", "renting": true, "returning": true, "last_updated": 1746236425, "scooters": 4, "has_scooters": true, "virtual": true}}, {"id": "2128c9441bd002d32ebb2c06c998aa0f", "name": "C. San Rafael", "latitude": 38.004394, "longitude": -1.128935, "timestamp": "2025-05-03T02:57:47.024286+00:00Z", "free_bikes": 0, "empty_slots": null, "extra": {"uid": "13491fac-0213-44d4-a137-c8f5335698a4", "renting": true, "returning": true, "last_updated": 1746223466, "scooters": 4, "has_scooters": true, "virtual": true}}, {"id": "218c9373ca0658c4db9655987f367442", "name": "Calle Madre de Dios", "latitude": 37.9842907, "longitude": -1.1316779, "timestamp": "2025-05-03T02:57:47.111376+00:00Z", "free_bikes": 0, "empty_slots": null, "extra": {"uid": "b6bdfb7a-ee90-4301-a6ae-d9a610ab7104", "renting": true, "returning": true, "last_updated": 1746205932, "scooters": 4, "has_scooters": true, "virtual": true}}, {"id": "2226fd6e891d6dbc8ca2358dd47eb1ca", "name": "ROTONDA ZIG ZAG, JUNTO AVDA PRINCIPE DE ASTURIAS", "latitude": 37.99992663, "longitude": -1.137762333, "timestamp": "2025-05-03T02:57:47.110870+00:00Z", "free_bikes": 0, "empty_slots": null, "extra": {"uid": "62a9f15a-44fc-45f7-b3ad-16335cc80158", "renting": true, "returning": true, "last_updated": 1746236717, "scooters": 4, "has_scooters": true, "virtual": true}}, {"id": "22bb92c7ab7d336c4cd8441688c1e1a2", "name": "Plano de San Francisco", "latitude": 37.983594, "longitude": -1.133515, "timestamp": "2025-05-03T02:57:47.112669+00:00Z", "free_bikes": 5, "empty_slots": null, "extra": {"uid": "35464711-ca71-445f-837a-413bc928f15c", "renting": true, "returning": true, "last_updated": 1746237190, "scooters": 4, "has_scooters": true, "ebikes": 5, "has_ebikes": true, "virtual": true}}, {"id": "22c346e05f36b38bfccbaec7f52c75e9", "name": "LA GLORIETA JUNTO ESTACI\u00d3N MUY BICI", "latitude": 37.9830266, "longitude": -1.1301576, "timestamp": "2025-05-03T02:57:47.112570+00:00Z", "free_bikes": 0, "empty_slots": null, "extra": {"uid": "404402d9-9084-4d23-b74c-aad6cab650d8", "renting": true, "returning": true, "last_updated": 1746216881, "scooters": 4, "has_scooters": true, "virtual": true}}, {"id": "23039bf844d259b9428bdeb1bdc4127d", "name": "C. Alcalde Clemente", "latitude": 37.9509736, "longitude": -1.1797033, "timestamp": "2025-05-03T02:57:47.024582+00:00Z", "free_bikes": 0, "empty_slots": null, "extra": {"uid": "819f1202-3d40-4f21-8dd9-64ec58675024", "renting": true, "returning": true, "last_updated": 1738749848, "scooters": 4, "has_scooters": true, "virtual": true}}, {"id": "23aefd5760991179cc072723968bc3f1", "name": "Campus Inform\u00e1tica", "latitude": 38.024553, "longitude": -1.174313, "timestamp": "2025-05-03T02:57:47.112374+00:00Z", "free_bikes": 0, "empty_slots": null, "extra": {"uid": "b84660a4-9430-4101-8e30-1aceb59ca028", "renting": true, "returning": true, "last_updated": 1745920011, "scooters": 4, "has_scooters": true, "virtual": true}}, {"id": "24725af5e0f4ed983ab6765ece854485", "name": "BENIAJAN V\u00cdA VERDE 1", "latitude": 37.972597, "longitude": -1.075726, "timestamp": "2025-05-03T02:57:47.111953+00:00Z", "free_bikes": 0, "empty_slots": null, "extra": {"uid": "bfcb237a-3c53-4d76-a853-450810867c3c", "renting": true, "returning": true, "last_updated": 1738749848, "scooters": 4, "has_scooters": true, "virtual": true}}, {"id": "24891829307ac1a655ef68e028b3df2b", "name": "44", "latitude": 37.9523042, "longitude": -1.1835714, "timestamp": "2025-05-03T02:57:47.110646+00:00Z", "free_bikes": 0, "empty_slots": null, "extra": {"uid": "80bc2093-dddb-48a5-802e-3249bceee43c", "renting": true, "returning": true, "last_updated": 1743263016, "scooters": 4, "has_scooters": true, "virtual": true}}, {"id": "24eec8f1ab92a5c7d3c4bc949025b50f", "name": "Av. de los Dolores, 30", "latitude": 37.980037, "longitude": -1.106645, "timestamp": "2025-05-03T02:57:47.111396+00:00Z", "free_bikes": 0, "empty_slots": null, "extra": {"uid": "231a0cf0-ae86-432b-98d6-10c54782dfdc", "renting": true, "returning": true, "last_updated": 1746044434, "scooters": 4, "has_scooters": true, "virtual": true}}, {"id": "250c03ec65c40e9496a8e07a9fa675c5", "name": "ESQUINA COLEGIO DEL CARMEN. CALLE PARALERA A CALLE CARTAGENACallej\u00f3n del Le\u00f3n", "latitude": 37.980174, "longitude": -1.132422, "timestamp": "2025-05-03T02:57:47.113168+00:00Z", "free_bikes": 0, "empty_slots": null, "extra": {"uid": "ac332264-a714-4cc9-8523-4f2c16de4084", "renting": true, "returning": true, "last_updated": 1746144827, "scooters": 4, "has_scooters": true, "virtual": true}}, {"id": "25d531eb3492f236b200e99cb9f647b3", "name": "Piscina Municipal Puente Tocinos", "latitude": 37.99739915, "longitude": -1.100196487, "timestamp": "2025-05-03T02:57:47.112492+00:00Z", "free_bikes": 0, "empty_slots": null, "extra": {"uid": "de81930c-e02d-4f31-9a68-8bca3c6a1204", "renting": true, "returning": true, "last_updated": 1746109328, "scooters": 4, "has_scooters": true, "virtual": true}}, {"id": "25e4e76543fa342f0a5eaea8c5f93b71", "name": "Ronda de Garay (Plaza de toros)", "latitude": 37.985331, "longitude": -1.123441, "timestamp": "2025-05-03T02:57:47.114185+00:00Z", "free_bikes": 5, "empty_slots": null, "extra": {"uid": "b9c4005e-8cfb-4d55-b0e5-c5a44a75e7b0", "renting": true, "returning": true, "last_updated": 1746240111, "scooters": 4, "has_scooters": true, "ebikes": 5, "has_ebikes": true, "virtual": true}}, {"id": "25e69b73c2b00d1e0a6f00cc1312461f", "name": "UMU Jara Carrillo", "latitude": 37.99155815, "longitude": -1.126872609, "timestamp": "2025-05-03T02:57:47.110408+00:00Z", "free_bikes": 5, "empty_slots": null, "extra": {"uid": "8e6d4cc7-03a8-4c6d-a236-367a89f09018", "renting": true, "returning": true, "last_updated": 1746006453, "scooters": 4, "has_scooters": true, "ebikes": 5, "has_ebikes": true, "virtual": true}}, {"id": "27015588e2e246b235282193a090505e", "name": "Av. Pio Baroja 2", "latitude": 37.97614065, "longitude": -1.121038592, "timestamp": "2025-05-03T02:57:47.113159+00:00Z", "free_bikes": 0, "empty_slots": null, "extra": {"uid": "de13ede2-0dc1-40bd-9b72-6158682c9b84", "renting": true, "returning": true, "last_updated": 1746227579, "scooters": 4, "has_scooters": true, "virtual": true}}, {"id": "271d875b438c292b42a31c4bba8402ba", "name": "Plaza Cetina", "latitude": 37.985218, "longitude": -1.12757, "timestamp": "2025-05-03T02:57:47.113213+00:00Z", "free_bikes": 0, "empty_slots": null, "extra": {"uid": "25d6ee59-e886-469e-a40a-03cb10335ad4", "renting": true, "returning": true, "last_updated": 1746196031, "scooters": 4, "has_scooters": true, "virtual": true}}, {"id": "27f5034dfce67937a1a2bfdcd6c94b2d", "name": "Apartamur", "latitude": 37.999852, "longitude": -1.138372, "timestamp": "2025-05-03T02:57:47.112417+00:00Z", "free_bikes": 0, "empty_slots": null, "extra": {"uid": "ac476055-2d59-4773-ba49-94d95b449d84", "renting": true, "returning": true, "last_updated": 1746197608, "scooters": 4, "has_scooters": true, "virtual": true}}, {"id": "2811b915172dc933f817b2eb1b769b13", "name": "Malec\u00f3n", "latitude": 37.9831661, "longitude": -1.1336502, "timestamp": "2025-05-03T02:57:47.110940+00:00Z", "free_bikes": 5, "empty_slots": null, "extra": {"uid": "4e38c202-98a6-4018-9165-014d193d556c", "renting": true, "returning": true, "last_updated": 1746232261, "scooters": 4, "has_scooters": true, "ebikes": 5, "has_ebikes": true, "virtual": true}}, {"id": "29361ada48bdcdcbbeced1f45abfef2d", "name": "C. Maestro Francis Soto", "latitude": 37.976369, "longitude": -1.105887, "timestamp": "2025-05-03T02:57:47.023963+00:00Z", "free_bikes": 0, "empty_slots": null, "extra": {"uid": "336921e1-44b8-47c4-88de-3e21a47a17e4", "renting": true, "returning": true, "last_updated": 1744885302, "scooters": 4, "has_scooters": true, "virtual": true}}, {"id": "29579f8acb55ba1d61dc7a0e75783918", "name": "LLANO DE BRUJAS A SANTA CRUZ ", "latitude": 38.006861, "longitude": -1.067219, "timestamp": "2025-05-03T02:57:47.125793+00:00Z", "free_bikes": 0, "empty_slots": null, "extra": {"uid": "e1cf09c5-8f7b-4229-af3b-2262a55d214c", "renting": true, "returning": true, "last_updated": 1743327311, "scooters": 4, "has_scooters": true, "virtual": true}}, {"id": "296b6a5b6c81b152ab332cfe93481ce3", "name": "ALJUCER JUNTO PISCINA MUNICIPAL", "latitude": 37.958757, "longitude": -1.149889, "timestamp": "2025-05-03T02:57:47.113123+00:00Z", "free_bikes": 0, "empty_slots": null, "extra": {"uid": "d60df372-6ede-418f-b92d-cd977a9f0fa4", "renting": true, "returning": true, "last_updated": 1746131085, "scooters": 4, "has_scooters": true, "virtual": true}}, {"id": "29a9856a07f468990e37b02c3dd1d1d9", "name": "Calle Alberto Sevilla", "latitude": 37.97899, "longitude": -1.114574, "timestamp": "2025-05-03T02:57:47.125284+00:00Z", "free_bikes": 0, "empty_slots": null, "extra": {"uid": "22d550c1-75f5-4d70-bb7a-b2db377c35ac", "renting": true, "returning": true, "last_updated": 1746233668, "scooters": 4, "has_scooters": true, "virtual": true}}, {"id": "2abdfab38a380026610408e37d4b05a3", "name": "Calle Huerto Pomares, 2", "latitude": 37.9852888, "longitude": -1.1415052, "timestamp": "2025-05-03T02:57:47.110441+00:00Z", "free_bikes": 0, "empty_slots": null, "extra": {"uid": "1d150b3d-925b-498e-a8b0-418d6ac53010", "renting": true, "returning": true, "last_updated": 1746212640, "scooters": 4, "has_scooters": true, "virtual": true}}, {"id": "2b8b823d4d01d2b1f27e7a1afbfeef1e", "name": "EL PALMAR C. MAYOR CON C. ATENEA", "latitude": 37.938048, "longitude": -1.162474, "timestamp": "2025-05-03T02:57:47.114203+00:00Z", "free_bikes": 0, "empty_slots": null, "extra": {"uid": "e42c79b1-0b51-4363-9882-c53c16540d38", "renting": true, "returning": true, "last_updated": 1746158890, "scooters": 4, "has_scooters": true, "virtual": true}}, {"id": "2c2ca3ff753050468a73114ce0fa0cf9", "name": "Calle Fernando Oliva Palmar", "latitude": 37.939234, "longitude": -1.156591, "timestamp": "2025-05-03T02:57:47.023317+00:00Z", "free_bikes": 0, "empty_slots": null, "extra": {"uid": "ea8458ba-4ae2-4be2-8a02-ebbbc01a8c70", "renting": true, "returning": true, "last_updated": 1745711436, "scooters": 4, "has_scooters": true, "virtual": true}}, {"id": "2c53fbc0f458fedd2d4da6c6612f2440", "name": "UMU Espinardo Aulario Norte", "latitude": 38.022835, "longitude": -1.172708, "timestamp": "2025-05-03T02:57:47.125690+00:00Z", "free_bikes": 5, "empty_slots": null, "extra": {"uid": "1d1cbd6b-479c-49a4-b728-ed1f25c89120", "renting": true, "returning": true, "last_updated": 1746211466, "scooters": 4, "has_scooters": true, "ebikes": 5, "has_ebikes": true, "virtual": true}}, {"id": "2cc2757cabfa22fd6958111681fa0259", "name": "C. Costa Rica", "latitude": 37.96119105, "longitude": -1.193600426, "timestamp": "2025-05-03T02:57:47.114149+00:00Z", "free_bikes": 0, "empty_slots": null, "extra": {"uid": "eb46dade-e852-4690-ac75-0418767b0624", "renting": true, "returning": true, "last_updated": 1738749849, "scooters": 4, "has_scooters": true, "virtual": true}}, {"id": "2ce9b6cf9ebbc6774c9cdd9ff4053bd8", "name": "HACIENDA. Calle Acisclo Diaz", "latitude": 37.98771125, "longitude": -1.132315667, "timestamp": "2025-05-03T02:57:47.112908+00:00Z", "free_bikes": 0, "empty_slots": null, "extra": {"uid": "239e521e-147d-4893-9524-6a38a5cad3c4", "renting": true, "returning": true, "last_updated": 1746137861, "scooters": 4, "has_scooters": true, "virtual": true}}, {"id": "2cfc031558393e98f24496ca51c9605b", "name": "Los Dolores 3", "latitude": 37.9749471, "longitude": -1.1069406, "timestamp": "2025-05-03T02:57:47.111191+00:00Z", "free_bikes": 0, "empty_slots": null, "extra": {"uid": "f7d6c98f-0389-48b4-a9c4-11c14a85eb34", "renting": true, "returning": true, "last_updated": 1745951034, "scooters": 4, "has_scooters": true, "virtual": true}}, {"id": "2dd56b56c9fd1ddd4703abd8a1b30648", "name": "Av. Zarandona", "latitude": 38.005863, "longitude": -1.117532, "timestamp": "2025-05-03T02:57:47.113221+00:00Z", "free_bikes": 0, "empty_slots": null, "extra": {"uid": "6cc7624a-610c-4402-9366-58e5312a26a0", "renting": true, "returning": true, "last_updated": 1746234213, "scooters": 4, "has_scooters": true, "virtual": true}}, {"id": "2de3536daa982d346ec3125a1b546174", "name": "PUENTE TOCINOS JUNTO CHURRER\u00cdA", "latitude": 37.993867, "longitude": -1.101388, "timestamp": "2025-05-03T02:57:47.125381+00:00Z", "free_bikes": 0, "empty_slots": null, "extra": {"uid": "81bc429e-9c5a-46a7-ae32-305dde30e488", "renting": true, "returning": true, "last_updated": 1745742116, "scooters": 2, "has_scooters": true, "virtual": true}}, {"id": "2e1ab915494be16e0ea34ffc4ce5c724", "name": "Era Alta bus", "latitude": 37.9682111, "longitude": -1.1688815, "timestamp": "2025-05-03T02:57:47.112048+00:00Z", "free_bikes": 0, "empty_slots": null, "extra": {"uid": "143a3be2-4eb9-4b55-a47f-75a20c8e7cb4", "renting": true, "returning": true, "last_updated": 1746228326, "scooters": 4, "has_scooters": true, "virtual": true}}, {"id": "2ea99190d8904ae9bb5396d4988299d2", "name": "Pl. Circular CAJAMAR", "latitude": 37.9924797, "longitude": -1.1295664, "timestamp": "2025-05-03T02:57:47.125927+00:00Z", "free_bikes": 0, "empty_slots": null, "extra": {"uid": "8b718cb2-7a21-49ed-8ef1-19f027304de0", "renting": true, "returning": true, "last_updated": 1746202526, "scooters": 4, "has_scooters": true, "virtual": true}}, {"id": "2efa6a1a6d8a85a5b7a30704ae154ad2", "name": "Auditorio Cabezo de Torres", "latitude": 38.02195203, "longitude": -1.119862444, "timestamp": "2025-05-03T02:57:47.112470+00:00Z", "free_bikes": 0, "empty_slots": null, "extra": {"uid": "ca1b6727-ddf1-434f-8d1d-b06b41d55908", "renting": true, "returning": true, "last_updated": 1746114734, "scooters": 4, "has_scooters": true, "virtual": true}}, {"id": "2f26ecda604411011e2e9749ec09d563", "name": "B&B Hotel Murcia", "latitude": 38.03182718, "longitude": -1.151324755, "timestamp": "2025-05-03T02:57:47.111150+00:00Z", "free_bikes": 0, "empty_slots": null, "extra": {"uid": "c2b2cb25-d180-4a63-9206-b9996449fc8c", "renting": true, "returning": true, "last_updated": 1744842532, "scooters": 4, "has_scooters": true, "virtual": true}}, {"id": "309987be2d4542982971d2f0d2228c52", "name": "Avenida de Santiago", "latitude": 38.00273611, "longitude": -1.120992359, "timestamp": "2025-05-03T02:57:47.024164+00:00Z", "free_bikes": 0, "empty_slots": null, "extra": {"uid": "8d4d04d1-bdce-4755-950a-5a5ae6dd9fe0", "renting": true, "returning": true, "last_updated": 1746214466, "scooters": 4, "has_scooters": true, "virtual": true}}, {"id": "30c9a8ee4a83e8f584cc0420979b7561", "name": "MONTEVIDA PLAZA CENTRAL", "latitude": 37.93473, "longitude": -1.150809, "timestamp": "2025-05-03T02:57:47.110688+00:00Z", "free_bikes": 0, "empty_slots": null, "extra": {"uid": "7aaaa095-5af4-4afa-b76b-24900ddceaf4", "renting": true, "returning": true, "last_updated": 1738749852, "scooters": 4, "has_scooters": true, "virtual": true}}, {"id": "30e418b2312abb83da6420d3924161df", "name": "Santa Catalina", "latitude": 37.985095, "longitude": -1.131789, "timestamp": "2025-05-03T02:57:47.113065+00:00Z", "free_bikes": 5, "empty_slots": null, "extra": {"uid": "0b54d9aa-f226-4c19-aa35-492a233b9f28", "renting": true, "returning": true, "last_updated": 1746190972, "scooters": 4, "has_scooters": true, "ebikes": 5, "has_ebikes": true, "virtual": true}}, {"id": "31df7e6ba5c9cf1a624df81b63e20b04", "name": "Calle Periodista Antonio Herrero", "latitude": 37.9992514, "longitude": -1.129431, "timestamp": "2025-05-03T02:57:47.125606+00:00Z", "free_bikes": 0, "empty_slots": null, "extra": {"uid": "a0b59e8a-e570-4698-8e5a-2a319a6b3d3c", "renting": true, "returning": true, "last_updated": 1746181565, "scooters": 4, "has_scooters": true, "virtual": true}}, {"id": "31f30b7ede376757ce9bc82678e2dc8e", "name": "RONDA SUR KEBAB FRENTE APARCAMIENTO LA FERIA", "latitude": 37.970008, "longitude": -1.126771, "timestamp": "2025-05-03T02:57:47.111909+00:00Z", "free_bikes": 0, "empty_slots": null, "extra": {"uid": "62c265ae-3eac-4b0d-b549-003969d9b1a4", "renting": true, "returning": true, "last_updated": 1745356950, "scooters": 4, "has_scooters": true, "virtual": true}}, {"id": "326057c5052e5264594ad582d12748df", "name": "47", "latitude": 38.0213522, "longitude": -1.138017985, "timestamp": "2025-05-03T02:57:47.125981+00:00Z", "free_bikes": 0, "empty_slots": null, "extra": {"uid": "1cf3093d-0993-4a88-89e6-0ca6584aebdc", "renting": true, "returning": true, "last_updated": 1746210148, "scooters": 4, "has_scooters": true, "virtual": true}}, {"id": "329e131903bbb2dd1bf9998e6e47e2c9", "name": "Av Burgos El Palmar", "latitude": 37.9405698, "longitude": -1.1672886, "timestamp": "2025-05-03T02:57:47.024481+00:00Z", "free_bikes": 0, "empty_slots": null, "extra": {"uid": "459d3d6c-8cd4-4368-b51d-c7e127cb8b50", "renting": true, "returning": true, "last_updated": 1746141296, "scooters": 4, "has_scooters": true, "virtual": true}}, {"id": "334231e647e95b7585e4241f24f15601", "name": "Av.Marques2", "latitude": 38.007462, "longitude": -1.1522653, "timestamp": "2025-05-03T02:57:47.023830+00:00Z", "free_bikes": 0, "empty_slots": null, "extra": {"uid": "86a53998-b69c-4a3c-b112-d9347c84701c", "renting": true, "returning": true, "last_updated": 1746223092, "scooters": 4, "has_scooters": true, "virtual": true}}, {"id": "33910996f3b620b91b59455cbec91d3e", "name": "EL PALMAR C. RAMBLA CON C. ZENETA", "latitude": 37.935929, "longitude": -1.157296, "timestamp": "2025-05-03T02:57:47.125705+00:00Z", "free_bikes": 0, "empty_slots": null, "extra": {"uid": "0a233275-9125-489f-a5a4-7aeb9281ded0", "renting": true, "returning": true, "last_updated": 1746141815, "scooters": 4, "has_scooters": true, "virtual": true}}, {"id": "33b3f18ae4f23713e3ec1e8f28658ce0", "name": "Facultad Arrixaca El Palmar", "latitude": 37.9303503, "longitude": -1.1648002, "timestamp": "2025-05-03T02:57:47.125571+00:00Z", "free_bikes": 0, "empty_slots": null, "extra": {"uid": "bc677088-58c0-4ce9-b718-fa3324405cf4", "renting": true, "returning": true, "last_updated": 1745784246, "scooters": 4, "has_scooters": true, "virtual": true}}, {"id": "35a550ad564567e954a7b379e76d37f1", "name": "Avda de los Pinos", "latitude": 37.9982484, "longitude": -1.1401725, "timestamp": "2025-05-03T02:57:47.112921+00:00Z", "free_bikes": 5, "empty_slots": null, "extra": {"uid": "7490c6b2-bedd-4147-989d-25ec41ca77f0", "renting": true, "returning": true, "last_updated": 1746210906, "scooters": 4, "has_scooters": true, "ebikes": 5, "has_ebikes": true, "virtual": true}}, {"id": "35c6ddaf992a9d26808c225240d9c58b", "name": "C. R\u00edo Mi\u00f1o", "latitude": 38.01680089, "longitude": -1.182443744, "timestamp": "2025-05-03T02:57:47.111856+00:00Z", "free_bikes": 0, "empty_slots": null, "extra": {"uid": "2387c4eb-6980-448e-a92d-2ceb546f7958", "renting": true, "returning": true, "last_updated": 1746178580, "scooters": 4, "has_scooters": true, "virtual": true}}, {"id": "365442cfaba05c65683b0ff7265f7e33", "name": "Alcald\u00eda Cabezo de Torres", "latitude": 38.02399949, "longitude": -1.125878804, "timestamp": "2025-05-03T02:57:47.111641+00:00Z", "free_bikes": 0, "empty_slots": null, "extra": {"uid": "b296d165-2748-4777-989c-9a22a1b499b0", "renting": true, "returning": true, "last_updated": 1745824123, "scooters": 4, "has_scooters": true, "virtual": true}}, {"id": "36cfbe7348db5b7458abcadb7a670454", "name": "LOS GARRES A BENIAJAN 2", "latitude": 37.965325, "longitude": -1.086632, "timestamp": "2025-05-03T02:57:47.126237+00:00Z", "free_bikes": 0, "empty_slots": null, "extra": {"uid": "56ec033c-be65-4b59-8e36-4dd9c0ee8a80", "renting": true, "returning": true, "last_updated": 1745658713, "scooters": 4, "has_scooters": true, "virtual": true}}, {"id": "3719fb64cafb31287a0967435f5c649a", "name": "Paseo de Garay HOSPITAL REINA SOFIA 1", "latitude": 37.9820613, "longitude": -1.1214597, "timestamp": "2025-05-03T02:57:47.024038+00:00Z", "free_bikes": 0, "empty_slots": null, "extra": {"uid": "02f62ed4-b120-4077-a788-0c0ad0ca892c", "renting": true, "returning": true, "last_updated": 1746234433, "scooters": 4, "has_scooters": true, "virtual": true}}, {"id": "3755f571aabffa6a3f27ef18135326c8", "name": "Avda Libertad (Marvimundo y Santander)5", "latitude": 37.990666, "longitude": -1.134412, "timestamp": "2025-05-03T02:57:47.023460+00:00Z", "free_bikes": 5, "empty_slots": null, "extra": {"uid": "078d7a95-0e56-4eec-8036-fa83d546d454", "renting": true, "returning": true, "last_updated": 1746204535, "scooters": 4, "has_scooters": true, "ebikes": 5, "has_ebikes": true, "virtual": true}}, {"id": "37c7902a53823679881edb898654b087", "name": "LA \u00d1ORA. C.C. LA NORIA", "latitude": 37.9977214, "longitude": -1.1880488, "timestamp": "2025-05-03T02:57:47.111683+00:00Z", "free_bikes": 4, "empty_slots": null, "extra": {"uid": "85426241-96d7-43e5-8170-e445a7384a90", "renting": true, "returning": true, "last_updated": 1746231197, "scooters": 4, "has_scooters": true, "ebikes": 4, "has_ebikes": true, "virtual": true}}, {"id": "3826d31f7e0e3f4f71694757324c1f12", "name": "Av. de las Am\u00e9ricas 3", "latitude": 37.9583406, "longitude": -1.2089381, "timestamp": "2025-05-03T02:57:47.111487+00:00Z", "free_bikes": 0, "empty_slots": null, "extra": {"uid": "eb4eefa5-6836-476f-ac93-3385bad728d8", "renting": true, "returning": true, "last_updated": 1738749209, "scooters": 4, "has_scooters": true, "virtual": true}}, {"id": "385dad24f3fdeddf7a6324889748272d", "name": "C. JACOBO DE LAS LEYES", "latitude": 37.989345, "longitude": -1.126736, "timestamp": "2025-05-03T02:57:47.112870+00:00Z", "free_bikes": 0, "empty_slots": null, "extra": {"uid": "978d6d61-493b-44c5-aadf-b075d822c548", "renting": true, "returning": true, "last_updated": 1746218061, "scooters": 4, "has_scooters": true, "virtual": true}}, {"id": "39731f096d60b3148ba3ba24c93b0991", "name": "C. Manuel Arce Meseguer", "latitude": 37.979216, "longitude": -1.073809, "timestamp": "2025-05-03T02:57:47.111943+00:00Z", "free_bikes": 0, "empty_slots": null, "extra": {"uid": "1e73925e-0636-47e0-8946-7463cc27b100", "renting": true, "returning": true, "last_updated": 1744154546, "scooters": 4, "has_scooters": true, "virtual": true}}, {"id": "3a017c940f58fdb86ded8fea538ca2d6", "name": "EL PALMAR C. CERES", "latitude": 37.938258, "longitude": -1.16392, "timestamp": "2025-05-03T02:57:47.125445+00:00Z", "free_bikes": 0, "empty_slots": null, "extra": {"uid": "d77c2721-ab6e-45c2-b6e6-12118f95a304", "renting": true, "returning": true, "last_updated": 1738749851, "scooters": 4, "has_scooters": true, "virtual": true}}, {"id": "3a5c3d1d5dca92c540a9b62bb7e8c9dd", "name": "Plaza Camachos", "latitude": 37.98150401, "longitude": -1.130965448, "timestamp": "2025-05-03T02:57:47.024510+00:00Z", "free_bikes": 5, "empty_slots": null, "extra": {"uid": "bd0ac7ba-906a-4ddf-8bf7-1ceabc8a9258", "renting": true, "returning": true, "last_updated": 1746230166, "scooters": 4, "has_scooters": true, "ebikes": 5, "has_ebikes": true, "virtual": true}}, {"id": "3a8fe00dd0671d7c712c475997e0ca6d", "name": "Ava Primo de Rivera", "latitude": 37.991689, "longitude": -1.133784, "timestamp": "2025-05-03T02:57:47.110666+00:00Z", "free_bikes": 5, "empty_slots": null, "extra": {"uid": "ee636ddc-5c25-45a2-85d3-8493e2141938", "renting": true, "returning": true, "last_updated": 1746210537, "scooters": 4, "has_scooters": true, "ebikes": 5, "has_ebikes": true, "virtual": true}}, {"id": "3aa53bec66550a02ab1dc95f8ea398bd", "name": "Avda Miguel de Cervantes 1", "latitude": 37.9978954, "longitude": -1.1430204, "timestamp": "2025-05-03T02:57:47.126027+00:00Z", "free_bikes": 0, "empty_slots": null, "extra": {"uid": "0d223160-1674-452d-896f-94f694a59b74", "renting": true, "returning": true, "last_updated": 1746222887, "scooters": 4, "has_scooters": true, "virtual": true}}, {"id": "3b059029401e7c3da980cb3f04c54fe7", "name": "San Pio XII", "latitude": 37.9737795, "longitude": -1.1350247, "timestamp": "2025-05-03T02:57:47.111826+00:00Z", "free_bikes": 0, "empty_slots": null, "extra": {"uid": "d67618c9-9e7d-4f66-9110-0d07362d8834", "renting": true, "returning": true, "last_updated": 1746178511, "scooters": 4, "has_scooters": true, "virtual": true}}, {"id": "3b457a477d081cbd47474e11e6b52e5f", "name": "Sport Joven Futura", "latitude": 38.00269039, "longitude": -1.159454531, "timestamp": "2025-05-03T02:57:47.125988+00:00Z", "free_bikes": 0, "empty_slots": null, "extra": {"uid": "d609c134-2400-42d8-9db0-2e2f602913a8", "renting": true, "returning": true, "last_updated": 1745863332, "scooters": 4, "has_scooters": true, "virtual": true}}, {"id": "3b8ac934691e14d4f4dca52f097d46f2", "name": "EL INFANTE. ROTONDA MEDIA MARKT. ACADEMIA OPOSICIONES.", "latitude": 37.97621, "longitude": -1.116367, "timestamp": "2025-05-03T02:57:47.112521+00:00Z", "free_bikes": 0, "empty_slots": null, "extra": {"uid": "676628e3-1894-4311-96d3-495b1bd797b4", "renting": true, "returning": true, "last_updated": 1745273856, "scooters": 4, "has_scooters": true, "virtual": true}}, {"id": "3ba91372fbd55a66ecdb92d24f6836c6", "name": "Puente Tocinos 1", "latitude": 37.9946059, "longitude": -1.0991712, "timestamp": "2025-05-03T02:57:47.112712+00:00Z", "free_bikes": 5, "empty_slots": null, "extra": {"uid": "c037459e-0efa-40f3-b152-ce17ce0bbdc0", "renting": true, "returning": true, "last_updated": 1746179340, "scooters": 4, "has_scooters": true, "ebikes": 5, "has_ebikes": true, "virtual": true}}, {"id": "3c1e955ae820a22b1729737883c747d2", "name": "Abenarabi 1", "latitude": 37.9977118, "longitude": -1.1270102, "timestamp": "2025-05-03T02:57:47.112541+00:00Z", "free_bikes": 0, "empty_slots": null, "extra": {"uid": "e83c26c0-a791-4010-a14d-8b151cecefc4", "renting": true, "returning": true, "last_updated": 1746151965, "scooters": 4, "has_scooters": true, "virtual": true}}, {"id": "3caf3d30b8d0599df0c0a4a75ae419ee", "name": "C. San Juan", "latitude": 38.012202, "longitude": -1.1584893, "timestamp": "2025-05-03T02:57:47.024450+00:00Z", "free_bikes": 0, "empty_slots": null, "extra": {"uid": "e80681b7-ca8c-44f9-9115-bcd33e1e112c", "renting": true, "returning": true, "last_updated": 1746230147, "scooters": 4, "has_scooters": true, "virtual": true}}, {"id": "3cbc96bdd3b4677527a498c3d468cd69", "name": "SANTA CRUZ ", "latitude": 38.007634, "longitude": -1.062849, "timestamp": "2025-05-03T02:57:47.110483+00:00Z", "free_bikes": 0, "empty_slots": null, "extra": {"uid": "49b70acc-c04a-44d8-bd70-910435618eac", "renting": true, "returning": true, "last_updated": 1746062355, "scooters": 4, "has_scooters": true, "virtual": true}}, {"id": "3cf93eaa7b5fa63239c5c85b238cceb9", "name": "Av. Juan Carlos I Santo Angel", "latitude": 37.943346, "longitude": -1.130302, "timestamp": "2025-05-03T02:57:47.112110+00:00Z", "free_bikes": 0, "empty_slots": null, "extra": {"uid": "448a9b23-3a04-4c17-896d-007d9db25608", "renting": true, "returning": true, "last_updated": 1746211117, "scooters": 4, "has_scooters": true, "virtual": true}}, {"id": "3d10a2c10a4bea49ebc132b21449502a", "name": "Calle Vicente Aleixandre 21", "latitude": 37.97686758, "longitude": -1.117153413, "timestamp": "2025-05-03T02:57:47.024011+00:00Z", "free_bikes": 0, "empty_slots": null, "extra": {"uid": "8b8cdc2a-b044-416c-9d7e-1f648c177878", "renting": true, "returning": true, "last_updated": 1746224341, "scooters": 4, "has_scooters": true, "virtual": true}}, {"id": "3d4b673aed67e0c0d8b108b3996c99cd", "name": "Plaza Cruz Roja Murcia Calle Gloria", "latitude": 37.9822782, "longitude": -1.1262384, "timestamp": "2025-05-03T02:57:47.023437+00:00Z", "free_bikes": 0, "empty_slots": null, "extra": {"uid": "536249d1-570d-44bc-a3b7-3d8edc5bcb1c", "renting": true, "returning": true, "last_updated": 1745753264, "scooters": 4, "has_scooters": true, "virtual": true}}, {"id": "3d72e7a0a79a6d566cdc8db507a45e1f", "name": "San Basilio", "latitude": 37.9948818, "longitude": -1.1423956, "timestamp": "2025-05-03T02:57:47.110749+00:00Z", "free_bikes": 5, "empty_slots": null, "extra": {"uid": "cbd93d09-36e9-4920-9b61-52a3332df924", "renting": true, "returning": true, "last_updated": 1746140726, "scooters": 4, "has_scooters": true, "ebikes": 5, "has_ebikes": true, "virtual": true}}, {"id": "3e0bda18e25786ef7c1958d4a570e74c", "name": "Consultorio San Jos\u00e9 de la Vega", "latitude": 37.96779, "longitude": -1.0786803, "timestamp": "2025-05-03T02:57:47.112959+00:00Z", "free_bikes": 0, "empty_slots": null, "extra": {"uid": "02f36354-e570-4052-a0d8-4433bd8dd000", "renting": true, "returning": true, "last_updated": 1746148391, "scooters": 4, "has_scooters": true, "virtual": true}}, {"id": "3e825f9ab6949ec1674b93e25ed60f92", "name": "Campo F\u00fatbol Ronda Sur", "latitude": 37.971695, "longitude": -1.131679, "timestamp": "2025-05-03T02:57:47.125083+00:00Z", "free_bikes": 0, "empty_slots": null, "extra": {"uid": "6da27a67-4899-44eb-8a98-69bb9ec6c93c", "renting": true, "returning": true, "last_updated": 1746121194, "scooters": 4, "has_scooters": true, "virtual": true}}, {"id": "3ea0cc299a95a522a28512f1a5b7738d", "name": "Oficina de empleo Murcia este", "latitude": 38.0027606, "longitude": -1.1302148, "timestamp": "2025-05-03T02:57:47.110346+00:00Z", "free_bikes": 0, "empty_slots": null, "extra": {"uid": "c7610a9f-cba6-4b45-ab37-8847215f2048", "renting": true, "returning": true, "last_updated": 1746206767, "scooters": 4, "has_scooters": true, "virtual": true}}, {"id": "40084dff67d8299921a85aa75235e5e8", "name": "SAN MIGUEL, JUNTO ALTER EGO", "latitude": 37.98764814, "longitude": -1.134374231, "timestamp": "2025-05-03T02:57:47.111261+00:00Z", "free_bikes": 0, "empty_slots": null, "extra": {"uid": "5c08b597-2e04-4b56-9173-66e828cdde74", "renting": true, "returning": true, "last_updated": 1746223384, "scooters": 4, "has_scooters": true, "virtual": true}}, {"id": "401d175410f0d456469210735909b819", "name": "JAIME I EL CONQUISTADOR", "latitude": 37.98940926, "longitude": -1.131739158, "timestamp": "2025-05-03T02:57:47.114416+00:00Z", "free_bikes": 0, "empty_slots": null, "extra": {"uid": "e5a25f80-f207-4e2f-ad4b-6d906b7327ac", "renting": true, "returning": true, "last_updated": 1746238727, "scooters": 4, "has_scooters": true, "virtual": true}}, {"id": "40404eb626ed7993640242ac6537682e", "name": "LOS DOLORES INSTITUTO SEVERO OCHOA", "latitude": 37.9641, "longitude": -1.091283, "timestamp": "2025-05-03T02:57:47.110300+00:00Z", "free_bikes": 0, "empty_slots": null, "extra": {"uid": "9b1eb52c-7c22-41f0-b24d-e9c983b7c830", "renting": true, "returning": true, "last_updated": 1745859605, "scooters": 4, "has_scooters": true, "virtual": true}}, {"id": "4040b45aea9c9618dfb73e6ac7285482", "name": "85", "latitude": 37.98711411, "longitude": -1.134277789, "timestamp": "2025-05-03T02:57:47.125870+00:00Z", "free_bikes": 0, "empty_slots": null, "extra": {"uid": "86b43a82-7b56-4752-b463-59dc089b75c4", "renting": true, "returning": true, "last_updated": 1745668010, "scooters": 4, "has_scooters": true, "virtual": true}}, {"id": "40973abe0db6cf47dd1206c10e3b0443", "name": "Calle Organistas", "latitude": 37.9842511, "longitude": -1.1302493, "timestamp": "2025-05-03T02:57:47.111271+00:00Z", "free_bikes": 0, "empty_slots": null, "extra": {"uid": "a1c703d0-c2aa-436e-bb32-6c280fc8cd1c", "renting": true, "returning": true, "last_updated": 1745718890, "scooters": 4, "has_scooters": true, "virtual": true}}, {"id": "40bcb5c45d23c3bfa9a884e093c95287", "name": "UMU Espinardo Antigua Medicina", "latitude": 38.023111, "longitude": -1.168796, "timestamp": "2025-05-03T02:57:47.023748+00:00Z", "free_bikes": 5, "empty_slots": null, "extra": {"uid": "a72d0ce1-ba9d-4b36-bae2-3c3cc48d811c", "renting": true, "returning": true, "last_updated": 1746213055, "scooters": 4, "has_scooters": true, "ebikes": 5, "has_ebikes": true, "virtual": true}}, {"id": "41300fa72a247fe2e269af29e2583bfc", "name": "EL INFANTE. ROTONDA PASEO JUAN RAMON JIMENEZ.", "latitude": 37.978237, "longitude": -1.125073, "timestamp": "2025-05-03T02:57:47.110790+00:00Z", "free_bikes": 0, "empty_slots": null, "extra": {"uid": "f2d11cba-849d-42f9-948d-9687a334bc00", "renting": true, "returning": true, "last_updated": 1746210183, "scooters": 4, "has_scooters": true, "virtual": true}}, {"id": "420d0f2775e0b66b349fd4b56fffa9f4", "name": "C. Sta Clara", "latitude": 37.9877129, "longitude": -1.1303456, "timestamp": "2025-05-03T02:57:47.112827+00:00Z", "free_bikes": 0, "empty_slots": null, "extra": {"uid": "b7adfd38-3e1f-489a-a872-af475516aab4", "renting": true, "returning": true, "last_updated": 1746240115, "scooters": 4, "has_scooters": true, "virtual": true}}, {"id": "4217ed1bd29ce61139929705414fd03f", "name": "GRAN V\u00cdA CORTEFIEL", "latitude": 37.988444, "longitude": -1.132102, "timestamp": "2025-05-03T02:57:47.024093+00:00Z", "free_bikes": 0, "empty_slots": null, "extra": {"uid": "0297b9d8-ce0f-44eb-b520-40096cb812d4", "renting": true, "returning": true, "last_updated": 1746233354, "scooters": 4, "has_scooters": true, "virtual": true}}, {"id": "421da63a61dfa8c441c3eb1ebb819de3", "name": "Calle Pintor Aurelio P\u00e9rez, Escuela Turismo.", "latitude": 37.989225, "longitude": -1.113828, "timestamp": "2025-05-03T02:57:47.125800+00:00Z", "free_bikes": 0, "empty_slots": null, "extra": {"uid": "8f0b1522-0160-4515-8f9a-109059d364b4", "renting": true, "returning": true, "last_updated": 1746221127, "scooters": 4, "has_scooters": true, "virtual": true}}, {"id": "4249e6139e23bf171c00121d18c39c61", "name": "Plaza Pintor Inocencio Medina Vera", "latitude": 37.9953715, "longitude": -1.126616409, "timestamp": "2025-05-03T02:57:47.111744+00:00Z", "free_bikes": 0, "empty_slots": null, "extra": {"uid": "a090a409-c408-4923-a762-1ac7cfbd7c0c", "renting": true, "returning": true, "last_updated": 1746220551, "scooters": 4, "has_scooters": true, "virtual": true}}, {"id": "424ae8acfcc62f0c8a8dd593b6544a73", "name": "Tanatorio Servisa", "latitude": 37.962137, "longitude": -1.137515, "timestamp": "2025-05-03T02:57:47.023087+00:00Z", "free_bikes": 0, "empty_slots": null, "extra": {"uid": "cc686c06-a513-4722-babd-5a4b7eece068", "renting": true, "returning": true, "last_updated": 1744054313, "scooters": 4, "has_scooters": true, "virtual": true}}, {"id": "4250fb3612be9898b7228742f0fc9a0d", "name": "Colegio oficial de Odont\u00f3logos y Estomat\u00f3logos de Murcia", "latitude": 37.99918698, "longitude": -1.134400339, "timestamp": "2025-05-03T02:57:47.125822+00:00Z", "free_bikes": 0, "empty_slots": null, "extra": {"uid": "eb3f1df2-f876-47f5-a1aa-4038172b4ea0", "renting": true, "returning": true, "last_updated": 1745561803, "scooters": 4, "has_scooters": true, "virtual": true}}, {"id": "425bf829b40ce108a2ecf1fe0ce7bd98", "name": "Gran V\u00eda 2 (Santa Isabel)", "latitude": 37.986686, "longitude": -1.132279, "timestamp": "2025-05-03T02:57:47.125498+00:00Z", "free_bikes": 5, "empty_slots": null, "extra": {"uid": "ac1ee0b5-6481-4e45-9951-511e9e089978", "renting": true, "returning": true, "last_updated": 1746236052, "scooters": 4, "has_scooters": true, "ebikes": 5, "has_ebikes": true, "virtual": true}}, {"id": "427eaf6f3988f390db1f9e90201ee796", "name": "EL PALMAR C. CRONISTA CARLOS VALC\u00c1RCEL", "latitude": 37.937962, "longitude": -1.169078, "timestamp": "2025-05-03T02:57:47.024471+00:00Z", "free_bikes": 0, "empty_slots": null, "extra": {"uid": "cf825942-3949-4a5d-b058-2e4394b8855c", "renting": true, "returning": true, "last_updated": 1745942191, "scooters": 4, "has_scooters": true, "virtual": true}}, {"id": "42c4f05e16cdec52e39322085721977f", "name": "Hospital de la Vega", "latitude": 37.99261853, "longitude": -1.133533394, "timestamp": "2025-05-03T02:57:47.024072+00:00Z", "free_bikes": 5, "empty_slots": null, "extra": {"uid": "01f1e350-2a07-463d-9954-565b978d9f80", "renting": true, "returning": true, "last_updated": 1746208326, "scooters": 4, "has_scooters": true, "ebikes": 5, "has_ebikes": true, "virtual": true}}, {"id": "4313871d7c841aa72a10a742aa9b1998", "name": "C. Ascislao D\u00edaz", "latitude": 37.9875738, "longitude": -1.1349029, "timestamp": "2025-05-03T02:57:47.125735+00:00Z", "free_bikes": 0, "empty_slots": null, "extra": {"uid": "b3de5f6f-88a8-4c25-99b0-84859995e6bc", "renting": true, "returning": true, "last_updated": 1746109235, "scooters": 4, "has_scooters": true, "virtual": true}}, {"id": "43f78ddc3b4732472cdbe014eff3fe2b", "name": "Sta Catalina Repsol", "latitude": 37.9531012, "longitude": -1.1355873, "timestamp": "2025-05-03T02:57:47.023634+00:00Z", "free_bikes": 0, "empty_slots": null, "extra": {"uid": "64862751-b06f-48b7-ad01-8b143365b564", "renting": true, "returning": true, "last_updated": 1745912032, "scooters": 4, "has_scooters": true, "virtual": true}}, {"id": "4427e902851ce378dd5caf68247e45b3", "name": "C. Venezuela", "latitude": 37.9565392, "longitude": -1.2115932, "timestamp": "2025-05-03T02:57:47.125862+00:00Z", "free_bikes": 0, "empty_slots": null, "extra": {"uid": "d044957c-b3cb-45b4-826c-ee6fd02d7b4c", "renting": true, "returning": true, "last_updated": 1740049103, "scooters": 4, "has_scooters": true, "virtual": true}}, {"id": "45a1593e4993c481a1ef652ce39cb14a", "name": "\u00c9lite Gym Puente Tocinos", "latitude": 37.993476, "longitude": -1.106075, "timestamp": "2025-05-03T02:57:47.111764+00:00Z", "free_bikes": 0, "empty_slots": null, "extra": {"uid": "607f4720-0ad3-47d3-9bca-37619682a204", "renting": true, "returning": true, "last_updated": 1746215367, "scooters": 4, "has_scooters": true, "virtual": true}}, {"id": "45f30361b6889da4fafb119239f68c1f", "name": "59", "latitude": 38.01940631, "longitude": -1.181569582, "timestamp": "2025-05-03T02:57:47.023891+00:00Z", "free_bikes": 0, "empty_slots": null, "extra": {"uid": "a1a609f2-e13d-47c0-8376-8c7d75a81fb0", "renting": true, "returning": true, "last_updated": 1746203005, "scooters": 4, "has_scooters": true, "virtual": true}}, {"id": "4628fd5facd711bcfcf7e622263de074", "name": "C. Francisco Rabal", "latitude": 37.990241, "longitude": -1.137545, "timestamp": "2025-05-03T02:57:47.126299+00:00Z", "free_bikes": 0, "empty_slots": null, "extra": {"uid": "99914348-3097-4852-8880-9be760c321e0", "renting": true, "returning": true, "last_updated": 1746230964, "scooters": 4, "has_scooters": true, "virtual": true}}, {"id": "464523884942e78385d1b67ec2a395ae", "name": "TORREAG\u00dcERA V\u00cdA VERDE", "latitude": 37.98359216, "longitude": -1.053541111, "timestamp": "2025-05-03T02:57:47.111466+00:00Z", "free_bikes": 5, "empty_slots": null, "extra": {"uid": "a68a3d8d-dc67-4769-8d74-69a94799f998", "renting": true, "returning": true, "last_updated": 1744709220, "scooters": 1, "has_scooters": true, "ebikes": 5, "has_ebikes": true, "virtual": true}}, {"id": "46f1edd3267e86ad59f939b597032b8b", "name": "CENTROFAMA Calle Guti\u00e9rrez Mellado", "latitude": 37.98983684, "longitude": -1.127752609, "timestamp": "2025-05-03T02:57:47.126186+00:00Z", "free_bikes": 0, "empty_slots": null, "extra": {"uid": "ee93983e-ca57-4e99-a172-bd1d765f74e0", "renting": true, "returning": true, "last_updated": 1746239468, "scooters": 4, "has_scooters": true, "virtual": true}}, {"id": "4793a51762197887c9586a79e583d43d", "name": "EL PALMAR ENTRADA URBANIZACI\u00d3N BUENAVISTA", "latitude": 37.924975, "longitude": -1.161746, "timestamp": "2025-05-03T02:57:47.023840+00:00Z", "free_bikes": 0, "empty_slots": null, "extra": {"uid": "b2dea053-b236-4350-96c3-676a70a7aae4", "renting": true, "returning": true, "last_updated": 1738749851, "scooters": 4, "has_scooters": true, "virtual": true}}, {"id": "47f8cb2082cfa0cda142f3a1efa95ea9", "name": "McDonalds Mariano Rojas", "latitude": 38.001794, "longitude": -1.148033, "timestamp": "2025-05-03T02:57:47.126207+00:00Z", "free_bikes": 0, "empty_slots": null, "extra": {"uid": "c761db6a-7bfb-42d7-adc8-93ec09c57680", "renting": true, "returning": true, "last_updated": 1746226821, "scooters": 4, "has_scooters": true, "virtual": true}}, {"id": "48af87763122f7e6ef13f74ee6a799a5", "name": "Sala de Estudio Ronda Sur", "latitude": 37.969592, "longitude": -1.133685, "timestamp": "2025-05-03T02:57:47.114099+00:00Z", "free_bikes": 5, "empty_slots": null, "extra": {"uid": "1072e9ce-e886-4350-af51-92075ab96cec", "renting": true, "returning": true, "last_updated": 1746239186, "scooters": 4, "has_scooters": true, "ebikes": 5, "has_ebikes": true, "virtual": true}}, {"id": "4905cfe8ac39fa728d389ab2b96d6f10", "name": "Cabezo de Torres 1", "latitude": 38.0316925, "longitude": -1.123509249, "timestamp": "2025-05-03T02:57:47.126070+00:00Z", "free_bikes": 5, "empty_slots": null, "extra": {"uid": "a82b6e82-a3d8-48ea-84f3-090b49e7bd0c", "renting": true, "returning": true, "last_updated": 1746219651, "scooters": 4, "has_scooters": true, "ebikes": 5, "has_ebikes": true, "virtual": true}}, {"id": "4975c4c880c547ba500365698a540b50", "name": "Avenida Primero de Mayo, frente Edificio azul.", "latitude": 37.99031172, "longitude": -1.118622236, "timestamp": "2025-05-03T02:57:47.125563+00:00Z", "free_bikes": 0, "empty_slots": null, "extra": {"uid": "27a0cf75-2e77-479d-9693-2782ab7a8d84", "renting": true, "returning": true, "last_updated": 1746210864, "scooters": 4, "has_scooters": true, "virtual": true}}, {"id": "49c7a1bb7cbe54f0ae07582ec0824f46", "name": "Massimo Dutti Av. Libertad", "latitude": 37.99011177, "longitude": -1.133502818, "timestamp": "2025-05-03T02:57:47.024123+00:00Z", "free_bikes": 0, "empty_slots": null, "extra": {"uid": "0e69f74c-a633-4792-92f6-b517af208864", "renting": true, "returning": true, "last_updated": 1746200425, "scooters": 4, "has_scooters": true, "virtual": true}}, {"id": "4ae28b15852ee1901144343b1bd29d23", "name": "EL PALMAR AVDA LAS PALMERAS CONC. MIGUEL HERN\u00c1NDEZ ", "latitude": 37.939787, "longitude": -1.165868, "timestamp": "2025-05-03T02:57:47.125909+00:00Z", "free_bikes": 0, "empty_slots": null, "extra": {"uid": "ead1ad35-ebb8-4854-8775-b16e74a68550", "renting": true, "returning": true, "last_updated": 1738749851, "scooters": 4, "has_scooters": true, "virtual": true}}, {"id": "4bea27778ecc76780fc3f08261b3aaa1", "name": "Facultad de Ciencias del Trabajo", "latitude": 38.015382, "longitude": -1.171551, "timestamp": "2025-05-03T02:57:47.113141+00:00Z", "free_bikes": 0, "empty_slots": null, "extra": {"uid": "119c09b5-e1a3-416d-b62e-dd6097d1443c", "renting": true, "returning": true, "last_updated": 1739521710, "scooters": 4, "has_scooters": true, "virtual": true}}, {"id": "4cbb5809980836609c5b843e0335e8ce", "name": "Los Dolores 2", "latitude": 37.9754207, "longitude": -1.1064287, "timestamp": "2025-05-03T02:57:47.125556+00:00Z", "free_bikes": 0, "empty_slots": null, "extra": {"uid": "46d57ae0-6bd9-49c1-8085-d57cb8727810", "renting": true, "returning": true, "last_updated": 1738749852, "scooters": 4, "has_scooters": true, "virtual": true}}, {"id": "4d42f1d5339ab55a13b6b0816f2de48c", "name": "Avda de Santiago", "latitude": 38.001142, "longitude": -1.124978, "timestamp": "2025-05-03T02:57:47.111920+00:00Z", "free_bikes": 5, "empty_slots": null, "extra": {"uid": "70abdfb7-5dd5-4d6d-ad2a-122d66735f0c", "renting": true, "returning": true, "last_updated": 1746209741, "scooters": 4, "has_scooters": true, "ebikes": 5, "has_ebikes": true, "virtual": true}}, {"id": "4da790a0e0f89c50119deab058c3f6fd", "name": "TORREAG\u00dcERA A ALQUER\u00cdAS", "latitude": 37.98068, "longitude": -1.055197, "timestamp": "2025-05-03T02:57:47.126056+00:00Z", "free_bikes": 0, "empty_slots": null, "extra": {"uid": "4b55d7c5-6e9c-431e-887a-233400dbf058", "renting": true, "returning": true, "last_updated": 1738749854, "scooters": 4, "has_scooters": true, "virtual": true}}, {"id": "4de04407507d8d680167efdac6ea1820", "name": "Churra Centro de Salud", "latitude": 38.021945, "longitude": -1.1385404, "timestamp": "2025-05-03T02:57:47.111096+00:00Z", "free_bikes": 0, "empty_slots": null, "extra": {"uid": "f5d6bd5b-0de5-44ec-85ae-783a889d8b7c", "renting": true, "returning": true, "last_updated": 1745829799, "scooters": 4, "has_scooters": true, "virtual": true}}, {"id": "4e12bc2ebfbed41bca0aad58a014081e", "name": "Calle Escultor Jose Sanchez Lozano", "latitude": 37.9859247, "longitude": -1.140789891, "timestamp": "2025-05-03T02:57:47.110250+00:00Z", "free_bikes": 0, "empty_slots": null, "extra": {"uid": "14e2945d-7b55-4378-baec-9f12574946e4", "renting": true, "returning": true, "last_updated": 1746231823, "scooters": 4, "has_scooters": true, "virtual": true}}, {"id": "4ef6ba7821f0ad957d2ff130c93301dd", "name": "C. Emilio Perez Pi\u00f1ero", "latitude": 37.9928594, "longitude": -1.1263627, "timestamp": "2025-05-03T02:57:47.126229+00:00Z", "free_bikes": 0, "empty_slots": null, "extra": {"uid": "c25b7831-ab4a-4a83-a426-53f01f8092c8", "renting": true, "returning": true, "last_updated": 1746213074, "scooters": 4, "has_scooters": true, "virtual": true}}, {"id": "4f2cd0443491edf7dcf884374748764f", "name": "Motorsport Pio XII", "latitude": 37.9697174, "longitude": -1.121411, "timestamp": "2025-05-03T02:57:47.110210+00:00Z", "free_bikes": 0, "empty_slots": null, "extra": {"uid": "3f8402ee-85e1-4dee-b7a5-26ae22eae640", "renting": true, "returning": true, "last_updated": 1746230361, "scooters": 4, "has_scooters": true, "virtual": true}}, {"id": "4fe8eefa8123f454ef3caf3cde92a497", "name": "9", "latitude": 37.99276462, "longitude": -1.12182327, "timestamp": "2025-05-03T02:57:47.110153+00:00Z", "free_bikes": 0, "empty_slots": null, "extra": {"uid": "3cb7b225-7b5e-438b-949b-bba088335ba8", "renting": true, "returning": true, "last_updated": 1746215087, "scooters": 4, "has_scooters": true, "virtual": true}}, {"id": "5022e64fad07c187f7957c6ace349789", "name": "CAMPUS UMU JUNTO EDIFICIO LUIS VIVES", "latitude": 38.016741, "longitude": -1.172974, "timestamp": "2025-05-03T02:57:47.112639+00:00Z", "free_bikes": 0, "empty_slots": null, "extra": {"uid": "0c499faa-f5b8-4364-aeef-dbd607a8e47c", "renting": true, "returning": true, "last_updated": 1742479595, "scooters": 4, "has_scooters": true, "virtual": true}}, {"id": "505f584978f9a9f6f6c5cec2f3b131a3", "name": "52", "latitude": 38.01263462, "longitude": -1.171462187, "timestamp": "2025-05-03T02:57:47.125061+00:00Z", "free_bikes": 0, "empty_slots": null, "extra": {"uid": "bd4bb5a2-bafc-45f1-ace3-0bb69742fa1c", "renting": true, "returning": true, "last_updated": 1743488530, "scooters": 4, "has_scooters": true, "virtual": true}}, {"id": "506355fb45ea28501492681c8972e063", "name": "Hospital Reina Sof\u00eda", "latitude": 37.982256, "longitude": -1.120412, "timestamp": "2025-05-03T02:57:47.024234+00:00Z", "free_bikes": 5, "empty_slots": null, "extra": {"uid": "3642d9b3-052b-44bc-b41f-8e665d05fd74", "renting": true, "returning": true, "last_updated": 1746229296, "scooters": 4, "has_scooters": true, "ebikes": 5, "has_ebikes": true, "virtual": true}}, {"id": "50a5ef6ff37839c1843bdb87a151650f", "name": "Abenarabi", "latitude": 37.997868, "longitude": -1.131517, "timestamp": "2025-05-03T02:57:47.023306+00:00Z", "free_bikes": 5, "empty_slots": null, "extra": {"uid": "dc503b3f-6180-4955-977d-8ac97fde177c", "renting": true, "returning": true, "last_updated": 1746237411, "scooters": 4, "has_scooters": true, "ebikes": 5, "has_ebikes": true, "virtual": true}}, {"id": "51a7f18aa2eb198a6eed398bdc0a995d", "name": "EL PALMAR AVDA PINTOR PEDRO CANO", "latitude": 37.941115, "longitude": -1.169973, "timestamp": "2025-05-03T02:57:47.111304+00:00Z", "free_bikes": 0, "empty_slots": null, "extra": {"uid": "bf01e345-f32a-4398-a93e-00ca6a910cc0", "renting": true, "returning": true, "last_updated": 1745264564, "scooters": 4, "has_scooters": true, "virtual": true}}, {"id": "52e87e55310803b410382f7b717e5eab", "name": "EL PALMAR C. FERNANDO OLIVA", "latitude": 37.939504, "longitude": -1.15524, "timestamp": "2025-05-03T02:57:47.023194+00:00Z", "free_bikes": 0, "empty_slots": null, "extra": {"uid": "a6049a8e-9f7b-49b0-89ea-1f29af48ec04", "renting": true, "returning": true, "last_updated": 1738749851, "scooters": 4, "has_scooters": true, "virtual": true}}, {"id": "52f859e1a1d8dd66c63fa5ced892d45c", "name": "Vistalegre El Churra", "latitude": 37.9930354, "longitude": -1.1274823, "timestamp": "2025-05-03T02:57:47.111016+00:00Z", "free_bikes": 0, "empty_slots": null, "extra": {"uid": "1349ada4-4bb1-4891-81be-7581527ae6b8", "renting": true, "returning": true, "last_updated": 1745968153, "scooters": 4, "has_scooters": true, "virtual": true}}, {"id": "53be25db81ebddc86394347b051d9715", "name": "Auditorio Municipal La Alberca", "latitude": 37.942629, "longitude": -1.146433, "timestamp": "2025-05-03T02:57:47.111406+00:00Z", "free_bikes": 0, "empty_slots": null, "extra": {"uid": "6dc6c352-b304-4e66-bd28-e5f896016900", "renting": true, "returning": true, "last_updated": 1746238656, "scooters": 4, "has_scooters": true, "virtual": true}}, {"id": "53e62025b8a0304dcb7e64140ee00478", "name": "EL PALMAR C. VALLE CON C. AMATISTA", "latitude": 37.934476, "longitude": -1.159429, "timestamp": "2025-05-03T02:57:47.110376+00:00Z", "free_bikes": 0, "empty_slots": null, "extra": {"uid": "f7412719-8f29-4758-ae19-414303cb1d28", "renting": true, "returning": true, "last_updated": 1738749851, "scooters": 4, "has_scooters": true, "virtual": true}}, {"id": "5430cc6fc29d88c9209b9b8f97a4b48b", "name": "Nonduermas parada bus", "latitude": 37.9741072, "longitude": -1.1545146, "timestamp": "2025-05-03T02:57:47.023770+00:00Z", "free_bikes": 0, "empty_slots": null, "extra": {"uid": "e1e7fc8b-9a91-4e70-b349-9a3823b8328c", "renting": true, "returning": true, "last_updated": 1746229068, "scooters": 4, "has_scooters": true, "virtual": true}}, {"id": "544d986063333790f92dbaac18faac25", "name": "Paso a nivel Santiago El Mayor", "latitude": 37.973805, "longitude": -1.122925, "timestamp": "2025-05-03T02:57:47.126261+00:00Z", "free_bikes": 0, "empty_slots": null, "extra": {"uid": "2bc7b5f2-cea2-408a-99cf-1461e009e4c0", "renting": true, "returning": true, "last_updated": 1746130837, "scooters": 4, "has_scooters": true, "virtual": true}}, {"id": "545b9a0fc054eb5f4485455ecf7146e1", "name": "141", "latitude": 37.9777269, "longitude": -1.1297484, "timestamp": "2025-05-03T02:57:47.111386+00:00Z", "free_bikes": 0, "empty_slots": null, "extra": {"uid": "3750f7c4-c1dc-4738-9037-580ce047e058", "renting": true, "returning": true, "last_updated": 1746037647, "scooters": 4, "has_scooters": true, "virtual": true}}, {"id": "54a312e604468eee8ddbbad91bd93a98", "name": "Myrtea", "latitude": 38.01683, "longitude": -1.161986, "timestamp": "2025-05-03T02:57:47.111652+00:00Z", "free_bikes": 5, "empty_slots": null, "extra": {"uid": "b34ceb60-3c1b-4b9a-a77c-4f05e9beb5f4", "renting": true, "returning": true, "last_updated": 1746216931, "scooters": 4, "has_scooters": true, "ebikes": 5, "has_ebikes": true, "virtual": true}}, {"id": "552e9a47125401e76ddbd31a8e6b8544", "name": "San Pio XII-1", "latitude": 37.9721403, "longitude": -1.1364278, "timestamp": "2025-05-03T02:57:47.125636+00:00Z", "free_bikes": 0, "empty_slots": null, "extra": {"uid": "527bf62a-1918-4189-b42e-d92faee860c8", "renting": true, "returning": true, "last_updated": 1745685268, "scooters": 4, "has_scooters": true, "virtual": true}}, {"id": "5545940a4b961be18566a016049f2f6a", "name": "San Anton Plaza Castilla", "latitude": 37.9925312, "longitude": -1.1416229, "timestamp": "2025-05-03T02:57:47.112649+00:00Z", "free_bikes": 0, "empty_slots": null, "extra": {"uid": "dfa07606-0bf5-4154-84bb-6c2d0a9522ec", "renting": true, "returning": true, "last_updated": 1746209884, "scooters": 4, "has_scooters": true, "virtual": true}}, {"id": "5642da563079db56bba74a136359620f", "name": "Avenida Ciclista Mariano Rojas", "latitude": 38.000972, "longitude": -1.146125, "timestamp": "2025-05-03T02:57:47.111457+00:00Z", "free_bikes": 0, "empty_slots": null, "extra": {"uid": "26614bf0-88bd-4f52-99e9-435cc5416d44", "renting": true, "returning": true, "last_updated": 1746029893, "scooters": 4, "has_scooters": true, "virtual": true}}, {"id": "5691951c10de9cd8005c1c3be2a92990", "name": "Cortefiel", "latitude": 37.988091, "longitude": -1.132234, "timestamp": "2025-05-03T02:57:47.114390+00:00Z", "free_bikes": 5, "empty_slots": null, "extra": {"uid": "bca2ec5c-8b44-4a03-9b87-d6f75d9e1404", "renting": true, "returning": true, "last_updated": 1746235486, "scooters": 4, "has_scooters": true, "ebikes": 5, "has_ebikes": true, "virtual": true}}, {"id": "56af84a52fa8ad36836a8792233d8ef9", "name": "EL PALMAR COPELE", "latitude": 37.939647, "longitude": -1.173472, "timestamp": "2025-05-03T02:57:47.125918+00:00Z", "free_bikes": 0, "empty_slots": null, "extra": {"uid": "1e150237-ab15-404c-9c6d-2e53a6bf0324", "renting": true, "returning": true, "last_updated": 1739336868, "scooters": 4, "has_scooters": true, "virtual": true}}, {"id": "57485e8275de1ee48f73318f66d589d6", "name": "Centro de Salud La Alberca", "latitude": 37.941143, "longitude": -1.14527, "timestamp": "2025-05-03T02:57:47.125549+00:00Z", "free_bikes": 0, "empty_slots": null, "extra": {"uid": "2f534339-db42-4095-9dad-0199e51eddac", "renting": true, "returning": true, "last_updated": 1746217258, "scooters": 4, "has_scooters": true, "virtual": true}}, {"id": "57f684a678deb750896bcd8702849ffc", "name": "140", "latitude": 37.9994555, "longitude": -1.122143, "timestamp": "2025-05-03T02:57:47.112213+00:00Z", "free_bikes": 0, "empty_slots": null, "extra": {"uid": "b91c0494-4624-435f-b2d7-b1b3652aa664", "renting": true, "returning": true, "last_updated": 1745666949, "scooters": 4, "has_scooters": true, "virtual": true}}, {"id": "5803772f31da53f21b44fa54f21cd2ab", "name": "Thader 1", "latitude": 38.03188457, "longitude": -1.147690482, "timestamp": "2025-05-03T02:57:47.112312+00:00Z", "free_bikes": 5, "empty_slots": null, "extra": {"uid": "e26aa9af-8285-4349-8550-028806ee632c", "renting": true, "returning": true, "last_updated": 1746139282, "scooters": 4, "has_scooters": true, "ebikes": 5, "has_ebikes": true, "virtual": true}}, {"id": "590a6c4c852d0aa9d0426628dee129da", "name": "Hotel Rinc\u00f3n de Pepe", "latitude": 37.983963, "longitude": -1.126934, "timestamp": "2025-05-03T02:57:47.110563+00:00Z", "free_bikes": 0, "empty_slots": null, "extra": {"uid": "d241733e-f59c-466d-b699-771daf132874", "renting": true, "returning": true, "last_updated": 1746229757, "scooters": 4, "has_scooters": true, "virtual": true}}, {"id": "5922b0328cdf6d133e2f747cba98801b", "name": "Calle de la Iglesia Pati\u00f1o", "latitude": 37.96147, "longitude": -1.127903, "timestamp": "2025-05-03T02:57:47.111231+00:00Z", "free_bikes": 0, "empty_slots": null, "extra": {"uid": "84488193-616b-4459-b2a5-815e41da73a8", "renting": true, "returning": true, "last_updated": 1746239578, "scooters": 4, "has_scooters": true, "virtual": true}}, {"id": "59c0cf37901b3eae852c348aab3940a9", "name": "Family Express La Flota", "latitude": 37.995367, "longitude": -1.124746, "timestamp": "2025-05-03T02:57:47.023492+00:00Z", "free_bikes": 0, "empty_slots": null, "extra": {"uid": "74851b6d-9805-4a55-9e9a-e61a63aca098", "renting": true, "returning": true, "last_updated": 1746126024, "scooters": 4, "has_scooters": true, "virtual": true}}, {"id": "59d27736aca979ea92aeca7a834d4040", "name": "GRAN VIA FRENTE EL CORTE INGLES PEQUE\u00d1O", "latitude": 37.9885362, "longitude": -1.1322774, "timestamp": "2025-05-03T02:57:47.023992+00:00Z", "free_bikes": 0, "empty_slots": null, "extra": {"uid": "559ee8e5-86d9-439b-b41c-e096816e5774", "renting": true, "returning": true, "last_updated": 1745618062, "scooters": 4, "has_scooters": true, "virtual": true}}, {"id": "5b1540e28ba77bccdeb5ed4334f443cb", "name": "LA ALBERCA CAMINO DE SALABOSQUE", "latitude": 37.943249, "longitude": -1.143715, "timestamp": "2025-05-03T02:57:47.113105+00:00Z", "free_bikes": 0, "empty_slots": null, "extra": {"uid": "995c0e19-df54-41b2-b56f-0f23e0e75828", "renting": true, "returning": true, "last_updated": 1746137848, "scooters": 4, "has_scooters": true, "virtual": true}}, {"id": "5c2ce3c07ddcd31d79468297d422aed2", "name": "EL PALMAR C. RAMBLA CON C. AMATISTA", "latitude": 37.933166, "longitude": -1.159237, "timestamp": "2025-05-03T02:57:47.111241+00:00Z", "free_bikes": 0, "empty_slots": null, "extra": {"uid": "f7a648b8-1be0-45e5-8c8c-5b43aa89ad8c", "renting": true, "returning": true, "last_updated": 1744591987, "scooters": 4, "has_scooters": true, "virtual": true}}, {"id": "5cead746e64b590dfc8d0d6bf8bd6cf1", "name": "Polideportivo la Alberca", "latitude": 37.9378508, "longitude": -1.1486738, "timestamp": "2025-05-03T02:57:47.112743+00:00Z", "free_bikes": 0, "empty_slots": null, "extra": {"uid": "5e66bccf-61af-4c2e-b220-44a357a96018", "renting": true, "returning": true, "last_updated": 1746013121, "scooters": 4, "has_scooters": true, "virtual": true}}, {"id": "5dfaf940b6c002a63af725736b2574af", "name": "EL INFANTE. LA GRAMOLA.", "latitude": 37.977388, "longitude": -1.123413, "timestamp": "2025-05-03T02:57:47.111673+00:00Z", "free_bikes": 0, "empty_slots": null, "extra": {"uid": "d93403cf-8b08-4f4b-b840-fb886bb32470", "renting": true, "returning": true, "last_updated": 1746217101, "scooters": 4, "has_scooters": true, "virtual": true}}, {"id": "5e75011713c94fcd42f504ef984d20b6", "name": "Urb. Montepinar Mercadona", "latitude": 38.0430147, "longitude": -1.0992447, "timestamp": "2025-05-03T02:57:47.111006+00:00Z", "free_bikes": 0, "empty_slots": null, "extra": {"uid": "860e1956-fc8c-46f6-893a-49ce80948494", "renting": true, "returning": true, "last_updated": 1738749855, "scooters": 4, "has_scooters": true, "virtual": true}}, {"id": "5e9b548cdd1ade051f12c76ccf4fb3fd", "name": "La Raya1", "latitude": 37.9773558, "longitude": -1.1792379, "timestamp": "2025-05-03T02:57:47.110094+00:00Z", "free_bikes": 0, "empty_slots": null, "extra": {"uid": "b8957846-76cc-41b8-bce0-f3c2d4283518", "renting": true, "returning": true, "last_updated": 1746016211, "scooters": 4, "has_scooters": true, "virtual": true}}, {"id": "5f67d828a59eb0313754a65effd60854", "name": "4", "latitude": 37.98956109, "longitude": -1.125527833, "timestamp": "2025-05-03T02:57:47.125614+00:00Z", "free_bikes": 0, "empty_slots": null, "extra": {"uid": "f2f745be-aefc-42aa-96db-0d919b978e20", "renting": true, "returning": true, "last_updated": 1746108203, "scooters": 4, "has_scooters": true, "virtual": true}}, {"id": "5f80fa9e71c16c05f0ffe1c5b5e96a58", "name": "San Pio XII-2", "latitude": 37.9714296, "longitude": -1.1374021, "timestamp": "2025-05-03T02:57:47.126096+00:00Z", "free_bikes": 0, "empty_slots": null, "extra": {"uid": "c598f3f2-7f0d-4f76-b82d-67caf792627c", "renting": true, "returning": true, "last_updated": 1745260065, "scooters": 4, "has_scooters": true, "virtual": true}}, {"id": "60b0626194771e7715d5cd70d973c7de", "name": "Calle Santa \u00darsula", "latitude": 37.9764312, "longitude": -1.1306828, "timestamp": "2025-05-03T02:57:47.112847+00:00Z", "free_bikes": 0, "empty_slots": null, "extra": {"uid": "a7a9f9b0-23ae-4c3a-b8af-1a99f59a02ec", "renting": true, "returning": true, "last_updated": 1746233801, "scooters": 4, "has_scooters": true, "virtual": true}}, {"id": "618804288c45c3fbd782eacf4e9a2347", "name": "Llano de brujas iglesia", "latitude": 38.0049674, "longitude": -1.072158, "timestamp": "2025-05-03T02:57:47.023676+00:00Z", "free_bikes": 5, "empty_slots": null, "extra": {"uid": "9937616d-7c85-4578-87e5-b0b3c3c077c8", "renting": true, "returning": true, "last_updated": 1746232605, "scooters": 4, "has_scooters": true, "ebikes": 5, "has_ebikes": true, "virtual": true}}, {"id": "61e27e0af73b94af80ab7b1df522ce38", "name": "C. Uruguay 2", "latitude": 37.95820838, "longitude": -1.19091765, "timestamp": "2025-05-03T02:57:47.111046+00:00Z", "free_bikes": 0, "empty_slots": null, "extra": {"uid": "f47b6c79-6629-439e-89a1-a0ea2737d214", "renting": true, "returning": true, "last_updated": 1740702040, "scooters": 4, "has_scooters": true, "virtual": true}}, {"id": "620f61179da3f82951852352aa6e3de8", "name": "JC1-AC", "latitude": 38.00419887, "longitude": -1.142736557, "timestamp": "2025-05-03T02:57:47.112968+00:00Z", "free_bikes": 4, "empty_slots": null, "extra": {"uid": "d5808c4d-3033-447b-9b56-f0397d01b1a8", "renting": true, "returning": true, "last_updated": 1746207709, "scooters": 4, "has_scooters": true, "ebikes": 4, "has_ebikes": true, "virtual": true}}, {"id": "635cbe8e26e78885e94228cd0d0efcda", "name": "Cuartel de Artille", "latitude": 37.97832, "longitude": -1.133622, "timestamp": "2025-05-03T02:57:47.112396+00:00Z", "free_bikes": 5, "empty_slots": null, "extra": {"uid": "20dbd09e-39d2-4b41-9dee-d09ce463bde8", "renting": true, "returning": true, "last_updated": 1746233651, "scooters": 4, "has_scooters": true, "ebikes": 5, "has_ebikes": true, "virtual": true}}, {"id": "63af17243ed301547687f319183c0edd", "name": "Torreag\u00fcera3", "latitude": 37.9730936, "longitude": -1.0583346, "timestamp": "2025-05-03T02:57:47.110554+00:00Z", "free_bikes": 0, "empty_slots": null, "extra": {"uid": "03a74190-106d-4c16-a19c-76506f77c9e8", "renting": true, "returning": true, "last_updated": 1738749854, "scooters": 4, "has_scooters": true, "virtual": true}}, {"id": "63e9f3f0c6ccd0e2f850269e95d10986", "name": "Avenida Infante Juan Manuel", "latitude": 37.9810864, "longitude": -1.1210286, "timestamp": "2025-05-03T02:57:47.111107+00:00Z", "free_bikes": 0, "empty_slots": null, "extra": {"uid": "e72321cc-32ae-4617-8a2a-2e62b8a49134", "renting": true, "returning": true, "last_updated": 1746237021, "scooters": 4, "has_scooters": true, "virtual": true}}, {"id": "63efa0c08ffc77dc3a2472663dc7a2a2", "name": "PUENTE TOCINOS A LLANO DE BRUJAS 2", "latitude": 38.00004, "longitude": -1.083226, "timestamp": "2025-05-03T02:57:47.110595+00:00Z", "free_bikes": 0, "empty_slots": null, "extra": {"uid": "1e5d48bd-f677-4c6b-af0b-b9a9a212188c", "renting": true, "returning": true, "last_updated": 1746177343, "scooters": 4, "has_scooters": true, "virtual": true}}, {"id": "64c172cddf1ee1276941350d786853ac", "name": "Principe Felipe", "latitude": 38.0263084, "longitude": -1.1422361, "timestamp": "2025-05-03T02:57:47.112038+00:00Z", "free_bikes": 0, "empty_slots": null, "extra": {"uid": "0d473498-1767-49b5-8faf-9e3a5d477b88", "renting": true, "returning": true, "last_updated": 1746174720, "scooters": 4, "has_scooters": true, "virtual": true}}, {"id": "64f9b026337387f118ab6d0ee79f7678", "name": "EL PALMAR C. ALCALDE DOMINGO IBA\u00d1EZ", "latitude": 37.93924, "longitude": -1.164269, "timestamp": "2025-05-03T02:57:47.114213+00:00Z", "free_bikes": 0, "empty_slots": null, "extra": {"uid": "94263a29-8820-49bd-ab74-85398161a4b8", "renting": true, "returning": true, "last_updated": 1739387982, "scooters": 4, "has_scooters": true, "virtual": true}}, {"id": "6576dd61374868365d5cd9d6c3b533d5", "name": "Sta Catalina", "latitude": 37.963117, "longitude": -1.1377756, "timestamp": "2025-05-03T02:57:47.023644+00:00Z", "free_bikes": 0, "empty_slots": null, "extra": {"uid": "9400a50e-402b-492c-8c33-6d88cad12400", "renting": true, "returning": true, "last_updated": 1745514281, "scooters": 4, "has_scooters": true, "virtual": true}}, {"id": "65d4f14fc32bea4d82de69a7e1ec39e6", "name": "C. Industria", "latitude": 37.9751562, "longitude": -1.1300405, "timestamp": "2025-05-03T02:57:47.024429+00:00Z", "free_bikes": 0, "empty_slots": null, "extra": {"uid": "e439bc94-3f53-4797-bb9c-e153a16ca6d8", "renting": true, "returning": true, "last_updated": 1745597971, "scooters": 4, "has_scooters": true, "virtual": true}}, {"id": "65defebbe4c9b604a3ecf32a1a79bf07", "name": "ODISEO 1", "latitude": 38.0236194, "longitude": -1.1423583, "timestamp": "2025-05-03T02:57:47.023801+00:00Z", "free_bikes": 0, "empty_slots": null, "extra": {"uid": "60465f57-c080-451c-a8a3-79f48ee45328", "renting": true, "returning": true, "last_updated": 1746210452, "scooters": 4, "has_scooters": true, "virtual": true}}, {"id": "66589e5625e0c0806237818a5f82f3a8", "name": "Plaza Hdez Amores", "latitude": 37.984622, "longitude": -1.128655, "timestamp": "2025-05-03T02:57:47.112384+00:00Z", "free_bikes": 5, "empty_slots": null, "extra": {"uid": "3d88f883-5d5b-45c6-a27e-541f8d0c8728", "renting": true, "returning": true, "last_updated": 1746194477, "scooters": 4, "has_scooters": true, "ebikes": 5, "has_ebikes": true, "virtual": true}}, {"id": "66955c46b1fbdc45cc2a564bc2433773", "name": "RONDA NORTE. LA COLEGIALA.", "latitude": 37.9922197, "longitude": -1.1377649, "timestamp": "2025-05-03T02:57:47.125471+00:00Z", "free_bikes": 5, "empty_slots": null, "extra": {"uid": "e5531281-d0f5-4d2b-8700-ae1d35861588", "renting": true, "returning": true, "last_updated": 1746238984, "scooters": 4, "has_scooters": true, "ebikes": 5, "has_ebikes": true, "virtual": true}}, {"id": "66d32a4f7d7b4f78beb31c998945a1ed", "name": "Av. Embajador Inocencio Arias", "latitude": 38.004478, "longitude": -1.131275, "timestamp": "2025-05-03T02:57:47.023131+00:00Z", "free_bikes": 0, "empty_slots": null, "extra": {"uid": "ddd60fa2-e6f9-411a-9ea7-2e37db064e3c", "renting": true, "returning": true, "last_updated": 1745695563, "scooters": 4, "has_scooters": true, "virtual": true}}, {"id": "66e3c122cf9998d91fa3be2febbc5251", "name": "46", "latitude": 38.02411993, "longitude": -1.123719963, "timestamp": "2025-05-03T02:57:47.112017+00:00Z", "free_bikes": 0, "empty_slots": null, "extra": {"uid": "b92346da-fe8c-4bf6-93ee-92385c9f6c44", "renting": true, "returning": true, "last_updated": 1743892848, "scooters": 4, "has_scooters": true, "virtual": true}}, {"id": "6783a42c4d8ef145b201c4b112a0a890", "name": "128", "latitude": 37.9725008, "longitude": -1.1279648, "timestamp": "2025-05-03T02:57:47.125542+00:00Z", "free_bikes": 0, "empty_slots": null, "extra": {"uid": "f1314c42-6be7-471a-9d87-b12ce77b6448", "renting": true, "returning": true, "last_updated": 1746024172, "scooters": 4, "has_scooters": true, "virtual": true}}, {"id": "67a23f71188942b2580007179172580c", "name": "FREMM Murcia", "latitude": 37.99007843, "longitude": -1.144509262, "timestamp": "2025-05-03T02:57:47.023861+00:00Z", "free_bikes": 0, "empty_slots": null, "extra": {"uid": "edaf0cdf-4b0f-43e5-b9f1-76396491b4ac", "renting": true, "returning": true, "last_updated": 1745348739, "scooters": 4, "has_scooters": true, "virtual": true}}, {"id": "67a385277aeb680e0a114f801c3cf9cb", "name": "70", "latitude": 37.99545485, "longitude": -1.133446073, "timestamp": "2025-05-03T02:57:47.112980+00:00Z", "free_bikes": 0, "empty_slots": null, "extra": {"uid": "c77778a6-4894-4a87-89cb-d490c9c44480", "renting": true, "returning": true, "last_updated": 1746228656, "scooters": 4, "has_scooters": true, "virtual": true}}, {"id": "67cf65c896a750310829cf7c451e9023", "name": "134", "latitude": 37.9751189, "longitude": -1.1277368, "timestamp": "2025-05-03T02:57:47.125516+00:00Z", "free_bikes": 0, "empty_slots": null, "extra": {"uid": "2a1c29d0-92ef-4572-9cbc-e1a3df503110", "renting": true, "returning": true, "last_updated": 1745769343, "scooters": 4, "has_scooters": true, "virtual": true}}, {"id": "67dc2fc8d0e4db462ef71bfdf4cbe256", "name": "Calle Central", "latitude": 38.0063657, "longitude": -1.1473488, "timestamp": "2025-05-03T02:57:47.113195+00:00Z", "free_bikes": 0, "empty_slots": null, "extra": {"uid": "eef1689d-9f12-4afd-af3b-6e02b1466aa0", "renting": true, "returning": true, "last_updated": 1746059431, "scooters": 4, "has_scooters": true, "virtual": true}}, {"id": "682f1fbab135e1898051e862ac100dab", "name": "57", "latitude": 38.0188788, "longitude": -1.166782927, "timestamp": "2025-05-03T02:57:47.023226+00:00Z", "free_bikes": 0, "empty_slots": null, "extra": {"uid": "a011c7b3-c700-49ea-baf4-f2b85ba690e8", "renting": true, "returning": true, "last_updated": 1744239705, "scooters": 4, "has_scooters": true, "virtual": true}}, {"id": "685a117ef05acb8ba8becc793689ac1c", "name": "Calle Segismundo Moret", "latitude": 37.97680979, "longitude": -1.110328532, "timestamp": "2025-05-03T02:57:47.113026+00:00Z", "free_bikes": 0, "empty_slots": null, "extra": {"uid": "4b208f75-6bf2-4f35-a62f-971fe085b9d0", "renting": true, "returning": true, "last_updated": 1745996406, "scooters": 4, "has_scooters": true, "virtual": true}},