{"id": "e-motion-rovereto", "name": "e.motion", "location": {"latitude": 45.88710661061543, "longitude": 11.042242751867644, "city": "Rovereto", "country": "IT"}, "href": "/v2/networks/e-motion-rovereto", "company": ["Comunicare S.r.l."], "system": "Bicincitt\u00e0", "source": "https://www.bicincitta.com/frmLeStazioni.aspx?ID=189", "stations": [{"id": "0e0774198b04798f0506f6c52ce0d3f2", "name": "Via Paoli", "latitude": 45.89177380040726, "longitude": 11.039904616532908, "timestamp": "2025-05-03T03:03:52.715512+00:00Z", "free_bikes": 5, "empty_slots": 3, "extra": {"uid": "1148", "number": 6, "status": "offline", "score": 3.4, "reviews": 4}}, {"id": "30a6dc727811ef523596ecc363eecc5e", "name": "Baldresca", "latitude": 45.8805278, "longitude": 11.02875, "timestamp": "2025-05-03T03:03:52.715682+00:00Z", "free_bikes": 5, "empty_slots": 3, "extra": {"uid": "1699", "number": 19, "status": "offline", "score": 1.0, "reviews": 1}}, {"id": "330c0ab501d36e7612cf8cae6fe800c5", "name": "Orvea", "latitude": 45.87202945143379, "longitude": 11.020309774135626, "timestamp": "2025-05-03T03:03:52.715642+00:00Z", "free_bikes": 5, "empty_slots": 3, "extra": {"uid": "1388", "number": 14, "status": "offline", "score": 3.2, "reviews": 3}}, {"id": "38a479b3f3123ed1b10a73352ec1eeb2", "name": "Marco", "latitude": 45.84133938920707, "longitude": 11.008448922615116, "timestamp": "2025-05-03T03:03:52.715522+00:00Z", "free_bikes": 5, "empty_slots": 3, "extra": {"uid": "1149", "number": 7, "status": "offline", "score": 1.6, "reviews": 4}}, {"id": "3a5a36808694054c8b4b19033e0eb023", "name": "Ospedale", "latitude": 45.88226500641319, "longitude": 11.040281016146878, "timestamp": "2025-05-03T03:03:52.715471+00:00Z", "free_bikes": 5, "empty_slots": 3, "extra": {"uid": "1144", "number": 2, "status": "offline", "score": 2.9, "reviews": 10}}, {"id": "6345830ed8490515a31e770c3edd2791", "name": "Quercia", "latitude": 45.90050916437712, "longitude": 11.036815184130887, "timestamp": "2025-05-03T03:03:52.715631+00:00Z", "free_bikes": 5, "empty_slots": 3, "extra": {"uid": "1210", "number": 13, "status": "offline", "score": 1.7, "reviews": 2}}, {"id": "7098a4a38b6eeeecd81a470d8341acf2", "name": "Piscina", "latitude": 45.88445275840435, "longitude": 11.033651829062546, "timestamp": "2025-05-03T03:03:52.715439+00:00Z", "free_bikes": 5, "empty_slots": 3, "extra": {"uid": "1139", "number": 18, "status": "offline", "score": 4.2, "reviews": 8}}, {"id": "753f76f9742c0ee330b655ac5c0ce9ff", "name": "Stazione FF.SS.", "latitude": 45.89125332494616, "longitude": 11.03489086508182, "timestamp": "2025-05-03T03:03:52.715460+00:00Z", "free_bikes": 5, "empty_slots": 3, "extra": {"uid": "1143", "number": 1, "status": "offline", "score": 3.0, "reviews": 27}}, {"id": "799efe851090b66906456ba099701964", "name": "Noriglio", "latitude": 45.88365364364294, "longitude": 11.070399481792492, "timestamp": "2025-05-03T03:03:52.715585+00:00Z", "free_bikes": 5, "empty_slots": 3, "extra": {"uid": "1152", "number": 10, "status": "offline", "score": 4.0, "reviews": 24}}, {"id": "8612490bb2e8da9e8c8f33f827c3edd4", "name": "Balista", "latitude": 45.896175282432274, "longitude": 11.03036572611154, "timestamp": "2025-05-03T03:03:52.715661+00:00Z", "free_bikes": 5, "empty_slots": 3, "extra": {"uid": "1436", "number": 16, "status": "offline", "score": 2.3, "reviews": 8}}, {"id": "8a0ab18cd1ec130bfe3561b39533b8e0", "name": "Villa Lagarina", "latitude": 45.91594639958107, "longitude": 11.031688259394059, "timestamp": "2025-05-03T03:03:52.715672+00:00Z", "free_bikes": 5, "empty_slots": 3, "extra": {"uid": "1437", "number": 17, "status": "offline", "score": 2.0, "reviews": 3}}, {"id": "8d6ef462570b20e440279a5478cba696", "name": "Stazione Mori", "latitude": 45.861171706692836, "longitude": 11.001933217048647, "timestamp": "2025-05-03T03:03:52.715652+00:00Z", "free_bikes": 5, "empty_slots": 3, "extra": {"uid": "1434", "number": 15, "status": "offline", "score": 1.0, "reviews": 1}}, {"id": "8fb0af95096174ae201f7a4b4db953ae", "name": "Lizzana", "latitude": 45.8675281353871, "longitude": 11.031902417860465, "timestamp": "2025-05-03T03:03:52.715531+00:00Z", "free_bikes": 5, "empty_slots": 3, "extra": {"uid": "1150", "number": 8, "status": "offline", "score": 2.8, "reviews": 2}}, {"id": "9057dffd2edf2e1d4c2e190c29b8ec69", "name": "P. Rosmini", "latitude": 45.89102037579931, "longitude": 11.043363036887968, "timestamp": "2025-05-03T03:03:52.715621+00:00Z", "free_bikes": 5, "empty_slots": 3, "extra": {"uid": "1154", "number": 12, "status": "offline", "score": 2.8, "reviews": 3}}, {"id": "9bedba482722ef1af29c869bc6966d62", "name": "Brione", "latitude": 45.90421911950808, "longitude": 11.044299836454002, "timestamp": "2025-05-03T03:03:52.715607+00:00Z", "free_bikes": 5, "empty_slots": 3, "extra": {"uid": "1153", "number": 11, "status": "offline", "score": 1.5, "reviews": 3}}, {"id": "b915d0dd6b853aa2f0f1a9449bdbf304", "name": "Zona Industriale", "latitude": 45.86630335827336, "longitude": 11.015673193887324, "timestamp": "2025-05-03T03:03:52.715502+00:00Z", "free_bikes": 5, "empty_slots": 3, "extra": {"uid": "1147", "number": 5, "status": "offline", "score": 3.0, "reviews": 2}}, {"id": "bc4db84fc567638797c202fff2a30f1b", "name": "Mart", "latitude": 45.89383120606002, "longitude": 11.043776690807363, "timestamp": "2025-05-03T03:03:52.715492+00:00Z", "free_bikes": 5, "empty_slots": 3, "extra": {"uid": "1146", "number": 4, "status": "offline", "score": 2.5, "reviews": 5}}, {"id": "d4647a534377416dab15a1620f3e4600", "name": "Municipio", "latitude": 45.88700893072052, "longitude": 11.04421812261512, "timestamp": "2025-05-03T03:03:52.715481+00:00Z", "free_bikes": 5, "empty_slots": 3, "extra": {"uid": "1145", "number": 3, "status": "offline", "score": 3.9, "reviews": 6}}, {"id": "f1a66c838b218be07f72cc401d01b435", "name": "Sacco", "latitude": 45.88477528345004, "longitude": 11.023286167216156, "timestamp": "2025-05-03T03:03:52.715564+00:00Z", "free_bikes": 5, "empty_slots": 3, "extra": {"uid": "1151", "number": 9, "status": "offline", "score": 2.3, "reviews": 20}}]}