{"id": "easybike-samos", "name": "EasyBike", "location": {"latitude": 37.754065919, "longitude": 26.9787850189, "city": "Samos", "country": "GR"}, "href": "/v2/networks/easybike-samos", "company": ["Brainbox Technology", "Smoove SAS"], "system": "EasyBike", "stations": [{"id": "1a4f476d3da320d31f6d4f1d07fbcf16", "name": "Dimarxeio", "latitude": 37.754099849865, "longitude": 26.978752832413, "timestamp": "2025-05-03T03:04:02.673808+00:00Z", "free_bikes": 0, "empty_slots": 6, "extra": {"slots": 20}}, {"id": "36b197bf0e9545680c55a5c9e6f7ca03", "name": "Gipedo Tennis", "latitude": 37.750583683529, "longitude": 26.975126485825, "timestamp": "2025-05-03T03:04:02.673819+00:00Z", "free_bikes": 2, "empty_slots": 7, "extra": {"slots": 22}}, {"id": "477c4a91b7ce080ccfa844418e1bd546", "name": "Limenarxeio", "latitude": 37.759011175229, "longitude": 26.970411162376, "timestamp": "2025-05-03T03:04:02.673814+00:00Z", "free_bikes": 1, "empty_slots": 4, "extra": {"slots": 14}}, {"id": "dc7239dfb8d3717b3108997a39f06402", "name": "Malagari", "latitude": 37.752852881166, "longitude": 26.959054689407, "timestamp": "2025-05-03T03:04:02.673817+00:00Z", "free_bikes": 1, "empty_slots": 2, "extra": {"slots": 16}}]}