{"id": "emobi-osijek", "name": "eMobi (Croatia)", "location": {"latitude": 45.554, "longitude": 18.6943, "city": "Osijek", "country": "HR"}, "href": "/v2/networks/emobi-osijek", "company": ["Nextbike GmbH"], "system": "Nextbike", "stations": [{"id": "010044c795444a57ac5cd540609b47cc", "name": "Mjesni odbor Cvjetno", "latitude": 45.533127, "longitude": 18.629127, "timestamp": "2025-05-03T03:03:40.223429+00:00Z", "free_bikes": 3, "empty_slots": null, "extra": {"uid": "99968860", "number": "31027", "bike_uids": ["88815", "88814", "88744"], "virtual": true}}, {"id": "029043608dc06383950a39ddf7876111", "name": "Vijenac Petrove gore", "latitude": 45.556735, "longitude": 18.653156, "timestamp": "2025-05-03T03:03:40.223264+00:00Z", "free_bikes": 6, "empty_slots": 2, "extra": {"uid": "56606503", "number": "31010", "slots": 8, "bike_uids": ["88879", "88803", "88796", "88768", "88746", "88742"], "virtual": false}}, {"id": "032d7c139b3bb55e6e880dbd16843963", "name": "Zeleno polje - okreti\u0161te tramvaja", "latitude": 45.552533, "longitude": 18.730779, "timestamp": "2025-05-03T03:03:40.223220+00:00Z", "free_bikes": 3, "empty_slots": 7, "extra": {"uid": "56606255", "number": "31012", "slots": 10, "bike_uids": ["88800", "88766", "88731"], "virtual": false}}, {"id": "26d8e83493013056998452ccdfbc1704", "name": "\u017dupanijska 3 (kod Konkatedrale)", "latitude": 45.560507, "longitude": 18.676449, "timestamp": "2025-05-03T03:03:40.223359+00:00Z", "free_bikes": 3, "empty_slots": 6, "extra": {"uid": "56607728", "number": "31000", "slots": 10, "bike_uids": ["88869", "88854", "88741"], "virtual": false}}, {"id": "30ee394e5142996e58cfc499f2a782b2", "name": "\u017deljezni\u010dki kolodvor", "latitude": 45.553224, "longitude": 18.683593, "timestamp": "2025-05-03T03:03:40.223176+00:00Z", "free_bikes": 3, "empty_slots": 4, "extra": {"uid": "56605771", "number": "31015", "slots": 7, "bike_uids": ["88870", "88790", "88713"], "virtual": false}}, {"id": "390200cedd458f35f060aabe94fc20ea", "name": "Portanova", "latitude": 45.555608, "longitude": 18.639728, "timestamp": "2025-05-03T03:03:40.223321+00:00Z", "free_bikes": 5, "empty_slots": 2, "extra": {"uid": "56607257", "number": "31006", "slots": 7, "bike_uids": ["88835", "88830", "88765", "88748", "88740"], "virtual": false}}, {"id": "421fd76b9c10a8ada9d3be92b5a55900", "name": "Bosutsko naselje kod kru\u017enog toka", "latitude": 45.545649, "longitude": 18.677996, "timestamp": "2025-05-03T03:03:40.223373+00:00Z", "free_bikes": 5, "empty_slots": 3, "extra": {"uid": "56634416", "number": "31004", "slots": 8, "bike_uids": ["88872", "88859", "88853", "88821", "88715"], "virtual": false}}, {"id": "5ccb6e57ce54a1de6ba892409c38ed26", "name": "Sjenjak", "latitude": 45.551588, "longitude": 18.698969, "timestamp": "2025-05-03T03:03:40.222813+00:00Z", "free_bikes": 4, "empty_slots": 3, "extra": {"uid": "56604248", "number": "31019", "slots": 7, "bike_uids": ["88852", "88841", "88810", "88734"], "virtual": false}}, {"id": "69168ab9b4323827fc218df9c68599e1", "name": "Prolaz kod Snje\u017ene Gospe ", "latitude": 45.554665, "longitude": 18.719618, "timestamp": "2025-05-03T03:03:40.223154+00:00Z", "free_bikes": 5, "empty_slots": 2, "extra": {"uid": "56605600", "number": "31014", "slots": 7, "bike_uids": ["88846", "88840", "88776", "88751", "88717"], "virtual": false}}, {"id": "702c165e37aabf60d6e3ecd56134a094", "name": "Jug 2 - sportska dvorana", "latitude": 45.54363, "longitude": 18.709508, "timestamp": "2025-05-03T03:03:40.223108+00:00Z", "free_bikes": 3, "empty_slots": 4, "extra": {"uid": "56605123", "number": "31017", "slots": 7, "bike_uids": ["88820", "88819", "88794"], "virtual": false}}, {"id": "7a4f349fd0a62c6d4f196e0feb4aeddb", "name": "Vi\u0161njevac - okreti\u0161te tramvaja", "latitude": 45.56694, "longitude": 18.616781, "timestamp": "2025-05-03T03:03:40.223304+00:00Z", "free_bikes": 0, "empty_slots": 7, "extra": {"uid": "56607147", "number": "31007", "slots": 7, "bike_uids": [], "virtual": false}}, {"id": "7d5060e2425adbac323d47089ae88965", "name": "Gacka ulica", "latitude": 45.549374, "longitude": 18.691283, "timestamp": "2025-05-03T03:03:40.223199+00:00Z", "free_bikes": 4, "empty_slots": 3, "extra": {"uid": "56606028", "number": "31013", "slots": 7, "bike_uids": ["88883", "88855", "88804", "88791"], "virtual": false}}, {"id": "8c13d571e5785a5c8be1c394bf2239a0", "name": "Gajev trg", "latitude": 45.557493, "longitude": 18.685162, "timestamp": "2025-05-03T03:03:40.223040+00:00Z", "free_bikes": 4, "empty_slots": 3, "extra": {"uid": "56604502", "number": "31009", "slots": 7, "bike_uids": ["88868", "88837", "88727", "88716"], "virtual": false}}, {"id": "9540ebfbf40365293ddd170decf64a77", "name": "Centar za posjetitelje", "latitude": 45.559122, "longitude": 18.698711, "timestamp": "2025-05-03T03:03:40.222749+00:00Z", "free_bikes": 5, "empty_slots": 2, "extra": {"uid": "56603732", "number": "31021", "slots": 7, "bike_uids": ["88843", "88792", "88780", "88755", "88718"], "virtual": false}}, {"id": "97d50f30be3380bae993a7a8afc3ae6c", "name": "ZOO vrt", "latitude": 45.568469, "longitude": 18.669543, "timestamp": "2025-05-03T03:03:40.222610+00:00Z", "free_bikes": 2, "empty_slots": 5, "extra": {"uid": "56557313", "number": "31024", "slots": 7, "bike_uids": ["88816", "88719"], "virtual": false}}, {"id": "a4c6f56c750b325e0b8e22e83e98df67", "name": "Autobusni kolodvor Osijek", "latitude": 45.553132, "longitude": 18.679924, "timestamp": "2025-05-03T03:03:40.223416+00:00Z", "free_bikes": 4, "empty_slots": 4, "extra": {"uid": "99968669", "number": "31026", "slots": 8, "bike_uids": ["88833", "88798", "88773", "88720"], "virtual": true}}, {"id": "c877cd1cbf2d04f2e439d7ecf8870c0d", "name": "Hrvatski dom Josipovac", "latitude": 45.577042, "longitude": 18.587701, "timestamp": "2025-05-03T03:03:40.223387+00:00Z", "free_bikes": 5, "empty_slots": 3, "extra": {"uid": "56635178", "number": "31003", "slots": 8, "bike_uids": ["88882", "88878", "88866", "88851", "88756"], "virtual": false}}, {"id": "caf8c99332dfa8a8a208c87d1d9f40eb", "name": "Sveu\u010dili\u0161ni kampus", "latitude": 45.554849, "longitude": 18.708981, "timestamp": "2025-05-03T03:03:40.222785+00:00Z", "free_bikes": 9, "empty_slots": 0, "extra": {"uid": "56603915", "number": "31020", "slots": 7, "bike_uids": ["88885", "88862", "88860", "88847", "88826", "88811", "88788", "88779", "88729"], "virtual": false}}, {"id": "cfc2d8621a5aed16c5dd200bc45a621e", "name": "Copacabana", "latitude": 45.565415, "longitude": 18.692657, "timestamp": "2025-05-03T03:03:40.222690+00:00Z", "free_bikes": 0, "empty_slots": 7, "extra": {"uid": "56603409", "number": "31022", "slots": 7, "bike_uids": [], "virtual": false}}, {"id": "de01b5d2a6dae73e694bae7e67289db3", "name": "Vijenac I. Me\u0161trovi\u0107a", "latitude": 45.555626, "longitude": 18.696263, "timestamp": "2025-05-03T03:03:40.223081+00:00Z", "free_bikes": 6, "empty_slots": 3, "extra": {"uid": "56605002", "number": "31018", "slots": 9, "bike_uids": ["88884", "88867", "88865", "88808", "88807", "88769"], "virtual": false}}, {"id": "e472d2c9f9b6e6a443268e8b183109ec", "name": "O\u0160 Jagode Truhelke", "latitude": 45.558916, "longitude": 18.719629, "timestamp": "2025-05-03T03:03:40.223242+00:00Z", "free_bikes": 6, "empty_slots": 1, "extra": {"uid": "56606354", "number": "31011", "slots": 7, "bike_uids": ["88850", "88845", "88801", "88799", "88745", "88736"], "virtual": false}}, {"id": "e667c9d3408ee9a85f130e21c35c63b3", "name": "Tr\u017enica Retfala", "latitude": 45.563365, "longitude": 18.654028, "timestamp": "2025-05-03T03:03:40.223343+00:00Z", "free_bikes": 5, "empty_slots": 2, "extra": {"uid": "56607406", "number": "31005", "slots": 7, "bike_uids": ["88877", "88863", "88831", "88793", "88760"], "virtual": false}}, {"id": "eafedfa3e00884e30f78917668f9f829", "name": "Ka\u0161telanska - Uma\u0161ka - kri\u017eanje", "latitude": 45.545277, "longitude": 18.725401, "timestamp": "2025-05-03T03:03:40.223131+00:00Z", "free_bikes": 5, "empty_slots": 3, "extra": {"uid": "56605390", "number": "31016", "slots": 8, "bike_uids": ["88874", "88857", "88838", "88836", "88787"], "virtual": false}}, {"id": "ef8d786db35fcd76fe5ed6825b3ca648", "name": "BIOS - poduzetni\u010dki inkubator", "latitude": 45.564655, "longitude": 18.63341, "timestamp": "2025-05-03T03:03:40.222660+00:00Z", "free_bikes": 6, "empty_slots": 1, "extra": {"uid": "56602854", "number": "31023", "slots": 7, "bike_uids": ["88710", "88875", "88829", "88795", "88789", "88759"], "virtual": false}}, {"id": "f6a12c910481877aab0080b6a9f6e4c8", "name": "Tenja - centar", "latitude": 45.501605, "longitude": 18.745272, "timestamp": "2025-05-03T03:03:40.223402+00:00Z", "free_bikes": 4, "empty_slots": 3, "extra": {"uid": "56635675", "number": "31001", "slots": 7, "bike_uids": ["88876", "88842", "88805", "88749"], "virtual": false}}, {"id": "fece525c5c0c16c24eafbb5cf01f181d", "name": "Jug 2 - centar", "latitude": 45.543593, "longitude": 18.718846, "timestamp": "2025-05-03T03:03:40.223284+00:00Z", "free_bikes": 3, "empty_slots": 4, "extra": {"uid": "56606879", "number": "31008", "slots": 7, "bike_uids": ["88858", "88822", "88782"], "virtual": false}}]}