{"id": "free-bike-sharing", "name": "FRee Bike sharing", "location": {"latitude": 41.645081, "longitude": 13.342123, "city": "Frosinone", "country": "IT"}, "href": "/v2/networks/free-bike-sharing", "company": ["Comunicare S.r.l."], "system": "Bicincitt\u00e0", "source": "https://www.bicincitta.com/frmLeStazioni.aspx?ID=53", "stations": [{"id": "30f00c4b2eb3f1f7cfc7e74c311883e4", "name": "07. Parcheggio Ospedale Spaziani", "latitude": 41.63951712093907, "longitude": 13.328518867492678, "timestamp": "2025-05-03T03:03:49.647989+00:00Z", "free_bikes": 0, "empty_slots": 6, "extra": {"uid": "1994", "number": 7, "status": "offline", "score": 1.0, "reviews": 1}}, {"id": "406cff0a8b3ce24542978d6732a662de", "name": "03. Via Aldo Moro", "latitude": 41.6431026, "longitude": 13.3456679, "timestamp": "2025-05-03T03:03:49.647953+00:00Z", "free_bikes": 5, "empty_slots": 3, "extra": {"uid": "462", "number": 3, "status": "offline", "score": 2.7, "reviews": 5}}, {"id": "507c216f6f60b7928229bb21da045e3e", "name": "06. Cavoni", "latitude": 41.645216838676006, "longitude": 13.334378005062078, "timestamp": "2025-05-03T03:03:49.647979+00:00Z", "free_bikes": 5, "empty_slots": 3, "extra": {"uid": "1005", "number": 6, "status": "offline", "score": 2.3, "reviews": 2}}, {"id": "8703bee4955cbd7ef8612fe4d8aa56b3", "name": "02. Campo CONI", "latitude": 41.63478627518508, "longitude": 13.337445259094238, "timestamp": "2025-05-03T03:03:49.647941+00:00Z", "free_bikes": 5, "empty_slots": 3, "extra": {"uid": "461", "number": 2, "status": "offline", "score": 2.2, "reviews": 2}}, {"id": "b010faa9244d17c9f998fa7f9d6f86e5", "name": "04. Villa Comunale", "latitude": 41.6478426, "longitude": 13.3435074, "timestamp": "2025-05-03T03:03:49.647962+00:00Z", "free_bikes": 5, "empty_slots": 3, "extra": {"uid": "463", "number": 4, "status": "offline", "score": 3.3, "reviews": 4}}, {"id": "be7f7d326b8ffa4220716d0e444c73df", "name": "09. Corso Lazio", "latitude": 41.62211552048467, "longitude": 13.324608206748964, "timestamp": "2025-05-03T03:03:49.648008+00:00Z", "free_bikes": 0, "empty_slots": 6, "extra": {"uid": "1996", "number": 9, "status": "under construction", "score": 1.0, "reviews": 1}}, {"id": "ce34a70eae741aa27919b09e8d3ec94e", "name": "08. Piazza Vittorio", "latitude": 41.64168597733825, "longitude": 13.350073099136354, "timestamp": "2025-05-03T03:03:49.647998+00:00Z", "free_bikes": 0, "empty_slots": 6, "extra": {"uid": "1995", "number": 8, "status": "offline", "score": 1.0, "reviews": 1}}, {"id": "dc85e490160008f5811ea33c8e84fe69", "name": "05. Conservatorio Refice", "latitude": 41.63342610791405, "longitude": 13.325778080503824, "timestamp": "2025-05-03T03:03:49.647970+00:00Z", "free_bikes": 5, "empty_slots": 3, "extra": {"uid": "464", "number": 5, "status": "offline", "score": 2.7, "reviews": 4}}, {"id": "e6f369e58c1e41a5239b0f72bc1f904d", "name": "01. Stazione FF.SS.", "latitude": 41.6252891, "longitude": 13.3296275, "timestamp": "2025-05-03T03:03:49.647925+00:00Z", "free_bikes": 5, "empty_slots": 3, "extra": {"uid": "460", "number": 1, "status": "offline", "score": 3.5, "reviews": 9}}]}