{"id": "gira", "name": "Gira", "location": {"latitude": 38.724954, "longitude": -9.149334, "city": "Lisbon", "country": "PT"}, "href": "/v2/networks/gira", "company": ["EMEL"], "system": "Gira", "stations": [{"id": "0022b3d9a6f1bc55e8682376ba70eee3", "name": "478 - Alameda da Universidade / Faculdade de Letras", "latitude": 38.75359, "longitude": -9.15717, "timestamp": "2025-05-03T03:03:55.747294+00:00Z", "free_bikes": 0, "empty_slots": 32, "extra": {"uid": "478", "slots": 32, "status": "active", "online": true}}, {"id": "02a4091f140f7711306715aae4ddc0cb", "name": "476 - Av. Professor Gama Pinto / Reitoria", "latitude": 38.75231, "longitude": -9.15885, "timestamp": "2025-05-03T03:03:55.748203+00:00Z", "free_bikes": 2, "empty_slots": 21, "extra": {"uid": "476", "slots": 23, "status": "active", "online": true}}, {"id": "03465ba426916064aaa52db11489dee1", "name": "555 - Alameda das Linhas de Torres", "latitude": 38.770657, "longitude": -9.160248, "timestamp": "2025-05-03T03:03:55.748261+00:00Z", "free_bikes": 0, "empty_slots": 33, "extra": {"uid": "555", "slots": 33, "status": "active", "online": true}}, {"id": "0460e15a79b5d3eb9ebc1e43c9272257", "name": "112 - Alameda dos Oceanos / Passeio das Gar\u00e7as", "latitude": 38.78069, "longitude": -9.09622, "timestamp": "2025-05-03T03:03:55.748195+00:00Z", "free_bikes": 11, "empty_slots": 3, "extra": {"uid": "112", "slots": 14, "status": "active", "online": true}}, {"id": "0563789e16e752c7841cbb4a883e62d4", "name": "238 - Rua de Cascais / Alc\u00e2ntara Mar", "latitude": 38.702936, "longitude": -9.175234, "timestamp": "2025-05-03T03:03:55.747254+00:00Z", "free_bikes": 16, "empty_slots": 7, "extra": {"uid": "238", "slots": 23, "status": "active", "online": true}}, {"id": "06ab2f5a3a69dd3d9ba96a0c7eb38b06", "name": "427 - Av. Rep\u00fablica / Av. Visconde Valmor", "latitude": 38.73812, "longitude": -9.14617, "timestamp": "2025-05-03T03:03:55.747324+00:00Z", "free_bikes": 1, "empty_slots": 11, "extra": {"uid": "427", "slots": 12, "status": "active", "online": true}}, {"id": "06f018162348eb9767418d3dd2fbdeeb", "name": "475 - Av. Professor Gama Pinto / Cantina Velha", "latitude": 38.75115, "longitude": -9.15907, "timestamp": "2025-05-03T03:03:55.747281+00:00Z", "free_bikes": 4, "empty_slots": 37, "extra": {"uid": "475", "slots": 41, "status": "active", "online": true}}, {"id": "09c1feb9dc6be1d8b133e3c322d4c173", "name": "420 - Av. Rovisco Pais / Av. Manuel da Maia", "latitude": 38.73617, "longitude": -9.13672, "timestamp": "2025-05-03T03:03:55.747367+00:00Z", "free_bikes": 4, "empty_slots": 22, "extra": {"uid": "420", "slots": 26, "status": "active", "online": true}}, {"id": "11072fb28b91d9c7cbc342a72aa5142e", "name": "289 - Parque Ribeirinho Oriente", "latitude": 38.744521, "longitude": -9.097661, "timestamp": "2025-05-03T03:03:55.748404+00:00Z", "free_bikes": 16, "empty_slots": 10, "extra": {"uid": "289", "slots": 26, "status": "active", "online": true}}, {"id": "117c85f1ed261f3fbffc8ed5044c9d3a", "name": "316 - Rua Ant\u00f3nio Pedro / Rua Pascoal de Melo", "latitude": 38.731424, "longitude": -9.135356, "timestamp": "2025-05-03T03:03:55.748257+00:00Z", "free_bikes": 9, "empty_slots": 5, "extra": {"uid": "316", "slots": 14, "status": "active", "online": true}}, {"id": "118fe3707a81e4c37cd75ec9e41bf806", "name": "472 - Rua Marqu\u00eas Soveral / ES Padre Ant\u00f3nio Vieira", "latitude": 38.75784, "longitude": -9.13608, "timestamp": "2025-05-03T03:03:55.748444+00:00Z", "free_bikes": 2, "empty_slots": 12, "extra": {"uid": "472", "slots": 14, "status": "active", "online": true}}, {"id": "13dbde921b53f697dcc389f8437610d8", "name": "487 - Rua Professor Jo\u00e3o Barreira", "latitude": 38.76136, "longitude": -9.17096, "timestamp": "2025-05-03T03:03:55.747462+00:00Z", "free_bikes": 8, "empty_slots": 6, "extra": {"uid": "487", "slots": 14, "status": "active", "online": true}}, {"id": "164a1fd890fbe069b111bf0837c2edc3", "name": "225 - Martim Moniz", "latitude": 38.71526, "longitude": -9.13694, "timestamp": "2025-05-03T03:03:55.748079+00:00Z", "free_bikes": 5, "empty_slots": 11, "extra": {"uid": "225", "slots": 16, "status": "active", "online": true}}, {"id": "174bc5dadd02a28d80ff0ddcd8870020", "name": "507 - Rua Jos\u00e9 dos Santos Pereira / Rua Conde de Almoster", "latitude": 38.744727, "longitude": -9.193024, "timestamp": "2025-05-03T03:03:55.747431+00:00Z", "free_bikes": 3, "empty_slots": 14, "extra": {"uid": "507", "slots": 17, "status": "active", "online": true}}, {"id": "1792fc6a2721e408f923a42085b66cee", "name": "224 - Martim Moniz", "latitude": 38.71498, "longitude": -9.13651, "timestamp": "2025-05-03T03:03:55.748053+00:00Z", "free_bikes": 10, "empty_slots": 12, "extra": {"uid": "224", "slots": 22, "status": "active", "online": true}}, {"id": "17fa454175897471ac0ff044e39c5bc9", "name": "101 - Alameda dos Oceanos / Rua dos Argonautas", "latitude": 38.756161, "longitude": -9.096804, "timestamp": "2025-05-03T03:03:55.747316+00:00Z", "free_bikes": 14, "empty_slots": 2, "extra": {"uid": "101", "slots": 16, "status": "active", "online": true}}, {"id": "195710d4d952d72af4c4ea0945c9be7d", "name": "456 - Entrecampos / Av. das For\u00e7as Armadas", "latitude": 38.74877, "longitude": -9.14872, "timestamp": "2025-05-03T03:03:55.748210+00:00Z", "free_bikes": 4, "empty_slots": 37, "extra": {"uid": "456", "slots": 41, "status": "active", "online": true}}, {"id": "1c72af5bbf29fcc2c98b91b3b67c09aa", "name": "565 - Rua A do Pual / Parque Oeste Alta de Lisboa", "latitude": 38.777121, "longitude": -9.15743, "timestamp": "2025-05-03T03:03:55.748183+00:00Z", "free_bikes": 0, "empty_slots": 23, "extra": {"uid": "565", "slots": 23, "status": "repair", "online": false}}, {"id": "1cd625af479f87e854080ff165418953", "name": "438 - Avenida Columbano Bordalo Pinheiro / Pra\u00e7a de Espanha", "latitude": 38.738086, "longitude": -9.159409, "timestamp": "2025-05-03T03:03:55.748300+00:00Z", "free_bikes": 2, "empty_slots": 20, "extra": {"uid": "438", "slots": 22, "status": "active", "online": true}}, {"id": "1e0f92076f2cb42bbaa58079f7b4d651", "name": "449 - Av. 5 de Outubro / Rua da Cruz Vermelha", "latitude": 38.746836, "longitude": -9.150085, "timestamp": "2025-05-03T03:03:55.748441+00:00Z", "free_bikes": 2, "empty_slots": 12, "extra": {"uid": "449", "slots": 14, "status": "active", "online": true}}, {"id": "20878ecfe81bca103721a56f31f577c7", "name": "110 - Rua de Moscavide", "latitude": 38.778466, "longitude": -9.097068, "timestamp": "2025-05-03T03:03:55.747350+00:00Z", "free_bikes": 14, "empty_slots": 4, "extra": {"uid": "110", "slots": 18, "status": "active", "online": true}}, {"id": "22d39e737c090841ed75495186233c61", "name": "551 - Rua Francisco Stromp / Alameda das Linhas de", "latitude": 38.762584, "longitude": -9.157235, "timestamp": "2025-05-03T03:03:55.748091+00:00Z", "free_bikes": 7, "empty_slots": 13, "extra": {"uid": "551", "slots": 20, "status": "active", "online": true}}, {"id": "22e86f7d14a0457b254952d3a6b682d0", "name": "446 - Av. Rep\u00fablica / Interface Entrecampos ", "latitude": 38.74456, "longitude": -9.14773, "timestamp": "2025-05-03T03:03:55.747333+00:00Z", "free_bikes": 0, "empty_slots": 40, "extra": {"uid": "446", "slots": 40, "status": "active", "online": true}}, {"id": "236a87b115cad4b0c6bbae48af5e28d8", "name": "327 - Parada do Alto de S\u00e3o Jo\u00e3o", "latitude": 38.729419, "longitude": -9.123307, "timestamp": "2025-05-03T03:03:55.748316+00:00Z", "free_bikes": 10, "empty_slots": 10, "extra": {"uid": "327", "slots": 20, "status": "active", "online": true}}, {"id": "238510600ca1296fd87e9a60305a1bbd", "name": "237 - Avenida da India / Praca das Industrias", "latitude": 38.699093, "longitude": -9.182262, "timestamp": "2025-05-03T03:03:55.748117+00:00Z", "free_bikes": 16, "empty_slots": 14, "extra": {"uid": "237", "slots": 30, "status": "active", "online": true}}, {"id": "245addec3662217516341d9a0e67bf6d", "name": "315 - Rua Passos Manuel/ Jardim Constantino", "latitude": 38.731264, "longitude": -9.136968, "timestamp": "2025-05-03T03:03:55.748382+00:00Z", "free_bikes": 4, "empty_slots": 16, "extra": {"uid": "315", "slots": 20, "status": "active", "online": true}}, {"id": "25a401a322a736ace5e32bad7d87b65b", "name": "516 - Rua Professor Carlos Teixeira / Rua Professor Sim\u00f5es Raposo", "latitude": 38.76217, "longitude": -9.174872, "timestamp": "2025-05-03T03:03:55.747444+00:00Z", "free_bikes": 4, "empty_slots": 12, "extra": {"uid": "516", "slots": 16, "status": "active", "online": true}}, {"id": "26652d3ae5acac387e824a95a81b465a", "name": "473 - Av. do Brasil / Av. de Roma", "latitude": 38.75643, "longitude": -9.14697, "timestamp": "2025-05-03T03:03:55.747996+00:00Z", "free_bikes": 3, "empty_slots": 11, "extra": {"uid": "473", "slots": 14, "status": "active", "online": true}}, {"id": "298b74ed86d6ab68f216c8475d7fe123", "name": "209 - Ribeira das Naus", "latitude": 38.705954, "longitude": -9.141466, "timestamp": "2025-05-03T03:03:55.747397+00:00Z", "free_bikes": 15, "empty_slots": 12, "extra": {"uid": "209", "slots": 27, "status": "active", "online": true}}, {"id": "2c50176f8269a6986a8ff1ae80057b93", "name": "511 - Avenida do Uruguai", "latitude": 38.753789, "longitude": -9.196294, "timestamp": "2025-05-03T03:03:55.748293+00:00Z", "free_bikes": 16, "empty_slots": 11, "extra": {"uid": "511", "slots": 27, "status": "active", "online": true}}, {"id": "2dc8a80e758ab9ab4f420281a8d10d2c", "name": "221 - Rua do Crucifixo / Rua S\u00e3o Nicolau", "latitude": 38.710191, "longitude": -9.138828, "timestamp": "2025-05-03T03:03:55.748266+00:00Z", "free_bikes": 6, "empty_slots": 9, "extra": {"uid": "221", "slots": 15, "status": "active", "online": true}}, {"id": "2e23ad32733a2e20b29e101250ef61c5", "name": "441 - Rua Soeiro Pereira Gomes", "latitude": 38.74516, "longitude": -9.160048, "timestamp": "2025-05-03T03:03:55.748228+00:00Z", "free_bikes": 1, "empty_slots": 16, "extra": {"uid": "441", "slots": 17, "status": "active", "online": true}}, {"id": "2fba22fce410af091b64ab214da1a0d4", "name": "106 - Jardim Garcia da Orta", "latitude": 38.769459, "longitude": -9.092506, "timestamp": "2025-05-03T03:03:55.748351+00:00Z", "free_bikes": 1, "empty_slots": 13, "extra": {"uid": "106", "slots": 14, "status": "active", "online": true}}, {"id": "31b4228d3c8c8ddd28bd82ef7e50d09e", "name": "150 - Avenida Dr. Francisco Luis Gomes / Go Fit", "latitude": 38.769665, "longitude": -9.111745, "timestamp": "2025-05-03T03:03:55.747528+00:00Z", "free_bikes": 15, "empty_slots": 2, "extra": {"uid": "150", "slots": 17, "status": "active", "online": true}}, {"id": "32337f19de7fb7400f14331f8fe697ba", "name": "314 - Rua Marques da Silva / Rua Ant\u00f3nio Pedro", "latitude": 38.729657, "longitude": -9.135675, "timestamp": "2025-05-03T03:03:55.748379+00:00Z", "free_bikes": 7, "empty_slots": 5, "extra": {"uid": "314", "slots": 12, "status": "active", "online": true}}, {"id": "328932589469d6c1422fa78f5a289b8a", "name": "331 - Avenida General Ro\u00e7adas / Mercado de Sapadores", "latitude": 38.722547, "longitude": -9.128819, "timestamp": "2025-05-03T03:03:55.747328+00:00Z", "free_bikes": 13, "empty_slots": 5, "extra": {"uid": "331", "slots": 18, "status": "active", "online": true}}, {"id": "331afae53b580d018414c38d843b3df1", "name": "212 - Av. Infante Dom Henrique / Terminal de Cruzeiros", "latitude": 38.71035, "longitude": -9.12769, "timestamp": "2025-05-03T03:03:55.748125+00:00Z", "free_bikes": 3, "empty_slots": 17, "extra": {"uid": "212", "slots": 20, "status": "active", "online": true}}, {"id": "3346b7be65be22ab19acd32df414464b", "name": "107 - Rotunda dos Vice-Reis", "latitude": 38.774505, "longitude": -9.095416, "timestamp": "2025-05-03T03:03:55.747346+00:00Z", "free_bikes": 5, "empty_slots": 9, "extra": {"uid": "107", "slots": 14, "status": "active", "online": true}}, {"id": "349a07bb513a0743ffc7e1bb80d05948", "name": "450 - Rua Alfredo Cort\u00eas", "latitude": 38.746268, "longitude": -9.143854, "timestamp": "2025-05-03T03:03:55.748308+00:00Z", "free_bikes": 5, "empty_slots": 10, "extra": {"uid": "450", "slots": 15, "status": "active", "online": true}}, {"id": "363e4cb1135fe6e665ea0b35e0ea32d8", "name": "114 - Via do Oriente", "latitude": 38.78836, "longitude": -9.09974, "timestamp": "2025-05-03T03:03:55.748031+00:00Z", "free_bikes": 9, "empty_slots": 1, "extra": {"uid": "114", "slots": 10, "status": "active", "online": true}}, {"id": "3880ff5b2fe4408735bf16ae7383f16e", "name": "113 - Alameda dos Oceanos/ Passeio do Levante", "latitude": 38.78414, "longitude": -9.09825, "timestamp": "2025-05-03T03:03:55.748149+00:00Z", "free_bikes": 9, "empty_slots": 5, "extra": {"uid": "113", "slots": 14, "status": "active", "online": true}}, {"id": "393b8a02acf60016ba3648a44727b174", "name": "479 - Rua Professor Oliveira Marques", "latitude": 38.75491, "longitude": -9.15724, "timestamp": "2025-05-03T03:03:55.748064+00:00Z", "free_bikes": 0, "empty_slots": 13, "extra": {"uid": "479", "slots": 13, "status": "active", "online": true}}, {"id": "3c97110222ef6f7cb0afafa8d16d2f66", "name": "137 - Rua Cidade de Bissau (entrada SPACIO)", "latitude": 38.762829, "longitude": -9.114505, "timestamp": "2025-05-03T03:03:55.748247+00:00Z", "free_bikes": 21, "empty_slots": 12, "extra": {"uid": "137", "slots": 33, "status": "active", "online": true}}, {"id": "3d3ae1629f57eb79801b5269322de49e", "name": "503 - Rua Conde de Almoster / Rua Carlos Pereira", "latitude": 38.74266, "longitude": -9.178764, "timestamp": "2025-05-03T03:03:55.748304+00:00Z", "free_bikes": 7, "empty_slots": 5, "extra": {"uid": "503", "slots": 12, "status": "active", "online": true}}, {"id": "3e0912a267d7a8c5b797a2c40999d881", "name": "435 - Interface de Sete Rios", "latitude": 38.740579, "longitude": -9.166955, "timestamp": "2025-05-03T03:03:55.747341+00:00Z", "free_bikes": 0, "empty_slots": 43, "extra": {"uid": "435", "slots": 43, "status": "active", "online": true}}, {"id": "3ed6be71045dde5f7b9488a5cee1b071", "name": "408 - Pra\u00e7a Duque de Saldanha", "latitude": 38.733749, "longitude": -9.144117, "timestamp": "2025-05-03T03:03:55.747479+00:00Z", "free_bikes": 2, "empty_slots": 8, "extra": {"uid": "408", "slots": 10, "status": "active", "online": true}}, {"id": "401a867dabd20e63efceb70fcd867403", "name": "115 - Passeio dos Her\u00f3is do Mar / Rua Capit\u00e3o Cook", "latitude": 38.793, "longitude": -9.09781, "timestamp": "2025-05-03T03:03:55.747453+00:00Z", "free_bikes": 22, "empty_slots": 7, "extra": {"uid": "115", "slots": 29, "status": "active", "online": true}}, {"id": "427df2549597b2059e3820a9391c2cfd", "name": "288 - Pra\u00e7a David Leandro da Silva", "latitude": 38.742484, "longitude": -9.102359, "timestamp": "2025-05-03T03:03:55.747423+00:00Z", "free_bikes": 5, "empty_slots": 17, "extra": {"uid": "288", "slots": 22, "status": "active", "online": true}}, {"id": "456692b9413c5cbe9ee0240264ce3054", "name": "505 - Rua Sousa Loureiro / Rua Conde de Almoster", "latitude": 38.745011, "longitude": -9.184358, "timestamp": "2025-05-03T03:03:55.748008+00:00Z", "free_bikes": 2, "empty_slots": 15, "extra": {"uid": "505", "slots": 17, "status": "active", "online": true}}, {"id": "4c449b3c3d9db46bbb5b1c1a58a5e67d", "name": "203 - Padr\u00e3o dos Descobrimentos", "latitude": 38.6935, "longitude": -9.20633, "timestamp": "2025-05-03T03:03:55.748041+00:00Z", "free_bikes": 7, "empty_slots": 15, "extra": {"uid": "203", "slots": 22, "status": "active", "online": true}}, {"id": "4dc46348fac07b92b8b8d9d87e6e9888", "name": "459 - Rua Maria Am\u00e1lia Vaz de Carvalho / ES Rainha D. Leonor", "latitude": 38.751481, "longitude": -9.141741, "timestamp": "2025-05-03T03:03:55.748019+00:00Z", "free_bikes": 4, "empty_slots": 16, "extra": {"uid": "459", "slots": 20, "status": "active", "online": true}}, {"id": "4eab55faf436abc588fc6a0d0a6add0e", "name": "519 - Rua Prof. Pulido Valente / Rua Prof. M\u00e1rio ", "latitude": 38.763204, "longitude": -9.1691, "timestamp": "2025-05-03T03:03:55.747393+00:00Z", "free_bikes": 12, "empty_slots": 13, "extra": {"uid": "519", "slots": 25, "status": "active", "online": true}}, {"id": "515496073ec6f0f85fcb9b470c52d4cf", "name": "448 - Pra\u00e7a Marechal Humberto Delgado", "latitude": 38.741954, "longitude": -9.168795, "timestamp": "2025-05-03T03:03:55.748335+00:00Z", "free_bikes": 6, "empty_slots": 31, "extra": {"uid": "448", "slots": 37, "status": "active", "online": true}}, {"id": "51d6c9df1e240509e050dfd3852e22ee", "name": "232 - Avenida da \u00cdndia / Centro de Arqueologia de Lisboa", "latitude": 38.694155, "longitude": -9.212149, "timestamp": "2025-05-03T03:03:55.748114+00:00Z", "free_bikes": 15, "empty_slots": 7, "extra": {"uid": "232", "slots": 22, "status": "active", "online": true}}, {"id": "530186256c3b1025078910734c253158", "name": "305 - Avenida da Liberdade / Rua Barata Salgueiro", "latitude": 38.72228, "longitude": -9.147, "timestamp": "2025-05-03T03:03:55.747290+00:00Z", "free_bikes": 1, "empty_slots": 15, "extra": {"uid": "305", "slots": 16, "status": "active", "online": true}}, {"id": "5381c421b6c5f8145aee8ac9508917aa", "name": "512 - Metro da Pontinha", "latitude": 38.762605, "longitude": -9.196769, "timestamp": "2025-05-03T03:03:55.747359+00:00Z", "free_bikes": 17, "empty_slots": 14, "extra": {"uid": "512", "slots": 31, "status": "active", "online": true}}, {"id": "53f0f7478136391174510bfa599486fb", "name": "445 - Avenida Afonso Costa / SSCML", "latitude": 38.74068, "longitude": -9.127572, "timestamp": "2025-05-03T03:03:55.748186+00:00Z", "free_bikes": 15, "empty_slots": 9, "extra": {"uid": "445", "slots": 24, "status": "active", "online": true}}, {"id": "547a785bdc19271a8b7f124227118e3b", "name": "133 - Rua Cidade de Benguela / Avenida Cidade de L", "latitude": 38.76503, "longitude": -9.110724, "timestamp": "2025-05-03T03:03:55.747668+00:00Z", "free_bikes": 7, "empty_slots": 11, "extra": {"uid": "133", "slots": 18, "status": "active", "online": true}}, {"id": "5887cd0245ab22e571eafd13879f84ab", "name": "215 - Av. 24 de Julho", "latitude": 38.70662, "longitude": -9.14949, "timestamp": "2025-05-03T03:03:55.748225+00:00Z", "free_bikes": 0, "empty_slots": 17, "extra": {"uid": "215", "slots": 17, "status": "active", "online": true}}, {"id": "58c6138b3f75cf28ee8ca30854d841f2", "name": "103 - Jardim da \u00c1gua", "latitude": 38.761218, "longitude": -9.095019, "timestamp": "2025-05-03T03:03:55.748430+00:00Z", "free_bikes": 4, "empty_slots": 16, "extra": {"uid": "103", "slots": 20, "status": "active", "online": true}}, {"id": "59cc40c1a05634d44de8f2625a4de5af", "name": "151 - Rua Contra Almirante Ferraz / Escola Sec.Ant\u00f3nio Dam\u00e1sio", "latitude": 38.770434, "longitude": -9.108728, "timestamp": "2025-05-03T03:03:55.748269+00:00Z", "free_bikes": 6, "empty_slots": 18, "extra": {"uid": "151", "slots": 24, "status": "active", "online": true}}, {"id": "59e28692f5df0e2155e5c86a392c1131", "name": "429 - Av. Defensores de Chaves / Av. Elias Garcia", "latitude": 38.738442, "longitude": -9.144196, "timestamp": "2025-05-03T03:03:55.748415+00:00Z", "free_bikes": 2, "empty_slots": 19, "extra": {"uid": "429", "slots": 21, "status": "active", "online": true}}, {"id": "5b3f8d5e8d760bfc2f5f5278f6d4694f", "name": "460 - Av. Rio de Janeiro / Parque de Jogos 1\u00ba de Maio", "latitude": 38.75176, "longitude": -9.13749, "timestamp": "2025-05-03T03:03:55.748363+00:00Z", "free_bikes": 4, "empty_slots": 11, "extra": {"uid": "460", "slots": 15, "status": "active", "online": true}}, {"id": "5e87a48e6cefb56cba5d905cee8a0c58", "name": "552 - Alameda das Linhas de Torres / Hospital Puli", "latitude": 38.766075, "longitude": -9.157335, "timestamp": "2025-05-03T03:03:55.748050+00:00Z", "free_bikes": 10, "empty_slots": 2, "extra": {"uid": "552", "slots": 12, "status": "active", "online": true}}, {"id": "5ed9433a94d2a69e6ccbfae506d2c9f0", "name": "514 - Avenida do Colegio Militar / Rua Adelaide Cabete", "latitude": 38.75736, "longitude": -9.185588, "timestamp": "2025-05-03T03:03:55.747505+00:00Z", "free_bikes": 2, "empty_slots": 15, "extra": {"uid": "514", "slots": 17, "status": "active", "online": true}}, {"id": "5f0539d48779422d0ad51e5fb835fe29", "name": "362 - Avenida Eng. Duarte Pacheco", "latitude": 38.72437, "longitude": -9.159469, "timestamp": "2025-05-03T03:03:55.748206+00:00Z", "free_bikes": 9, "empty_slots": 31, "extra": {"uid": "362", "slots": 40, "status": "active", "online": true}}, {"id": "5f149a3fb9d52e587550c9c410cd3468", "name": "480 - Faculdade de Ci\u00eancias", "latitude": 38.75587, "longitude": -9.15503, "timestamp": "2025-05-03T03:03:55.748168+00:00Z", "free_bikes": 3, "empty_slots": 22, "extra": {"uid": "480", "slots": 25, "status": "active", "online": true}}, {"id": "60fa8e432949c0b1053ae0f558219315", "name": "407 - Pra\u00e7a Duque de Saldanha", "latitude": 38.73434, "longitude": -9.14446, "timestamp": "2025-05-03T03:03:55.747448+00:00Z", "free_bikes": 0, "empty_slots": 17, "extra": {"uid": "407", "slots": 17, "status": "active", "online": true}}, {"id": "612caed5e2c3874f5b89cfbf5847092c", "name": "152 - Alameda da Encarna\u00e7\u00e3o / Rua da Portela\t", "latitude": 38.770808, "longitude": -9.121902, "timestamp": "2025-05-03T03:03:55.748243+00:00Z", "free_bikes": 14, "empty_slots": 7, "extra": {"uid": "152", "slots": 21, "status": "active", "online": true}}, {"id": "614ee673500cc79620f85d21110051c1", "name": "307 - Marqu\u00eas de Pombal", "latitude": 38.724954, "longitude": -9.149334, "timestamp": "2025-05-03T03:03:55.747627+00:00Z", "free_bikes": 5, "empty_slots": 28, "extra": {"uid": "307", "slots": 33, "status": "active", "online": true}}, {"id": "61ad93237e7cdecef0afcc8644a965ca", "name": "109 - Alameda dos Oceanos / Rua Ilha dos Amores", "latitude": 38.777548, "longitude": -9.094686, "timestamp": "2025-05-03T03:03:55.747509+00:00Z", "free_bikes": 6, "empty_slots": 8, "extra": {"uid": "109", "slots": 14, "status": "active", "online": true}}, {"id": "62d2639cae0945999171d49f687af5f2", "name": "490 - Rua Fernando Namora / Azinhaga da Torre do Fato", "latitude": 38.76026, "longitude": -9.17849, "timestamp": "2025-05-03T03:03:55.747524+00:00Z", "free_bikes": 3, "empty_slots": 13, "extra": {"uid": "490", "slots": 16, "status": "active", "online": true}}, {"id": "63f1fdc1b493f9cb48fbc0f4f5ded004", "name": "486 - Rua Hermano Neves / Rua Jos\u00e9 Escada", "latitude": 38.75954, "longitude": -9.16985, "timestamp": "2025-05-03T03:03:55.747493+00:00Z", "free_bikes": 5, "empty_slots": 9, "extra": {"uid": "486", "slots": 14, "status": "active", "online": true}}, {"id": "649191d9187d3f931cf4573fa08cff6b", "name": "428 - Av. Rep\u00fablica / Avenida Barbosa Du Bocage", "latitude": 38.74047, "longitude": -9.14684, "timestamp": "2025-05-03T03:03:55.747272+00:00Z", "free_bikes": 0, "empty_slots": 12, "extra": {"uid": "428", "slots": 12, "status": "active", "online": true}}, {"id": "64e4583b6282d828c4edfc83a33ae898", "name": "580 - Azinhaga da Cidade / Pq. Estacionamento Ameixoeira", "latitude": 38.77946, "longitude": -9.159014, "timestamp": "2025-05-03T03:03:55.748331+00:00Z", "free_bikes": 0, "empty_slots": 31, "extra": {"uid": "580", "slots": 31, "status": "repair", "online": false}}, {"id": "64fcc3f17ce6c570626a085b6c10f1f3", "name": "364 -Rua D.francisco M. de melo / Rua artilharia 1", "latitude": 38.728263, "longitude": -9.159369, "timestamp": "2025-05-03T03:03:55.747307+00:00Z", "free_bikes": 6, "empty_slots": 8, "extra": {"uid": "364", "slots": 14, "status": "active", "online": true}}, {"id": "66d7ef2a071d164261825218d33e08c8", "name": "216 - Pra\u00e7a D. Lu\u00eds I", "latitude": 38.70663, "longitude": -9.14655, "timestamp": "2025-05-03T03:03:55.747661+00:00Z", "free_bikes": 6, "empty_slots": 15, "extra": {"uid": "216", "slots": 21, "status": "active", "online": true}}, {"id": "67486d049d93228716672eec7e0b95f5", "name": "426 - Av. Elias Garcia / Av. 5 de Outubro", "latitude": 38.739046, "longitude": -9.14793, "timestamp": "2025-05-03T03:03:55.748359+00:00Z", "free_bikes": 3, "empty_slots": 11, "extra": {"uid": "426", "slots": 14, "status": "active", "online": true}}, {"id": "6a5133793433a6c4e1bfd31c505c35ac", "name": "206 - Av. Bras\u00edlia / Doca de Alc\u00e2ntara", "latitude": 38.70141, "longitude": -9.17502, "timestamp": "2025-05-03T03:03:55.748023+00:00Z", "free_bikes": 6, "empty_slots": 16, "extra": {"uid": "206", "slots": 22, "status": "active", "online": true}}, {"id": "6b266bf182b29ed4db2a6162e62fe045", "name": "233 - Rua de Bel\u00e9m / Jardim Vasco da Gama", "latitude": 38.696867, "longitude": -9.204056, "timestamp": "2025-05-03T03:03:55.748160+00:00Z", "free_bikes": 6, "empty_slots": 6, "extra": {"uid": "233", "slots": 12, "status": "active", "online": true}}, {"id": "6bf0d4fdcbd3c4bdb2dc9a1c1ca82f85", "name": "363 - Rua de campolide / Rua marques da fronteira", "latitude": 38.727094, "longitude": -9.162216, "timestamp": "2025-05-03T03:03:55.747337+00:00Z", "free_bikes": 0, "empty_slots": 14, "extra": {"uid": "363", "slots": 14, "status": "active", "online": true}}, {"id": "6d6c06f6129bf24b5bff9972d2b00f1b", "name": "222 - Pra\u00e7a da Figueira", "latitude": 38.71383, "longitude": -9.13828, "timestamp": "2025-05-03T03:03:55.748239+00:00Z", "free_bikes": 13, "empty_slots": 17, "extra": {"uid": "222", "slots": 30, "status": "active", "online": true}}, {"id": "6dbcd4f0689916ad51544bd1a5e872ba", "name": "324 - Rua Morais Soares / Largo Mendon\u00e7a e Costa", "latitude": 38.733025, "longitude": -9.130805, "timestamp": "2025-05-03T03:03:55.747303+00:00Z", "free_bikes": 10, "empty_slots": 2, "extra": {"uid": "324", "slots": 12, "status": "active", "online": true}}, {"id": "6e9c68e7919c03114b5ae7bc6791b5fb", "name": "211 - Doca da Marinha", "latitude": 38.707751, "longitude": -9.132463, "timestamp": "2025-05-03T03:03:55.747435+00:00Z", "free_bikes": 15, "empty_slots": 25, "extra": {"uid": "211", "slots": 40, "status": "active", "online": true}}, {"id": "717ab967d3daa8f42e2c625b2a22a549", "name": "312 - Rua \u00c1lvaro Coutinho / Avenida Almirante Reis", "latitude": 38.724869, "longitude": -9.134802, "timestamp": "2025-05-03T03:03:55.748281+00:00Z", "free_bikes": 14, "empty_slots": 4, "extra": {"uid": "312", "slots": 18, "status": "active", "online": true}}, {"id": "7194d4b5329d6b5a1665eb04f83a7d6f", "name": "550 - Rua Fernando Curado Ribeiro / Alameda das Li", "latitude": 38.760871, "longitude": -9.156487, "timestamp": "2025-05-03T03:03:55.748027+00:00Z", "free_bikes": 3, "empty_slots": 17, "extra": {"uid": "550", "slots": 20, "status": "active", "online": true}}, {"id": "742b48b980937a7a0f0164a98dd35051", "name": "309 - Rua da Palma", "latitude": 38.71901, "longitude": -9.13577, "timestamp": "2025-05-03T03:03:55.747238+00:00Z", "free_bikes": 3, "empty_slots": 7, "extra": {"uid": "309", "slots": 10, "status": "active", "online": true}}, {"id": "74daef52df1bf86978b5e5f5f1c91d6e", "name": "366 - Palacio da justi\u00e7a", "latitude": 38.731134, "longitude": -9.156435, "timestamp": "2025-05-03T03:03:55.748277+00:00Z", "free_bikes": 0, "empty_slots": 30, "extra": {"uid": "366", "slots": 30, "status": "active", "online": true}}, {"id": "75fb31fcfcb263ad187376e4f07743fe", "name": "421 - Alameda D. Afonso Henriques", "latitude": 38.73736, "longitude": -9.13416, "timestamp": "2025-05-03T03:03:55.747490+00:00Z", "free_bikes": 15, "empty_slots": 26, "extra": {"uid": "421", "slots": 41, "status": "active", "online": true}}, {"id": "76de25d0e07319d3d5d35ab6bc0651c4", "name": "304 - Avenida da Liberdade / S\u00e3o Jorge", "latitude": 38.72026, "longitude": -9.14637, "timestamp": "2025-05-03T03:03:55.747678+00:00Z", "free_bikes": 3, "empty_slots": 13, "extra": {"uid": "304", "slots": 16, "status": "active", "online": true}}, {"id": "7710fbded8b99ff5d73c3c30c06f6ee4", "name": "213 - Av. Infante Dom Henrique / Santa Apol\u00f3nia", "latitude": 38.713416, "longitude": -9.122548, "timestamp": "2025-05-03T03:03:55.748045+00:00Z", "free_bikes": 28, "empty_slots": 4, "extra": {"uid": "213", "slots": 32, "status": "active", "online": true}}, {"id": "77edd97f731ef676012ad810138c9ab9", "name": "471 - Rua Lopes de Mendon\u00e7a / EB S\u00e3o Jo\u00e3o de Brito", "latitude": 38.756487, "longitude": -9.137337, "timestamp": "2025-05-03T03:03:55.747363+00:00Z", "free_bikes": 2, "empty_slots": 8, "extra": {"uid": "471", "slots": 10, "status": "active", "online": true}}, {"id": "7a62bddd810d32c4e5d6cbd8fa72fc8d", "name": "401 - Rua Martens Ferr\u00e3o / Av. Fontes Pereira de Melo", "latitude": 38.72894, "longitude": -9.14742, "timestamp": "2025-05-03T03:03:55.748038+00:00Z", "free_bikes": 3, "empty_slots": 13, "extra": {"uid": "401", "slots": 16, "status": "active", "online": true}}, {"id": "7aba60fa05c4a39683116cd0426079ec", "name": "452 - Rua Teixeira de Pascoais / Rua Dr. Gama Barros", "latitude": 38.747751, "longitude": -9.136681, "timestamp": "2025-05-03T03:03:55.747372+00:00Z", "free_bikes": 9, "empty_slots": 1, "extra": {"uid": "452", "slots": 10, "status": "active", "online": true}}, {"id": "7b5a3ce74a17b63901109d164268507f", "name": "454 - Av. \u00c1lvaro Pais / Rua da Cruz Vermelha\t", "latitude": 38.744971, "longitude": -9.151449, "timestamp": "2025-05-03T03:03:55.748320+00:00Z", "free_bikes": 4, "empty_slots": 16, "extra": {"uid": "454", "slots": 20, "status": "active", "online": true}}, {"id": "7e06a22942fbd56e03f4a75029c17b25", "name": "453 - Av. Roma / Av. EUA", "latitude": 38.74873, "longitude": -9.14207, "timestamp": "2025-05-03T03:03:55.747418+00:00Z", "free_bikes": 3, "empty_slots": 11, "extra": {"uid": "453", "slots": 14, "status": "active", "online": true}}, {"id": "7f90f7b0691c37eecfaa23e0b2a883d5", "name": "241 - Rua Bartolomeu Dias / Pal\u00e1cio do Governador", "latitude": 38.694942, "longitude": -9.214902, "timestamp": "2025-05-03T03:03:55.747497+00:00Z", "free_bikes": 10, "empty_slots": 1, "extra": {"uid": "241", "slots": 11, "status": "active", "online": true}}, {"id": "80d48008267e2d673c6b36704e7ec3eb", "name": "510 - Largo da Revista Militar / Avenida do Col\u00e9gio Militar", "latitude": 38.752892, "longitude": -9.189058, "timestamp": "2025-05-03T03:03:55.748393+00:00Z", "free_bikes": 5, "empty_slots": 12, "extra": {"uid": "510", "slots": 17, "status": "active", "online": true}}, {"id": "80fcb499fe5cc2b659359e22c224284d", "name": "419 - Av. Ant\u00f3nio Jos\u00e9 de Almeida / Instituto Superior T\u00e9cnico", "latitude": 38.73811, "longitude": -9.13956, "timestamp": "2025-05-03T03:03:55.748102+00:00Z", "free_bikes": 0, "empty_slots": 25, "extra": {"uid": "419", "slots": 25, "status": "active", "online": true}}, {"id": "86062d5a32f5bf26bd5a25a9ac48b616", "name": "410 - Rua da Mesquita / Universidade Nova de Lisboa", "latitude": 38.73492, "longitude": -9.16015, "timestamp": "2025-05-03T03:03:55.748106+00:00Z", "free_bikes": 2, "empty_slots": 38, "extra": {"uid": "410", "slots": 40, "status": "active", "online": true}}, {"id": "8715d80dee661a21a05908bd7d32ad3c", "name": "481 - Campo Grande / Museu da Cidade", "latitude": 38.758207, "longitude": -9.156169, "timestamp": "2025-05-03T03:03:55.747440+00:00Z", "free_bikes": 4, "empty_slots": 16, "extra": {"uid": "481", "slots": 20, "status": "active", "online": true}}, {"id": "88f53e3a77d2327392570e57e5ed1519", "name": "461 - Rua Professora Teresa Ambr\u00f3sio", "latitude": 38.749141, "longitude": -9.155564, "timestamp": "2025-05-03T03:03:55.748087+00:00Z", "free_bikes": 2, "empty_slots": 30, "extra": {"uid": "461", "slots": 32, "status": "active", "online": true}}, {"id": "89880a66f16959cb663f7fb0cc57265f", "name": "415 - Av. Duque de \u00c1vila / Av. Conde Valbom", "latitude": 38.735188, "longitude": -9.148443, "timestamp": "2025-05-03T03:03:55.748367+00:00Z", "free_bikes": 2, "empty_slots": 18, "extra": {"uid": "415", "slots": 20, "status": "active", "online": true}}, {"id": "89b84e4644554ea6055f89183bf7ea4c", "name": "553 - Rua Luis Pastor de Macedo / Rua Tobis Portuguesa", "latitude": 38.767114, "longitude": -9.15535, "timestamp": "2025-05-03T03:03:55.748171+00:00Z", "free_bikes": 12, "empty_slots": 0, "extra": {"uid": "553", "slots": 12, "status": "active", "online": true}}, {"id": "8be427480c59850de389ebf7e08540b5", "name": "517 - Rua Padre Am\u00e9rico", "latitude": 38.763505, "longitude": -9.180437, "timestamp": "2025-05-03T03:03:55.748397+00:00Z", "free_bikes": 1, "empty_slots": 18, "extra": {"uid": "517", "slots": 19, "status": "active", "online": true}}, {"id": "8d016e23f12889eeedb5e9fe5983c217", "name": "231 - Largo Lu\u00eds Alves Miguel / Rua Fern\u00e3o Mendes Pinto", "latitude": 38.695342, "longitude": -9.219675, "timestamp": "2025-05-03T03:03:55.747531+00:00Z", "free_bikes": 6, "empty_slots": 5, "extra": {"uid": "231", "slots": 11, "status": "active", "online": true}}, {"id": "8e563d904944fb1b546828be3fd502b9", "name": "281 - HUB Criativo do Beato Nascente", "latitude": 38.731578, "longitude": -9.105308, "timestamp": "2025-05-03T03:03:55.748297+00:00Z", "free_bikes": 8, "empty_slots": 18, "extra": {"uid": "281", "slots": 26, "status": "active", "online": true}}, {"id": "903b339511a18fc4b8262fa71bd055f6", "name": "488 - Rua Fernando Namora / Rua Ant\u00f3nio Quadros", "latitude": 38.76014, "longitude": -9.17526, "timestamp": "2025-05-03T03:03:55.747516+00:00Z", "free_bikes": 5, "empty_slots": 15, "extra": {"uid": "488", "slots": 20, "status": "active", "online": true}}, {"id": "90579cb0ebcc583d9587e9f51b84825a", "name": "139 - Rua Cidade de Bissau (Metro Olivais)", "latitude": 38.76134, "longitude": -9.111596, "timestamp": "2025-05-03T03:03:55.748250+00:00Z", "free_bikes": 15, "empty_slots": 10, "extra": {"uid": "139", "slots": 25, "status": "active", "online": true}}, {"id": "90ced90e7887eb212bc09d7ca74da700", "name": "509 - Centro Comercial Fonte Nova", "latitude": 38.748901, "longitude": -9.190007, "timestamp": "2025-05-03T03:03:55.747471+00:00Z", "free_bikes": 8, "empty_slots": 9, "extra": {"uid": "509", "slots": 17, "status": "active", "online": true}}, {"id": "912e9f3a936676d7a419d32dcc06c7a2", "name": "412 - Av. Ressano Garcia / Av. Ant\u00f3nio Augusto de Aguiar", "latitude": 38.73448, "longitude": -9.1546, "timestamp": "2025-05-03T03:03:55.748433+00:00Z", "free_bikes": 0, "empty_slots": 16, "extra": {"uid": "412", "slots": 16, "status": "active", "online": true}}, {"id": "91d3b89db5a540a7743d7d20cc878a4c", "name": "261 - Cal\u00e7ada da Estrela / Assembleia da Rep\u00fablica ", "latitude": 38.711469, "longitude": -9.153871, "timestamp": "2025-05-03T03:03:55.747401+00:00Z", "free_bikes": 9, "empty_slots": 8, "extra": {"uid": "261", "slots": 17, "status": "active", "online": true}}, {"id": "94cab8b4fe542c058c930a3471122c22", "name": "444 - Rua Jo\u00e3o da Silva / Complexo Desportivo do Casal Vistoso", "latitude": 38.742368, "longitude": -9.128901, "timestamp": "2025-05-03T03:03:55.748412+00:00Z", "free_bikes": 4, "empty_slots": 13, "extra": {"uid": "444", "slots": 17, "status": "active", "online": true}}, {"id": "95601ed31aec935f10590a83bad390c4", "name": "443 - Av. de Roma / F\u00f3rum Lisboa", "latitude": 38.74351, "longitude": -9.13866, "timestamp": "2025-05-03T03:03:55.748012+00:00Z", "free_bikes": 11, "empty_slots": 3, "extra": {"uid": "443", "slots": 14, "status": "active", "online": true}}, {"id": "95609fea2ab1e37026e716e3b06b848f", "name": "223 - Pra\u00e7a do Rossio", "latitude": 38.713112, "longitude": -9.138952, "timestamp": "2025-05-03T03:03:55.748132+00:00Z", "free_bikes": 7, "empty_slots": 14, "extra": {"uid": "223", "slots": 21, "status": "active", "online": true}}, {"id": "97486be617d9ba4453b302e524287b49", "name": "466 - Rua Azevedo Neves (Universidade Cat\u00f3lica Portuguesa)", "latitude": 38.748018, "longitude": -9.165081, "timestamp": "2025-05-03T03:03:55.748164+00:00Z", "free_bikes": 7, "empty_slots": 8, "extra": {"uid": "466", "slots": 15, "status": "active", "online": true}}, {"id": "98727823b6641e073e03a2e85ec4058c", "name": "417 - Av. Duque de \u00c1vila / Jardim Arco Do Cego", "latitude": 38.735352, "longitude": -9.142703, "timestamp": "2025-05-03T03:03:55.747376+00:00Z", "free_bikes": 3, "empty_slots": 20, "extra": {"uid": "417", "slots": 23, "status": "active", "online": true}}, {"id": "9a5c8b786897840871189db997db946d", "name": "414 - Av. Duque de \u00c1vila / Rua Pinheiro Chagas", "latitude": 38.735, "longitude": -9.151, "timestamp": "2025-05-03T03:03:55.747486+00:00Z", "free_bikes": 5, "empty_slots": 14, "extra": {"uid": "414", "slots": 19, "status": "active", "online": true}}, {"id": "9b2bcf00c4f33ed171343dba36b19c01", "name": "130 - Avenida Berlim / Rua Am\u00e9rico Jesus Fernandes", "latitude": 38.767761, "longitude": -9.106858, "timestamp": "2025-05-03T03:03:55.748273+00:00Z", "free_bikes": 10, "empty_slots": 10, "extra": {"uid": "130", "slots": 20, "status": "active", "online": true}}, {"id": "9bd23d6f751259ab093db3a341423e1f", "name": "306 - Avenida da Liberdade / Rua Alexandre Herculano", "latitude": 38.72281, "longitude": -9.14854, "timestamp": "2025-05-03T03:03:55.747385+00:00Z", "free_bikes": 1, "empty_slots": 15, "extra": {"uid": "306", "slots": 16, "status": "active", "online": true}}, {"id": "9e31be915c40f963a95205b43be7d79d", "name": "442 - Campo Pequeno", "latitude": 38.743371, "longitude": -9.14523, "timestamp": "2025-05-03T03:03:55.747636+00:00Z", "free_bikes": 5, "empty_slots": 11, "extra": {"uid": "442", "slots": 16, "status": "active", "online": true}}, {"id": "a1ed2435ccc15a170f22e2850eb7a0a6", "name": "464 - Av. da Igreja / Rua Afonso Lopes Vieira", "latitude": 38.75165, "longitude": -9.148427, "timestamp": "2025-05-03T03:03:55.747457+00:00Z", "free_bikes": 5, "empty_slots": 9, "extra": {"uid": "464", "slots": 14, "status": "active", "online": true}}, {"id": "a738c63079713721c529e28f586761ac", "name": "521 - Rua C\u00e9sar de Oliveira / Rua Fernando Lopes Gra\u00e7a", "latitude": 38.769044, "longitude": -9.17386, "timestamp": "2025-05-03T03:03:55.748095+00:00Z", "free_bikes": 11, "empty_slots": 11, "extra": {"uid": "521", "slots": 22, "status": "active", "online": true}}, {"id": "a7a6146686ed25ad928f177e74ad1f73", "name": "416 - Av. Rep\u00fablica / Avenida Duque de \u00c1vila", "latitude": 38.735304, "longitude": -9.14553, "timestamp": "2025-05-03T03:03:55.747286+00:00Z", "free_bikes": 1, "empty_slots": 15, "extra": {"uid": "416", "slots": 16, "status": "active", "online": true}}, {"id": "ab4e1bc6aca4c8c0808a6a4c59c6add3", "name": "153 - Pra\u00e7a das Casas Novas / Mercado Sul", "latitude": 38.771913, "longitude": -9.11314, "timestamp": "2025-05-03T03:03:55.748312+00:00Z", "free_bikes": 13, "empty_slots": 7, "extra": {"uid": "153", "slots": 20, "status": "active", "online": true}}, {"id": "abf8e6f4a0e84b4a11e41599e1aeb10c", "name": "513 - Rua Guiomar Torres\u00e3o/Metro de Carnide", "latitude": 38.758691, "longitude": -9.19216, "timestamp": "2025-05-03T03:03:55.747311+00:00Z", "free_bikes": 7, "empty_slots": 13, "extra": {"uid": "513", "slots": 20, "status": "active", "online": true}}, {"id": "ac1a5f1ad1ae5e0253903a638036d259", "name": "515 - Largo da Luz", "latitude": 38.760986, "longitude": -9.18327, "timestamp": "2025-05-03T03:03:55.748214+00:00Z", "free_bikes": 4, "empty_slots": 6, "extra": {"uid": "515", "slots": 10, "status": "active", "online": true}}, {"id": "ad84786e1243de961f76c7e3ccf3bab5", "name": "432 - Pra\u00e7a de Londres", "latitude": 38.7407, "longitude": -9.1377, "timestamp": "2025-05-03T03:03:55.748143+00:00Z", "free_bikes": 4, "empty_slots": 6, "extra": {"uid": "432", "slots": 10, "status": "active", "online": true}}, {"id": "ae4722e3222bc74633b6a56735aa613a", "name": "485 - Rua Tom\u00e1s da Fonseca / Rua Ant\u00f3nio Albino Machado", "latitude": 38.756, "longitude": -9.17, "timestamp": "2025-05-03T03:03:55.747535+00:00Z", "free_bikes": 9, "empty_slots": 1, "extra": {"uid": "485", "slots": 10, "status": "active", "online": true}}, {"id": "af44929b58d27acc815b24aadea2a0c7", "name": "463 - Campo Grande / Av. da Igreja", "latitude": 38.75243, "longitude": -9.14951, "timestamp": "2025-05-03T03:03:55.748191+00:00Z", "free_bikes": 1, "empty_slots": 9, "extra": {"uid": "463", "slots": 10, "status": "active", "online": true}}, {"id": "b03df579b7227329de63e394b905f817", "name": "434 - Pra\u00e7a de Londres / Av. de Roma", "latitude": 38.741407, "longitude": -9.13745, "timestamp": "2025-05-03T03:03:55.748408+00:00Z", "free_bikes": 3, "empty_slots": 20, "extra": {"uid": "434", "slots": 23, "status": "active", "online": true}}, {"id": "b0cfbc35c67b50e686c539f0767ad112", "name": "508 - Esta\u00e7\u00e3o de Comboios de Benfica", "latitude": 38.74473, "longitude": -9.200039, "timestamp": "2025-05-03T03:03:55.748390+00:00Z", "free_bikes": 10, "empty_slots": 13, "extra": {"uid": "508", "slots": 23, "status": "active", "online": true}}, {"id": "b0de848212ddcb3049e54d4abaa52c1a", "name": "132 - Avenida de Berlim / Rua Cidade de Cabinda", "latitude": 38.76829, "longitude": -9.11255, "timestamp": "2025-05-03T03:03:55.747500+00:00Z", "free_bikes": 1, "empty_slots": 24, "extra": {"uid": "132", "slots": 25, "status": "active", "online": true}}, {"id": "b24d209b8f26394b9a861ae7dafbbfc9", "name": "564 - R. Prof. Manuel Valadares / Azinhaga da Cidade", "latitude": 38.776152, "longitude": -9.159899, "timestamp": "2025-05-03T03:03:55.748339+00:00Z", "free_bikes": 0, "empty_slots": 16, "extra": {"uid": "564", "slots": 16, "status": "repair", "online": false}}, {"id": "b29154a2b096694beb7b9ebf1aea83d6", "name": "135 - Avenida Cidade de Louren\u00e7o Marques / Vale do", "latitude": 38.764067, "longitude": -9.118689, "timestamp": "2025-05-03T03:03:55.748217+00:00Z", "free_bikes": 18, "empty_slots": 2, "extra": {"uid": "135", "slots": 20, "status": "active", "online": true}}, {"id": "b2aed35069bb7c244678d8848a7c0de6", "name": "280 - HUB Criativo do Beato Poente", "latitude": 38.729739, "longitude": -9.106709, "timestamp": "2025-05-03T03:03:55.748157+00:00Z", "free_bikes": 8, "empty_slots": 8, "extra": {"uid": "280", "slots": 16, "status": "active", "online": true}}, {"id": "b612459148a5b37ebe370f9a1713c93d", "name": "483 - Rua Professor Francisco Lucas Pires ", "latitude": 38.75939, "longitude": -9.16405, "timestamp": "2025-05-03T03:03:55.748015+00:00Z", "free_bikes": 3, "empty_slots": 12, "extra": {"uid": "483", "slots": 15, "status": "active", "online": true}}, {"id": "b7e522c0b5c1593c17d263f0afbaeb0f", "name": "311 - Avenida Almirante Reis N\u00ba14", "latitude": 38.721721, "longitude": -9.135295, "timestamp": "2025-05-03T03:03:55.748254+00:00Z", "free_bikes": 3, "empty_slots": 8, "extra": {"uid": "311", "slots": 11, "status": "active", "online": true}}, {"id": "b8f4430a293fdc4f066c83b71dd28235", "name": "437 - Avenida Columbano Bordalo Pinheiro / Rua de Campolide", "latitude": 38.739427, "longitude": -9.166589, "timestamp": "2025-05-03T03:03:55.747482+00:00Z", "free_bikes": 3, "empty_slots": 14, "extra": {"uid": "437", "slots": 17, "status": "active", "online": true}}, {"id": "bc73dcdd677e9a583c2a0fd679ecb61e", "name": "251 - Rua Almerindo Lessa / ISCSP", "latitude": 38.713538, "longitude": -9.198276, "timestamp": "2025-05-03T03:03:55.748221+00:00Z", "free_bikes": 0, "empty_slots": 27, "extra": {"uid": "251", "slots": 27, "status": "repair", "online": false}}, {"id": "bd9461a429a8dd338b535b5a9844c6c3", "name": "469 - Avenida Almirante Gago Coutinho / Avenida Dom Rodrigo da Cunha", "latitude": 38.754472, "longitude": -9.130766, "timestamp": "2025-05-03T03:03:55.747673+00:00Z", "free_bikes": 10, "empty_slots": 10, "extra": {"uid": "469", "slots": 20, "status": "active", "online": true}}, {"id": "bdc458d4ea84433fa52b01d22b8548fd", "name": "554 - Alameda das Linhas de Torres / Rua Ladislau", "latitude": 38.768683, "longitude": -9.158298, "timestamp": "2025-05-03T03:03:55.748110+00:00Z", "free_bikes": 27, "empty_slots": 0, "extra": {"uid": "554", "slots": 27, "status": "active", "online": true}}, {"id": "c01a21962576d6a9c33ab15e2adb99f0", "name": "234 - Av. da \u00cdndia / Museu Nacional dos Coches", "latitude": 38.69631, "longitude": -9.198901, "timestamp": "2025-05-03T03:03:55.748121+00:00Z", "free_bikes": 17, "empty_slots": 5, "extra": {"uid": "234", "slots": 22, "status": "active", "online": true}}, {"id": "c033b1024f1fb9169dc961874548852a", "name": "313 - Rua Frei Francisco Foreiro / Rua de Arroios", "latitude": 38.728049, "longitude": -9.135956, "timestamp": "2025-05-03T03:03:55.748375+00:00Z", "free_bikes": 4, "empty_slots": 10, "extra": {"uid": "313", "slots": 14, "status": "active", "online": true}}, {"id": "c0c50f4edef23631c5939884cf5e7493", "name": "423 - Av. Conde Valbom / Rua Marqu\u00eas S\u00e1 da Bandeira", "latitude": 38.737911, "longitude": -9.152295, "timestamp": "2025-05-03T03:03:55.747263+00:00Z", "free_bikes": 2, "empty_slots": 8, "extra": {"uid": "423", "slots": 10, "status": "active", "online": true}}, {"id": "c1ed58cb1c2cb983fe8a6d634eec5e27", "name": "502 - Rua S\u00e3o Domingos de Benfica / Rua Francisco Gentil Martins", "latitude": 38.741406, "longitude": -9.176365, "timestamp": "2025-05-03T03:03:55.747228+00:00Z", "free_bikes": 6, "empty_slots": 10, "extra": {"uid": "502", "slots": 16, "status": "active", "online": true}}, {"id": "c3b346db575224e71c37110b964d4838", "name": "477 - Alameda da Universidade / Faculdade de Direito", "latitude": 38.75264, "longitude": -9.15671, "timestamp": "2025-05-03T03:03:55.747389+00:00Z", "free_bikes": 0, "empty_slots": 24, "extra": {"uid": "477", "slots": 24, "status": "active", "online": true}}, {"id": "c8e750077e0117082a9a950c5f4eb883", "name": "310 - Rua Pina Manique / Largo do Intendente ", "latitude": 38.720733, "longitude": -9.134847, "timestamp": "2025-05-03T03:03:55.748153+00:00Z", "free_bikes": 6, "empty_slots": 11, "extra": {"uid": "310", "slots": 17, "status": "active", "online": true}}, {"id": "caf547783d9e8280dc9b617c1bcb6277", "name": "136 - Rua Cidade de Bissau / Pra\u00e7a Cidade Salazar", "latitude": 38.763585, "longitude": -9.117117, "timestamp": "2025-05-03T03:03:55.748057+00:00Z", "free_bikes": 11, "empty_slots": 13, "extra": {"uid": "136", "slots": 24, "status": "active", "online": true}}, {"id": "cdf3a309f632fecaaf5be6b45e18d16a", "name": "573 - Avenida Nuno Krus Abecassis / Rua Tito de Morais", "latitude": 38.778408, "longitude": -9.149151, "timestamp": "2025-05-03T03:03:55.748199+00:00Z", "free_bikes": 0, "empty_slots": 20, "extra": {"uid": "573", "slots": 20, "status": "repair", "online": false}}, {"id": "ce805081f34f72309ec3c42c03b2bab1", "name": "219 - Pra\u00e7a do Munic\u00edpio", "latitude": 38.70797, "longitude": -9.13951, "timestamp": "2025-05-03T03:03:55.747277+00:00Z", "free_bikes": 10, "empty_slots": 12, "extra": {"uid": "219", "slots": 22, "status": "active", "online": true}}, {"id": "cfef419f0310cd78cd51e71213fdc336", "name": "404 - Largo S\u00e3o Sebasti\u00e3o da Pedreira", "latitude": 38.733526, "longitude": -9.152444, "timestamp": "2025-05-03T03:03:55.748419+00:00Z", "free_bikes": 0, "empty_slots": 10, "extra": {"uid": "404", "slots": 10, "status": "active", "online": true}}, {"id": "d03cd013dcb0a2c6ac8e6688b232b660", "name": "230 - Pra\u00e7a D. Manuel I", "latitude": 38.697979, "longitude": -9.226569, "timestamp": "2025-05-03T03:03:55.747259+00:00Z", "free_bikes": 11, "empty_slots": 16, "extra": {"uid": "230", "slots": 27, "status": "active", "online": true}}, {"id": "d0691aff0e61450bdcfe6285a708eb80", "name": "361 - Amoreiras Shopping Center", "latitude": 38.72392, "longitude": -9.160992, "timestamp": "2025-05-03T03:03:55.748288+00:00Z", "free_bikes": 6, "empty_slots": 25, "extra": {"uid": "361", "slots": 31, "status": "active", "online": true}}, {"id": "d1caed0cfb0df3d8d5af7308d94fec9e", "name": "308 - Marqu\u00eas de Pombal", "latitude": 38.7246, "longitude": -9.14969, "timestamp": "2025-05-03T03:03:55.747989+00:00Z", "free_bikes": 2, "empty_slots": 9, "extra": {"uid": "308", "slots": 11, "status": "active", "online": true}}, {"id": "d2aa9799eaef354d6fde20b16b39a635", "name": "134 - Pra\u00e7a Cidade do Luso", "latitude": 38.765588, "longitude": -9.116342, "timestamp": "2025-05-03T03:03:55.747467+00:00Z", "free_bikes": 13, "empty_slots": 7, "extra": {"uid": "134", "slots": 20, "status": "active", "online": true}}, {"id": "d40276d5f4557b18a5388d26bc774746", "name": "208 - Cais das Pombas", "latitude": 38.70523, "longitude": -9.14373, "timestamp": "2025-05-03T03:03:55.748083+00:00Z", "free_bikes": 1, "empty_slots": 21, "extra": {"uid": "208", "slots": 22, "status": "active", "online": true}}, {"id": "d52fd7fb5940ed52519558c67b5a864b", "name": "352 - Rua Tom\u00e1s da Anuncia\u00e7\u00e3o / Rua Almeida e S.", "latitude": 38.717313, "longitude": -9.165653, "timestamp": "2025-05-03T03:03:55.747405+00:00Z", "free_bikes": 5, "empty_slots": 12, "extra": {"uid": "352", "slots": 17, "status": "active", "online": true}}, {"id": "d5ca875da5edfedeebd77899d04fc338", "name": "447 - Av. 5 de Outubro / Av. Ant\u00f3nio Serpa", "latitude": 38.742814, "longitude": -9.149145, "timestamp": "2025-05-03T03:03:55.748323+00:00Z", "free_bikes": 2, "empty_slots": 18, "extra": {"uid": "447", "slots": 20, "status": "active", "online": true}}, {"id": "d6e3e9f4d242154924b29f2f4060929b", "name": "205 - Av. Bras\u00edlia / Cordoaria", "latitude": 38.697, "longitude": -9.188, "timestamp": "2025-05-03T03:03:55.747244+00:00Z", "free_bikes": 4, "empty_slots": 6, "extra": {"uid": "205", "slots": 10, "status": "repair", "online": false}}, {"id": "d801703a4902379fa7468bef7cadbc71", "name": "506 - Rua Tenente Coronel Reibeiro dos Reis/Rua Conde de Almoster", "latitude": 38.745181, "longitude": -9.190028, "timestamp": "2025-05-03T03:03:55.747409+00:00Z", "free_bikes": 4, "empty_slots": 13, "extra": {"uid": "506", "slots": 17, "status": "active", "online": true}}, {"id": "d840174d615d86d7d29bdcca908c5962", "name": "235 - Rua da Junqueira / Rua Pinto Ferreira", "latitude": 38.697907, "longitude": -9.191793, "timestamp": "2025-05-03T03:03:55.747475+00:00Z", "free_bikes": 10, "empty_slots": 6, "extra": {"uid": "235", "slots": 16, "status": "active", "online": true}}, {"id": "d9281f90f7b3e9bcc4aef15967679c4e", "name": "455 - Avenida \u00c1lvaro Pais / Rua Sousa Lopes", "latitude": 38.74574, "longitude": -9.155302, "timestamp": "2025-05-03T03:03:55.748327+00:00Z", "free_bikes": 4, "empty_slots": 16, "extra": {"uid": "455", "slots": 20, "status": "active", "online": true}}, {"id": "d94f8d3173a65888298ee3340132ce4c", "name": "556 - Alamedas das Linhas de Torres / Estrada da T", "latitude": 38.773489, "longitude": -9.161462, "timestamp": "2025-05-03T03:03:55.748068+00:00Z", "free_bikes": 10, "empty_slots": 1, "extra": {"uid": "556", "slots": 11, "status": "active", "online": true}}, {"id": "d9a3769dda7a8f5b05d4888abf08dea6", "name": "440 - Rua Soeiro Pereira Gomes", "latitude": 38.742574, "longitude": -9.158365, "timestamp": "2025-05-03T03:03:55.748423+00:00Z", "free_bikes": 5, "empty_slots": 12, "extra": {"uid": "440", "slots": 17, "status": "active", "online": true}}, {"id": "daf584a17013a7175720c2072bcd23de", "name": "108 - Rua do Bojador", "latitude": 38.774289, "longitude": -9.09235, "timestamp": "2025-05-03T03:03:55.747320+00:00Z", "free_bikes": 2, "empty_slots": 12, "extra": {"uid": "108", "slots": 14, "status": "active", "online": true}}, {"id": "db180680b4cdde54b7d34e23cbac6c07", "name": "226 - Rua dos Fanqueiros", "latitude": 38.711888, "longitude": -9.136456, "timestamp": "2025-05-03T03:03:55.748232+00:00Z", "free_bikes": 8, "empty_slots": 5, "extra": {"uid": "226", "slots": 13, "status": "active", "online": true}}, {"id": "db7bedd321eb4160f3204142b9ae36ed", "name": "457 - Rua Aboim Ascens\u00e3o", "latitude": 38.74975, "longitude": -9.14722, "timestamp": "2025-05-03T03:03:55.747414+00:00Z", "free_bikes": 2, "empty_slots": 8, "extra": {"uid": "457", "slots": 10, "status": "active", "online": true}}, {"id": "dcc2a3a0630acb7b78c8d929f90ee605", "name": "328 - Avenida General Ro\u00e7adas / Rua Francisco Pedro Curado", "latitude": 38.727509, "longitude": -9.128212, "timestamp": "2025-05-03T03:03:55.748034+00:00Z", "free_bikes": 8, "empty_slots": 4, "extra": {"uid": "328", "slots": 12, "status": "active", "online": true}}, {"id": "e0aa4bb67ae06efac514bda8102670a7", "name": "430 - Av. Barbosa Du Bocage / Rua Arco do Cego", "latitude": 38.74081, "longitude": -9.14329, "timestamp": "2025-05-03T03:03:55.748437+00:00Z", "free_bikes": 2, "empty_slots": 18, "extra": {"uid": "430", "slots": 20, "status": "active", "online": true}}, {"id": "e0c5182efc8f580708f594ad6afdef87", "name": "431 - Rua do Arco Cego / Av. Magalh\u00e3es Lima", "latitude": 38.73937, "longitude": -9.14199, "timestamp": "2025-05-03T03:03:55.748355+00:00Z", "free_bikes": 4, "empty_slots": 10, "extra": {"uid": "431", "slots": 14, "status": "active", "online": true}}, {"id": "e2b38d1cf2e6bddff011052f30040744", "name": "520 - Lispolis", "latitude": 38.766995, "longitude": -9.182513, "timestamp": "2025-05-03T03:03:55.748072+00:00Z", "free_bikes": 8, "empty_slots": 15, "extra": {"uid": "520", "slots": 23, "status": "active", "online": true}}, {"id": "e31d5aa55f6f71f10149a535081fd4e1", "name": "474 - Av. do Brasil / Av. Rio de Janeiro", "latitude": 38.75832, "longitude": -9.1409, "timestamp": "2025-05-03T03:03:55.748179+00:00Z", "free_bikes": 4, "empty_slots": 11, "extra": {"uid": "474", "slots": 15, "status": "active", "online": true}}, {"id": "e3556d626d7cf6bd23f537921943ecd3", "name": "252 - Avenida da Universidade T\u00e9cnica / Rua S\u00e1 Nogueira", "latitude": 38.713721, "longitude": -9.196554, "timestamp": "2025-05-03T03:03:55.748235+00:00Z", "free_bikes": 0, "empty_slots": 15, "extra": {"uid": "252", "slots": 15, "status": "repair", "online": false}}, {"id": "e4444a49acf6cd8163825024f6ec3a4c", "name": "462 - Campo Grande / Biblioteca Nacional", "latitude": 38.75027, "longitude": -9.15031, "timestamp": "2025-05-03T03:03:55.748000+00:00Z", "free_bikes": 3, "empty_slots": 26, "extra": {"uid": "462", "slots": 29, "status": "active", "online": true}}, {"id": "e48c4db9f8224c7cc37d88e50bc0fa1a", "name": "484 - Rua Professor Vieira de Almeida", "latitude": 38.76081, "longitude": -9.16658, "timestamp": "2025-05-03T03:03:55.747513+00:00Z", "free_bikes": 13, "empty_slots": 9, "extra": {"uid": "484", "slots": 22, "status": "active", "online": true}}, {"id": "e7297ede04c4766681c783eef01da0cb", "name": "403 - Av. Fontes Pereira de Melo", "latitude": 38.731698, "longitude": -9.146522, "timestamp": "2025-05-03T03:03:55.747354+00:00Z", "free_bikes": 2, "empty_slots": 18, "extra": {"uid": "403", "slots": 20, "status": "active", "online": true}}, {"id": "e818b93795bfed8116adef1e6c71adab", "name": "105 - CC Vasco da Gama", "latitude": 38.768548, "longitude": -9.096222, "timestamp": "2025-05-03T03:03:55.748426+00:00Z", "free_bikes": 5, "empty_slots": 35, "extra": {"uid": "105", "slots": 40, "status": "active", "online": true}}, {"id": "e857d69d55acdf13a03c041a4c4fa66b", "name": "405 - Rua Pedro Nunes / Av. 5 de Outubro", "latitude": 38.733827, "longitude": -9.14727, "timestamp": "2025-05-03T03:03:55.748076+00:00Z", "free_bikes": 3, "empty_slots": 11, "extra": {"uid": "405", "slots": 14, "status": "active", "online": true}}, {"id": "e88d671a32aefeefe1f79d2fd689a9ac", "name": "301 - Avenida da Liberdade / Restauradores", "latitude": 38.71702, "longitude": -9.14242, "timestamp": "2025-05-03T03:03:55.748175+00:00Z", "free_bikes": 0, "empty_slots": 21, "extra": {"uid": "301", "slots": 21, "status": "repair", "online": false}}, {"id": "e8fe3a585ee422570954b2f42652fb9f", "name": "214 - Largo de Santos", "latitude": 38.70673, "longitude": -9.15424, "timestamp": "2025-05-03T03:03:55.748061+00:00Z", "free_bikes": 15, "empty_slots": 9, "extra": {"uid": "214", "slots": 24, "status": "active", "online": true}}, {"id": "e97651138c44bc4e8586bbc0f3fcf3a4", "name": "439 - Rua General Leman", "latitude": 38.741986, "longitude": -9.157637, "timestamp": "2025-05-03T03:03:55.748098+00:00Z", "free_bikes": 2, "empty_slots": 20, "extra": {"uid": "439", "slots": 22, "status": "active", "online": true}}, {"id": "e99ff5fd48f281061c11ec7896c7d55a", "name": "131 - Avenida de Berlim / Pra\u00e7a Baden Powell", "latitude": 38.768137, "longitude": -9.110767, "timestamp": "2025-05-03T03:03:55.748004+00:00Z", "free_bikes": 1, "empty_slots": 20, "extra": {"uid": "131", "slots": 21, "status": "active", "online": true}}, {"id": "ec112b0dd9052fc63a435e4badc944ac", "name": "413 - Av. Ressano Garcia / Av. Ant\u00f3nio Augusto de Aguiar", "latitude": 38.73432, "longitude": -9.15425, "timestamp": "2025-05-03T03:03:55.748371+00:00Z", "free_bikes": 3, "empty_slots": 7, "extra": {"uid": "413", "slots": 10, "status": "active", "online": true}}, {"id": "ec6f341904e89b32c93258769b8f562d", "name": "102 - Porta do Mar", "latitude": 38.759156, "longitude": -9.096439, "timestamp": "2025-05-03T03:03:55.748343+00:00Z", "free_bikes": 8, "empty_slots": 6, "extra": {"uid": "102", "slots": 14, "status": "active", "online": true}}, {"id": "f075e65709c36d875fcfd1fcc3fd5351", "name": "218 - Cais do Sodr\u00e9", "latitude": 38.70617, "longitude": -9.14471, "timestamp": "2025-05-03T03:03:55.748347+00:00Z", "free_bikes": 6, "empty_slots": 16, "extra": {"uid": "218", "slots": 22, "status": "active", "online": true}}, {"id": "f32e4235e72c55160d8294fab205be1c", "name": "468 - Largo Frei Heitor Pinto", "latitude": 38.75482, "longitude": -9.13827, "timestamp": "2025-05-03T03:03:55.747520+00:00Z", "free_bikes": 4, "empty_slots": 17, "extra": {"uid": "468", "slots": 21, "status": "active", "online": true}}, {"id": "f6667da24942a496a5ca9ca9f80c5aff", "name": "104 - Gare do Oriente", "latitude": 38.766716, "longitude": -9.097322, "timestamp": "2025-05-03T03:03:55.747249+00:00Z", "free_bikes": 5, "empty_slots": 35, "extra": {"uid": "104", "slots": 40, "status": "active", "online": true}}, {"id": "f6670595817ab250cdd0dda02582806a", "name": "518 - Avenida das Na\u00e7\u00f5es Unidas / Azinhaga da Torre do Fato", "latitude": 38.764097, "longitude": -9.177955, "timestamp": "2025-05-03T03:03:55.747427+00:00Z", "free_bikes": 1, "empty_slots": 19, "extra": {"uid": "518", "slots": 20, "status": "active", "online": true}}, {"id": "fb12892282fa9fa23ae6bac93418ef57", "name": "406 - Pra\u00e7a Duque de Saldanha", "latitude": 38.734247, "longitude": -9.145341, "timestamp": "2025-05-03T03:03:55.747298+00:00Z", "free_bikes": 0, "empty_slots": 17, "extra": {"uid": "406", "slots": 17, "status": "active", "online": true}}, {"id": "fc860e8c0ddf3d9b5f81a5700d7b9224", "name": "365 - Rua Castilho / Rua Marqu\u00eas da Fronteira", "latitude": 38.729724, "longitude": -9.157531, "timestamp": "2025-05-03T03:03:55.748386+00:00Z", "free_bikes": 3, "empty_slots": 27, "extra": {"uid": "365", "slots": 30, "status": "active", "online": true}}, {"id": "fe39cc01590200a23e0e1592048d50c6", "name": "254 - Rua Joaquim Fiadeiro / Resid\u00eancia Universit\u00e1ria", "latitude": 38.711498, "longitude": -9.194361, "timestamp": "2025-05-03T03:03:55.747381+00:00Z", "free_bikes": 0, "empty_slots": 41, "extra": {"uid": "254", "slots": 41, "status": "repair", "online": false}}, {"id": "ff7f1c1e186bbae69bbe2ebffce0def6", "name": "436 - Instituto Portugu\u00eas de Oncologia", "latitude": 38.739395, "longitude": -9.162447, "timestamp": "2025-05-03T03:03:55.748136+00:00Z", "free_bikes": 0, "empty_slots": 17, "extra": {"uid": "436", "slots": 17, "status": "active", "online": true}}, {"id": "ff94d7370b7c1ef049ac0e8653b8cf31", "name": "220 - Rua do Comercio", "latitude": 38.70878, "longitude": -9.137125, "timestamp": "2025-05-03T03:03:55.748401+00:00Z", "free_bikes": 13, "empty_slots": 7, "extra": {"uid": "220", "slots": 20, "status": "active", "online": true}}, {"id": "ff9871d7a81b48151d71291e4907f14d", "name": "433 - Av. Paris / Av. Almirante Reis", "latitude": 38.74095, "longitude": -9.13409, "timestamp": "2025-05-03T03:03:55.748129+00:00Z", "free_bikes": 9, "empty_slots": 5, "extra": {"uid": "433", "slots": 14, "status": "active", "online": true}}]}