{"id": "grad-ivanic-grad-ivanic-grad", "name": "Grad Ivani\u0107-Grad", "location": {"latitude": 45.7062, "longitude": 16.3919, "city": "Ivanic Grad", "country": "HR"}, "href": "/v2/networks/grad-ivanic-grad-ivanic-grad", "company": ["Nextbike GmbH"], "system": "Nextbike", "stations": [{"id": "12e0d447b6a841e573c6be4f57934344", "name": "\u017deravinec", "latitude": 45.71352, "longitude": 16.401298, "timestamp": "2025-05-03T03:03:36.148444+00:00Z", "free_bikes": 0, "empty_slots": null, "extra": {"uid": "221536962", "number": "31040", "bike_uids": [], "virtual": false}}, {"id": "99583c5af99c6fc16bcd330eaa96d604", "name": "Naftalan", "latitude": 45.705932, "longitude": 16.386323, "timestamp": "2025-05-03T03:03:36.148417+00:00Z", "free_bikes": 0, "empty_slots": null, "extra": {"uid": "1402535", "number": "2408", "bike_uids": [], "virtual": false}}, {"id": "ac00ec64db82499b1019af865c15d11e", "name": "\u017ditna", "latitude": 45.708164, "longitude": 16.406139, "timestamp": "2025-05-03T03:03:36.148455+00:00Z", "free_bikes": 0, "empty_slots": null, "extra": {"uid": "221537519", "number": "31039", "bike_uids": [], "virtual": false}}, {"id": "b038ed28e400e3f31222ddcd108012d3", "name": "\u0160etnica-\u0160kolska ulica ", "latitude": 45.705155, "longitude": 16.390922, "timestamp": "2025-05-03T03:03:36.148392+00:00Z", "free_bikes": 0, "empty_slots": null, "extra": {"uid": "1402531", "number": "2407", "bike_uids": [], "virtual": false}}, {"id": "c0f450981111ec20e42360be1cc4d3ff", "name": "Posavski Bregi", "latitude": 45.684952, "longitude": 16.35227, "timestamp": "2025-05-03T03:03:36.148431+00:00Z", "free_bikes": 0, "empty_slots": null, "extra": {"uid": "221532051", "number": "31041", "bike_uids": [], "virtual": false}}]}