{"id": "grad-karlovac-karlovac", "name": "Grad Karlovac", "location": {"latitude": 45.4905, "longitude": 15.5503, "city": "Karlovac", "country": "HR"}, "href": "/v2/networks/grad-karlovac-karlovac", "company": ["Nextbike GmbH"], "system": "Nextbike", "stations": [{"id": "16cb1169bd92f6ec5db3fc37ff8d32aa", "name": "Autobusni kolodvor, Karlovac", "latitude": 45.487926, "longitude": 15.55052, "timestamp": "2025-05-03T03:03:35.880117+00:00Z", "free_bikes": 5, "empty_slots": null, "extra": {"uid": "209691495", "number": "2341", "bike_uids": ["87989", "87872", "87862", "87612", "87502"], "virtual": false}}, {"id": "2f795d5fd20ee5937145b0e35f4c9bf0", "name": "Centar Zorin dom, Karlovac", "latitude": 45.492179, "longitude": 15.549844, "timestamp": "2025-05-03T03:03:35.880129+00:00Z", "free_bikes": 2, "empty_slots": null, "extra": {"uid": "396975854", "number": "2336", "bike_uids": ["87645", "87615"], "virtual": false}}, {"id": "52c9873ad8bd651e4c610709ce7b5942", "name": "Lu\u0161\u010di\u0107 - Grabrik, Karlovac", "latitude": 45.483127, "longitude": 15.54655, "timestamp": "2025-05-03T03:03:35.880030+00:00Z", "free_bikes": 3, "empty_slots": null, "extra": {"uid": "43949674", "number": "2373", "bike_uids": ["87702", "87656", "87548"], "virtual": false}}, {"id": "53adbaf38118ac0362272ca96bab304d", "name": "\u017deljezni\u010dka postaja centar, Karlovac", "latitude": 45.488682, "longitude": 15.548825, "timestamp": "2025-05-03T03:03:35.880001+00:00Z", "free_bikes": 0, "empty_slots": null, "extra": {"uid": "43949053", "number": "2374", "bike_uids": [], "virtual": false}}, {"id": "9eba72ccd1d0755e2290266a5b4f6d34", "name": "Aquatika, Karlovac", "latitude": 45.484987, "longitude": 15.562016, "timestamp": "2025-05-03T03:03:35.880057+00:00Z", "free_bikes": 2, "empty_slots": null, "extra": {"uid": "44409847", "number": "2375", "bike_uids": ["89819", "87987"], "virtual": false}}, {"id": "a3ffa97f98b1fb45fdc8195c13fd2716", "name": "Korzo centar, Karlovac", "latitude": 45.493868, "longitude": 15.551464, "timestamp": "2025-05-03T03:03:35.879954+00:00Z", "free_bikes": 3, "empty_slots": null, "extra": {"uid": "418380", "number": "2370", "bike_uids": ["87874", "87839", "87574"], "virtual": false}}, {"id": "b58998f7a01e79a877f2237f54f1908a", "name": "Krle\u017eina, Karlovac", "latitude": 45.490352, "longitude": 15.541159, "timestamp": "2025-05-03T03:03:35.880044+00:00Z", "free_bikes": 2, "empty_slots": null, "extra": {"uid": "43949773", "number": "2371", "bike_uids": ["87957", "87876"], "virtual": false}}, {"id": "c4200ac58b51bd2b39bc7159086b6cc1", "name": "Kod suda, Karlovac", "latitude": 45.488231, "longitude": 15.547392, "timestamp": "2025-05-03T03:03:35.880094+00:00Z", "free_bikes": 2, "empty_slots": null, "extra": {"uid": "52011978", "number": "2356", "bike_uids": ["89098", "87999"], "virtual": false}}, {"id": "ca2a38c520cabbc7feda2498ca60a101", "name": "Grabrik, Karlovac", "latitude": 45.482469, "longitude": 15.549549, "timestamp": "2025-05-03T03:03:35.880106+00:00Z", "free_bikes": 1, "empty_slots": null, "extra": {"uid": "203350002", "number": "2357", "bike_uids": ["87875"], "virtual": false}}, {"id": "d9605ec8805042f94a969d6c4e57397d", "name": "Rakovac, Karlovac", "latitude": 45.483447, "longitude": 15.55626, "timestamp": "2025-05-03T03:03:35.880013+00:00Z", "free_bikes": 3, "empty_slots": null, "extra": {"uid": "43949527", "number": "2372", "bike_uids": ["89104", "87681", "87592"], "virtual": false}}, {"id": "e7390e032fc979cebd2804eeef533058", "name": "Gradska uprava, Karlovac", "latitude": 45.493619, "longitude": 15.554618, "timestamp": "2025-05-03T03:03:35.879984+00:00Z", "free_bikes": 1, "empty_slots": null, "extra": {"uid": "461388", "number": "2358", "bike_uids": ["87603"], "virtual": false}}, {"id": "e7fd48714e1097feeb0c48dd275bb5b1", "name": "Sokolski, Karlovac", "latitude": 45.491585, "longitude": 15.552859, "timestamp": "2025-05-03T03:03:35.880081+00:00Z", "free_bikes": 2, "empty_slots": null, "extra": {"uid": "52011901", "number": "2355", "bike_uids": ["89239", "88928"], "virtual": false}}, {"id": "fa3082a2f29d7f5a0eafc3ba22717f9f", "name": "Korana, Karlovac", "latitude": 45.487686, "longitude": 15.559949, "timestamp": "2025-05-03T03:03:35.880070+00:00Z", "free_bikes": 3, "empty_slots": null, "extra": {"uid": "52011837", "number": "2354", "bike_uids": ["87985", "87865", "87845"], "virtual": false}}]}