{"id": "grad-sisak-sisak", "name": "Grad Sisak", "location": {"latitude": 45.4875, "longitude": 16.3753, "city": "Sisak", "country": "HR"}, "href": "/v2/networks/grad-sisak-sisak", "company": ["Nextbike GmbH"], "system": "Nextbike", "stations": [{"id": "1ee267a83fae736e1091b1a2e11b9b73", "name": "Sportska dvorana Zeleni brijeg, Sisak", "latitude": 45.494329, "longitude": 16.369814, "timestamp": "2025-05-03T03:03:36.506441+00:00Z", "free_bikes": 6, "empty_slots": 0, "extra": {"uid": "32207629", "number": "2365", "slots": 3, "bike_uids": ["89087", "87994", "87580", "87563", "88940", "88943"], "virtual": false}}, {"id": "2cf2f4074a473eafc13b21be3e57d76f", "name": "Trg bana Josipa Jela\u010di\u0107a, Sisak", "latitude": 45.484864, "longitude": 16.371307, "timestamp": "2025-05-03T03:03:36.506196+00:00Z", "free_bikes": 6, "empty_slots": 0, "extra": {"uid": "3322045", "number": "2361", "slots": 5, "bike_uids": ["89179", "89402", "89549", "87664", "87582", "87512"], "virtual": false}}, {"id": "6452984f2d0c15a5f6996ab4ab6e0fd2", "name": "\u017deljezara kod knji\u017enice, Sisak", "latitude": 45.457308, "longitude": 16.385988, "timestamp": "2025-05-03T03:03:36.506484+00:00Z", "free_bikes": 4, "empty_slots": 0, "extra": {"uid": "246602518", "number": "2417", "slots": 3, "bike_uids": ["89032", "89006", "88935", "87737"], "virtual": false}}, {"id": "b38494982c3619cf1075f8a59b2b54ac", "name": "Ledena dvorana Zibel, Sisak", "latitude": 45.478412, "longitude": 16.365665, "timestamp": "2025-05-03T03:03:36.506463+00:00Z", "free_bikes": 5, "empty_slots": 0, "extra": {"uid": "34076558", "number": "2366", "slots": 3, "bike_uids": ["88936", "88906", "87660", "88942", "88944"], "virtual": false}}, {"id": "dfb154656f1378946cff5ba76f1a4900", "name": "Frankopanska, Sisak", "latitude": 45.491373, "longitude": 16.371951, "timestamp": "2025-05-03T03:03:36.506415+00:00Z", "free_bikes": 3, "empty_slots": 2, "extra": {"uid": "3322068", "number": "2360", "slots": 5, "bike_uids": ["89235", "87698", "87524"], "virtual": false}}]}