{"id": "grad-slavonski-brod-slavonski-brod", "name": "Grad Slavonski Brod", "location": {"latitude": 45.1656, "longitude": 18.0183, "city": "Slavonski Brod", "country": "HR"}, "href": "/v2/networks/grad-slavonski-brod-slavonski-brod", "company": ["Nextbike GmbH"], "system": "Nextbike", "stations": [{"id": "02a327282d8e83b92fecc080adb8db5e", "name": "Obrtni\u010dka \u0161kola, Slavonski Brod", "latitude": 45.15624, "longitude": 18.02686, "timestamp": "2025-05-03T03:03:36.000650+00:00Z", "free_bikes": 3, "empty_slots": null, "extra": {"uid": "390495594", "number": "21183", "bike_uids": ["87687", "87665", "87546"], "virtual": false}}, {"id": "5033ef16b268bbcd249d8a556e2317ce", "name": "Bazeni, Slavonski Brod", "latitude": 45.14859, "longitude": 18.023055, "timestamp": "2025-05-03T03:03:36.000592+00:00Z", "free_bikes": 4, "empty_slots": null, "extra": {"uid": "469547", "number": "21188", "bike_uids": ["87688", "87611", "87509", "87508"], "virtual": false}}, {"id": "5832ead2168ee5f5b40fa9e79bf62499", "name": "Supernova Colosseum, Slavonski Brod", "latitude": 45.15999, "longitude": 17.99741, "timestamp": "2025-05-03T03:03:36.000709+00:00Z", "free_bikes": 0, "empty_slots": null, "extra": {"uid": "390500442", "number": "21189", "bike_uids": [], "virtual": false}}, {"id": "6f33e18581e250b124dffc2fa9c71b59", "name": "Dvorana Brod, Slavonski Brod", "latitude": 45.16615, "longitude": 18.01667, "timestamp": "2025-05-03T03:03:36.000612+00:00Z", "free_bikes": 4, "empty_slots": null, "extra": {"uid": "390490733", "number": "21181", "bike_uids": ["87641", "87596", "87550", "87513"], "virtual": false}}, {"id": "707dac471e609eefb692a6007b82e644", "name": "Ekonomsko-birotehni\u010dka \u0161kola, Slavonski Brod", "latitude": 45.15803, "longitude": 18.03607, "timestamp": "2025-05-03T03:03:36.000631+00:00Z", "free_bikes": 5, "empty_slots": null, "extra": {"uid": "390493148", "number": "21182", "bike_uids": ["87692", "87659", "87655", "87573", "87511"], "virtual": false}}, {"id": "844762f38e8aba4579953d54bfbf0fff", "name": "Autobusni kolodvor, Slavonski Brod", "latitude": 45.16233, "longitude": 18.01076, "timestamp": "2025-05-03T03:03:36.000689+00:00Z", "free_bikes": 6, "empty_slots": null, "extra": {"uid": "390499580", "number": "21185", "bike_uids": ["87693", "87678", "87674", "87667", "87519", "87506"], "virtual": false}}, {"id": "96f4e5898b6573964634c4756a2ed06b", "name": "Tr\u017enica, Slavonski Brod", "latitude": 45.154401, "longitude": 18.023838, "timestamp": "2025-05-03T03:03:36.000568+00:00Z", "free_bikes": 1, "empty_slots": null, "extra": {"uid": "469546", "number": "21187", "bike_uids": ["87597"], "virtual": false}}, {"id": "c7f8e952d459196f3a4c4c2336df8056", "name": "S\u0160 Matija Antun Reljkovi\u0107, Slavonski Brod", "latitude": 45.16977, "longitude": 18.02371, "timestamp": "2025-05-03T03:03:36.000669+00:00Z", "free_bikes": 3, "empty_slots": null, "extra": {"uid": "390498953", "number": "21184", "bike_uids": ["87668", "87631", "87613"], "virtual": false}}, {"id": "dd11f5830d8eeecf749094e3d5b188c1", "name": "Supernova, Slavonski Brod", "latitude": 45.17492, "longitude": 18.05141, "timestamp": "2025-05-03T03:03:36.000724+00:00Z", "free_bikes": 5, "empty_slots": null, "extra": {"uid": "390501201", "number": "21190", "bike_uids": ["87727", "87685", "87682", "87657", "87654"], "virtual": false}}, {"id": "ecd37d93c46a83d2cdf023a9d0287a03", "name": "Korzo, Slavonski Brod", "latitude": 45.155699, "longitude": 18.012198, "timestamp": "2025-05-03T03:03:36.000526+00:00Z", "free_bikes": 6, "empty_slots": null, "extra": {"uid": "469545", "number": "21186", "bike_uids": ["87690", "87661", "87609", "87525", "87520", "87503"], "virtual": false}}]}