{"id": "ibizi-ibiza-city", "name": "ibizi", "location": {"latitude": 38.9066, "longitude": 1.42046, "city": "Ibiza-City", "country": "ES"}, "href": "/v2/networks/ibizi-ibiza-city", "company": ["Nextbike GmbH"], "system": "Nextbike", "stations": [{"id": "0ca4993185fb4df655e06d9e34769691", "name": "Hotel Pacha", "latitude": 38.917433, "longitude": 1.443173, "timestamp": "2025-01-14T09:16:30.064055Z", "free_bikes": 0, "empty_slots": 12, "extra": {"uid": "18230376", "number": "3864", "slots": 12, "bike_uids": [""]}}, {"id": "56b5db4da08300cca7182a344cc22ffc", "name": "Torre del Mar", "latitude": 38.89836, "longitude": 1.41758, "timestamp": "2025-01-14T09:16:30.064108Z", "free_bikes": 0, "empty_slots": 9, "extra": {"uid": "41430160", "number": "3865", "slots": 9, "bike_uids": [""]}}, {"id": "72cc196630132a1fb67a1d164134db4b", "name": "Policl\u00ednica - V\u00eda Romana", "latitude": 38.906998, "longitude": 1.428244, "timestamp": "2025-01-14T09:16:30.064073Z", "free_bikes": 0, "empty_slots": 5, "extra": {"uid": "20866182", "number": "3866", "slots": 5, "bike_uids": [""]}}, {"id": "99858fb7b9aacffdaa795c06a88a0599", "name": "Cetis", "latitude": 38.911861, "longitude": 1.424307, "timestamp": "2025-01-14T09:16:30.064025Z", "free_bikes": 0, "empty_slots": 16, "extra": {"uid": "18230361", "number": "3863", "slots": 16, "bike_uids": [""]}}, {"id": "e1faf7d3711aab018590942761bfc43b", "name": "Destino Ibiza", "latitude": 38.914127, "longitude": 1.469523, "timestamp": "2025-01-14T09:16:30.064092Z", "free_bikes": 0, "empty_slots": 5, "extra": {"uid": "20873468", "number": "3867", "slots": 5, "bike_uids": [""]}}]}