{"id": "idecycle", "name": "IDEcycle", "location": {"latitude": 43.2957547, "longitude": -0.3685668, "city": "Pau", "country": "FR"}, "href": "/v2/networks/idecycle", "company": ["Cykleo SAS"], "system": "Cykleo", "stations": [{"id": "2c52db0d39f2bff9d4f988876e47360c", "name": "LYAUTEY", "latitude": 43.304485, "longitude": -0.366977, "timestamp": "2025-05-03T03:03:55.414758+00:00Z", "free_bikes": 11, "empty_slots": 7, "extra": {"uid": 85, "number": 10, "ebikes": 0, "normal_bikes": 11, "online": true, "status": "IN_SERVICE"}}, {"id": "3b3012e211b2f938c830d074664e888e", "name": "PARC DES EXPOSITIONS", "latitude": 43.30551, "longitude": -0.377247, "timestamp": "2025-05-03T03:03:55.414742+00:00Z", "free_bikes": 11, "empty_slots": 8, "extra": {"uid": 84, "number": 6, "ebikes": 0, "normal_bikes": 11, "online": true, "status": "IN_SERVICE"}}, {"id": "3b873e653b90f6b9e1d4207a2951d611", "name": "VERDUN", "latitude": 43.29901, "longitude": -0.375135, "timestamp": "2025-05-03T03:03:55.414762+00:00Z", "free_bikes": 4, "empty_slots": 20, "extra": {"uid": 83, "number": 11, "ebikes": 0, "normal_bikes": 4, "online": true, "status": "IN_SERVICE"}}, {"id": "44b194daae31087514d290b10c5b40ac", "name": "CLEMENCEAU", "latitude": 43.29627, "longitude": -0.368853, "timestamp": "2025-05-03T03:03:55.414750+00:00Z", "free_bikes": 1, "empty_slots": 17, "extra": {"uid": 75, "number": 8, "ebikes": 0, "normal_bikes": 1, "online": true, "status": "IN_SERVICE"}}, {"id": "58f9eaa5c60c5ae50045a404e1eb4342", "name": "UNIVERSITE SUD", "latitude": 43.31165, "longitude": -0.365027, "timestamp": "2025-05-03T03:03:55.414776+00:00Z", "free_bikes": 3, "empty_slots": 23, "extra": {"uid": 89, "number": 16, "ebikes": 0, "normal_bikes": 3, "online": true, "status": "IN_SERVICE"}}, {"id": "5bc410a42581cca182ca586e0c48ab2c", "name": "SAINT CRICQ", "latitude": 43.301163, "longitude": -0.359003, "timestamp": "2025-05-03T03:03:55.414765+00:00Z", "free_bikes": 12, "empty_slots": 6, "extra": {"uid": 78, "number": 12, "ebikes": 0, "normal_bikes": 12, "online": true, "status": "IN_SERVICE"}}, {"id": "878fcc17b0f8383ca0c84babb0f6f2ff", "name": "ALLEES", "latitude": 43.305313, "longitude": -0.351039, "timestamp": "2025-05-03T03:03:55.414723+00:00Z", "free_bikes": 9, "empty_slots": 11, "extra": {"uid": 90, "number": 1, "ebikes": 0, "normal_bikes": 9, "online": true, "status": "IN_SERVICE"}}, {"id": "9c3f47bf07e758e240005ee810343be8", "name": "HALLES MEDIATHEQUE", "latitude": 43.300023, "longitude": -0.368559, "timestamp": "2025-05-03T03:03:55.414780+00:00Z", "free_bikes": 8, "empty_slots": 2, "extra": {"uid": 683, "number": 17, "ebikes": 0, "normal_bikes": 8, "online": true, "status": "IN_SERVICE"}}, {"id": "bb6ad82dc9cb75da8e685b3c010767eb", "name": "FUNICULAIRE", "latitude": 43.293396, "longitude": -0.371321, "timestamp": "2025-05-03T03:03:55.414738+00:00Z", "free_bikes": 11, "empty_slots": 11, "extra": {"uid": 80, "number": 5, "ebikes": 0, "normal_bikes": 11, "online": true, "status": "IN_SERVICE"}}, {"id": "bc2269a25909cfc2b332c6dfbbc2fe20", "name": "BOSQUET", "latitude": 43.298244, "longitude": -0.366758, "timestamp": "2025-05-03T03:03:55.414733+00:00Z", "free_bikes": 7, "empty_slots": 3, "extra": {"uid": 95, "number": 3, "ebikes": 0, "normal_bikes": 7, "online": true, "status": "IN_SERVICE"}}, {"id": "d46c350915fe878919fb108508430fe8", "name": "SARAGOSSE", "latitude": 43.307964, "longitude": -0.358153, "timestamp": "2025-05-03T03:03:55.414772+00:00Z", "free_bikes": 11, "empty_slots": 13, "extra": {"uid": 86, "number": 14, "ebikes": 0, "normal_bikes": 11, "online": true, "status": "IN_SERVICE"}}, {"id": "d51ebc863341e99e37ab15df04c0cf1f", "name": "MASSE", "latitude": 43.314774, "longitude": -0.357013, "timestamp": "2025-05-03T03:03:55.414746+00:00Z", "free_bikes": 7, "empty_slots": 13, "extra": {"uid": 93, "number": 7, "ebikes": 0, "normal_bikes": 7, "online": true, "status": "IN_SERVICE"}}, {"id": "df35c9af76426f422fc4c36db91c4bd3", "name": "SAINT JOHN PERSE", "latitude": 43.318893, "longitude": -0.36415, "timestamp": "2025-05-03T03:03:55.414769+00:00Z", "free_bikes": 12, "empty_slots": 8, "extra": {"uid": 92, "number": 13, "ebikes": 0, "normal_bikes": 12, "online": true, "status": "IN_SERVICE"}}, {"id": "e7415b13e253c37c11d9c5413fa3e12f", "name": "GRAMONT", "latitude": 43.2963, "longitude": -0.374465, "timestamp": "2025-05-03T03:03:55.414754+00:00Z", "free_bikes": 14, "empty_slots": 6, "extra": {"uid": 82, "number": 9, "ebikes": 0, "normal_bikes": 14, "online": true, "status": "IN_SERVICE"}}]}