{"id": "le-velo-star", "name": "LE v\u00e9lo Star", "location": {"latitude": 48.114167, "longitude": -1.680833, "city": "Rennes", "country": "FR"}, "href": "/v2/networks/le-velo-star", "company": ["Keolis", "Rennes Metropole"], "system": "Keolis", "source": "https://data.explore.star.fr/explore/dataset/vls-stations-etat-tr/", "stations": [{"id": "026f03423f6f55b5be0324e83cedb7f1", "name": "Robidou", "latitude": 48.109926, "longitude": -1.659499, "timestamp": "2025-05-03T03:03:32.281602+00:00Z", "free_bikes": 10, "empty_slots": 8, "extra": {"slots": 18, "status": "En fonctionnement", "uid": "5542", "last_update": "2025-05-03T03:01:11+00:00", "online": true, "payment-terminal": true}}, {"id": "02a9f180f5d5b787c8950ac7d1d3c347", "name": "Pont de Nantes", "latitude": 48.102015, "longitude": -1.684015, "timestamp": "2025-05-03T03:03:32.281591+00:00Z", "free_bikes": 6, "empty_slots": 14, "extra": {"slots": 20, "status": "En fonctionnement", "uid": "5520", "last_update": "2025-05-03T03:01:11+00:00", "online": true, "payment-terminal": true}}, {"id": "04c6a6474c4b5a9fd449a2502ec789f9", "name": "Cucill\u00e9 - Frac", "latitude": 48.128788, "longitude": -1.698129, "timestamp": "2025-05-03T03:03:32.281655+00:00Z", "free_bikes": 10, "empty_slots": 15, "extra": {"slots": 25, "status": "En fonctionnement", "uid": "5560", "last_update": "2025-05-03T03:01:11+00:00", "online": true, "payment-terminal": true}}, {"id": "07cf0c9bbc410bfc2f6fa6c8ce34b2a4", "name": "Metz - S\u00e9vign\u00e9", "latitude": 48.115993, "longitude": -1.658258, "timestamp": "2025-05-03T03:03:32.281703+00:00Z", "free_bikes": 10, "empty_slots": 5, "extra": {"slots": 15, "status": "En fonctionnement", "uid": "5544", "last_update": "2025-05-03T03:01:11+00:00", "online": true, "payment-terminal": true}}, {"id": "0885402995ada2c490d03d19951ae41c", "name": "Pontchaillou", "latitude": 48.121481, "longitude": -1.692737, "timestamp": "2025-05-03T03:03:32.281698+00:00Z", "free_bikes": 0, "empty_slots": 28, "extra": {"slots": 28, "status": "En fonctionnement", "uid": "5539", "last_update": "2025-05-03T03:01:11+00:00", "online": true, "payment-terminal": true}}, {"id": "1a0f81ccf93ec3bbbb738dcb89652b4c", "name": "Painlev\u00e9", "latitude": 48.123506, "longitude": -1.659762, "timestamp": "2025-05-03T03:03:32.281613+00:00Z", "free_bikes": 8, "empty_slots": 21, "extra": {"slots": 29, "status": "En fonctionnement", "uid": "5580", "last_update": "2025-05-03T03:01:11+00:00", "online": true, "payment-terminal": true}}, {"id": "21cacc753c89cff77e5c4619bd94587e", "name": "Villejean-Universit\u00e9", "latitude": 48.121074, "longitude": -1.70428, "timestamp": "2025-05-03T03:03:32.281708+00:00Z", "free_bikes": 5, "empty_slots": 20, "extra": {"slots": 25, "status": "En fonctionnement", "uid": "5552", "last_update": "2025-05-03T03:01:11+00:00", "online": true, "payment-terminal": true}}, {"id": "31a68b1690019882cceafa239c1adaeb", "name": "La Courrouze", "latitude": 48.099043, "longitude": -1.694512, "timestamp": "2025-05-03T03:03:32.281619+00:00Z", "free_bikes": 16, "empty_slots": 4, "extra": {"slots": 20, "status": "En fonctionnement", "uid": "5585", "last_update": "2025-05-03T03:01:11+00:00", "online": true, "payment-terminal": true}}, {"id": "340dc3af47673595a71623747f8be0bc", "name": "Croix Saint-H\u00e9lier", "latitude": 48.10305, "longitude": -1.66209, "timestamp": "2025-05-03T03:03:32.281599+00:00Z", "free_bikes": 2, "empty_slots": 18, "extra": {"slots": 20, "status": "En fonctionnement", "uid": "5540", "last_update": "2025-05-03T03:01:11+00:00", "online": true, "payment-terminal": true}}, {"id": "39dd07bd8fc0b98bab155005d7354729", "name": "Armorique", "latitude": 48.129949, "longitude": -1.676161, "timestamp": "2025-05-03T03:03:32.281621+00:00Z", "free_bikes": 16, "empty_slots": 8, "extra": {"slots": 24, "status": "En fonctionnement", "uid": "5586", "last_update": "2025-05-03T03:01:11+00:00", "online": true, "payment-terminal": true}}, {"id": "3a7097b0eb088e26ae5c3550bf5dab00", "name": "Gares", "latitude": 48.10432, "longitude": -1.673312, "timestamp": "2025-05-03T03:03:32.281671+00:00Z", "free_bikes": 8, "empty_slots": 42, "extra": {"slots": 50, "status": "En fonctionnement", "uid": "5592", "last_update": "2025-05-03T03:01:11+00:00", "online": true, "payment-terminal": true}}, {"id": "3a8f5a5368ef659db86f62f83e115dfe", "name": "Bourgeois", "latitude": 48.098086, "longitude": -1.655278, "timestamp": "2025-05-03T03:03:32.281668+00:00Z", "free_bikes": 5, "empty_slots": 18, "extra": {"slots": 23, "status": "En fonctionnement", "uid": "5590", "last_update": "2025-05-03T03:01:11+00:00", "online": true, "payment-terminal": true}}, {"id": "3b91416346ea8807873ffc957c5c6a8e", "name": "Charles de Gaulle", "latitude": 48.105111, "longitude": -1.677119, "timestamp": "2025-05-03T03:03:32.281585+00:00Z", "free_bikes": 0, "empty_slots": 21, "extra": {"slots": 21, "status": "En fonctionnement", "uid": "5517", "last_update": "2025-05-03T03:01:11+00:00", "online": true, "payment-terminal": true}}, {"id": "4a8b06d7ba482e925fea930bbb87b257", "name": "Cit\u00e9 Judiciaire", "latitude": 48.104771, "longitude": -1.68411, "timestamp": "2025-05-03T03:03:32.281700+00:00Z", "free_bikes": 0, "empty_slots": 24, "extra": {"slots": 24, "status": "En fonctionnement", "uid": "5543", "last_update": "2025-05-03T03:01:11+00:00", "online": true, "payment-terminal": true}}, {"id": "4d0ea71ab62f8da949eb0b4bf5a0ae73", "name": "Champs Manceaux", "latitude": 48.091114, "longitude": -1.682284, "timestamp": "2025-05-03T03:03:32.281611+00:00Z", "free_bikes": 16, "empty_slots": 2, "extra": {"slots": 18, "status": "En fonctionnement", "uid": "5569", "last_update": "2025-05-03T03:01:11+00:00", "online": true, "payment-terminal": true}}, {"id": "520525a4d05db19c1c77dc2a666c83b7", "name": "Marbeuf", "latitude": 48.111825, "longitude": -1.702375, "timestamp": "2025-05-03T03:03:32.281695+00:00Z", "free_bikes": 9, "empty_slots": 9, "extra": {"slots": 18, "status": "En fonctionnement", "uid": "5538", "last_update": "2025-05-03T03:01:11+00:00", "online": true, "payment-terminal": true}}, {"id": "576111450f2d03d5b9e9c57809dcfcfd", "name": "Pont de Ch\u00e2teaudun", "latitude": 48.110264, "longitude": -1.664443, "timestamp": "2025-05-03T03:03:32.281692+00:00Z", "free_bikes": 4, "empty_slots": 14, "extra": {"slots": 18, "status": "En fonctionnement", "uid": "5535", "last_update": "2025-05-03T03:01:11+00:00", "online": true, "payment-terminal": true}}, {"id": "587bf0e7b664532e04c6469217ac2593", "name": "Colombier", "latitude": 48.106103, "longitude": -1.680594, "timestamp": "2025-05-03T03:03:32.281588+00:00Z", "free_bikes": 10, "empty_slots": 14, "extra": {"slots": 24, "status": "En fonctionnement", "uid": "5519", "last_update": "2025-05-03T03:01:11+00:00", "online": true, "payment-terminal": true}}, {"id": "619347a6925cf0b251b267071794c0df", "name": "Champs Libres", "latitude": 48.105537, "longitude": -1.674328, "timestamp": "2025-05-03T03:03:32.281684+00:00Z", "free_bikes": 0, "empty_slots": 24, "extra": {"slots": 24, "status": "En fonctionnement", "uid": "5516", "last_update": "2025-05-03T03:01:11+00:00", "online": true, "payment-terminal": true}}, {"id": "622cce2b20d2909ed337f31f503335f1", "name": "Bonnets Rouges", "latitude": 48.106846, "longitude": -1.665814, "timestamp": "2025-05-03T03:03:32.281582+00:00Z", "free_bikes": 3, "empty_slots": 20, "extra": {"slots": 23, "status": "En fonctionnement", "uid": "5514", "last_update": "2025-05-03T03:01:11+00:00", "online": true, "payment-terminal": true}}, {"id": "6247ed70bfaa37809be52236d5b4f96b", "name": "Oberthur", "latitude": 48.11355, "longitude": -1.661853, "timestamp": "2025-05-03T03:03:32.281594+00:00Z", "free_bikes": 9, "empty_slots": 21, "extra": {"slots": 30, "status": "En fonctionnement", "uid": "5522", "last_update": "2025-05-03T03:01:11+00:00", "online": true, "payment-terminal": true}}, {"id": "6d8e6528c2c6a67d71a22ea7372fa973", "name": "Pont de Strasbourg", "latitude": 48.109859, "longitude": -1.656028, "timestamp": "2025-05-03T03:03:32.281665+00:00Z", "free_bikes": 1, "empty_slots": 18, "extra": {"slots": 19, "status": "En fonctionnement", "uid": "5587", "last_update": "2025-05-03T03:01:11+00:00", "online": true, "payment-terminal": true}}, {"id": "6e1bc7c27345dc9957f86c6639ab85da", "name": "Les Gayeulles", "latitude": 48.129464, "longitude": -1.657272, "timestamp": "2025-05-03T03:03:32.281722+00:00Z", "free_bikes": 0, "empty_slots": 30, "extra": {"slots": 30, "status": "En fonctionnement", "uid": "5579", "last_update": "2025-05-03T03:01:11+00:00", "online": true, "payment-terminal": true}}, {"id": "6f13f7bdd4bb85e4259a8189f9a67a1d", "name": "Joliot-Curie - Chateaubriand", "latitude": 48.124389, "longitude": -1.651203, "timestamp": "2025-05-03T03:03:32.281724+00:00Z", "free_bikes": 3, "empty_slots": 24, "extra": {"slots": 27, "status": "En fonctionnement", "uid": "5581", "last_update": "2025-05-03T03:01:11+00:00", "online": true, "payment-terminal": true}}, {"id": "6f335eb2ad85592d504891c6b0988bfa", "name": "Les Lices", "latitude": 48.112766, "longitude": -1.685037, "timestamp": "2025-05-03T03:03:32.281687+00:00Z", "free_bikes": 8, "empty_slots": 17, "extra": {"slots": 25, "status": "En fonctionnement", "uid": "5526", "last_update": "2025-05-03T03:01:11+00:00", "online": true, "payment-terminal": true}}, {"id": "6f6f97ee3bc271fe1741075fbedeba64", "name": "Paul Bert", "latitude": 48.110115, "longitude": -1.670039, "timestamp": "2025-05-03T03:03:32.281649+00:00Z", "free_bikes": 4, "empty_slots": 12, "extra": {"slots": 16, "status": "En fonctionnement", "uid": "5536", "last_update": "2025-05-03T03:01:11+00:00", "online": true, "payment-terminal": true}}, {"id": "736f28ddac8eab64e1d5ce622e2a5600", "name": "Mabilais", "latitude": 48.105086, "longitude": -1.693069, "timestamp": "2025-05-03T03:03:32.281627+00:00Z", "free_bikes": 23, "empty_slots": 2, "extra": {"slots": 25, "status": "En fonctionnement", "uid": "5591", "last_update": "2025-05-03T03:01:11+00:00", "online": true, "payment-terminal": true}}, {"id": "7afc2c065d81f783eb7fac7fd79bd9c9", "name": "Mus\u00e9e Beaux-Arts", "latitude": 48.109601, "longitude": -1.67408, "timestamp": "2025-05-03T03:03:32.281579+00:00Z", "free_bikes": 0, "empty_slots": 16, "extra": {"slots": 16, "status": "En fonctionnement", "uid": "5510", "last_update": "2025-05-03T03:01:11+00:00", "online": true, "payment-terminal": true}}, {"id": "7b9ead8f839c276e389d6151a42f67b3", "name": "R\u00e9publique", "latitude": 48.110026, "longitude": -1.678037, "timestamp": "2025-05-03T03:03:32.281673+00:00Z", "free_bikes": 12, "empty_slots": 32, "extra": {"slots": 44, "status": "En fonctionnement", "uid": "5501", "last_update": "2025-05-03T03:01:11+00:00", "online": true, "payment-terminal": true}}, {"id": "7c5d8c2292e2e0558f3041e865939b57", "name": "D\u00e9partement 35", "latitude": 48.128453, "longitude": -1.694032, "timestamp": "2025-05-03T03:03:32.281711+00:00Z", "free_bikes": 8, "empty_slots": 19, "extra": {"slots": 27, "status": "En fonctionnement", "uid": "5555", "last_update": "2025-05-03T03:01:11+00:00", "online": true, "payment-terminal": true}}, {"id": "82f32bbf04000ff7a0c92d248765cfae", "name": "Baud Chardonnet", "latitude": 48.10995, "longitude": -1.647933, "timestamp": "2025-05-03T03:03:32.281727+00:00Z", "free_bikes": 17, "empty_slots": 7, "extra": {"slots": 24, "status": "En fonctionnement", "uid": "5589", "last_update": "2025-05-03T03:01:11+00:00", "online": true, "payment-terminal": true}}, {"id": "84c79bbb25750519ab62f0288053fbfa", "name": "Beaulieu - Universit\u00e9", "latitude": 48.121906, "longitude": -1.639783, "timestamp": "2025-05-03T03:03:32.281605+00:00Z", "free_bikes": 0, "empty_slots": 30, "extra": {"slots": 30, "status": "En panne", "uid": "5548", "last_update": "2025-05-03T03:01:11+00:00", "online": false, "payment-terminal": true}}, {"id": "94526e2f4a95022ae98bac4bea8a7383", "name": "H\u00f4tel Dieu", "latitude": 48.117596, "longitude": -1.677849, "timestamp": "2025-05-03T03:03:32.281630+00:00Z", "free_bikes": 4, "empty_slots": 19, "extra": {"slots": 23, "status": "En fonctionnement", "uid": "5506", "last_update": "2025-05-03T03:01:11+00:00", "online": true, "payment-terminal": true}}, {"id": "9a70360cd0aae0fb5f5043b54b34739a", "name": "Horizons", "latitude": 48.111564, "longitude": -1.689656, "timestamp": "2025-05-03T03:03:32.281641+00:00Z", "free_bikes": 4, "empty_slots": 20, "extra": {"slots": 24, "status": "En fonctionnement", "uid": "5527", "last_update": "2025-05-03T03:01:11+00:00", "online": true, "payment-terminal": true}}, {"id": "9aa48a6e1879074d96d3fa92f43b8a9e", "name": "Brest Verdun", "latitude": 48.113009, "longitude": -1.693264, "timestamp": "2025-05-03T03:03:32.281689+00:00Z", "free_bikes": 12, "empty_slots": 11, "extra": {"slots": 23, "status": "En fonctionnement", "uid": "5534", "last_update": "2025-05-03T03:01:11+00:00", "online": true, "payment-terminal": true}}, {"id": "9e4381a20398574714ca4fbf7323833f", "name": "La Rotonde", "latitude": 48.106653, "longitude": -1.68677, "timestamp": "2025-05-03T03:03:32.281635+00:00Z", "free_bikes": 8, "empty_slots": 12, "extra": {"slots": 20, "status": "En fonctionnement", "uid": "5523", "last_update": "2025-05-03T03:01:11+00:00", "online": true, "payment-terminal": true}}, {"id": "9f34041af96b24dd8f8afcff076fe956", "name": "Saint-Georges Piscine", "latitude": 48.112385, "longitude": -1.674417, "timestamp": "2025-05-03T03:03:32.281576+00:00Z", "free_bikes": 2, "empty_slots": 15, "extra": {"slots": 17, "status": "En fonctionnement", "uid": "5509", "last_update": "2025-05-03T03:01:11+00:00", "online": true, "payment-terminal": true}}, {"id": "a2cee7f7b1c14c219c3f17808c0ef7ea", "name": "Auberge de Jeunesse", "latitude": 48.120876, "longitude": -1.681876, "timestamp": "2025-05-03T03:03:32.281596+00:00Z", "free_bikes": 11, "empty_slots": 18, "extra": {"slots": 29, "status": "En fonctionnement", "uid": "5537", "last_update": "2025-05-03T03:01:11+00:00", "online": true, "payment-terminal": true}}, {"id": "a5a3260596442dc2363b997c25ef58df", "name": "Gros-Ch\u00eane", "latitude": 48.125408, "longitude": -1.664806, "timestamp": "2025-05-03T03:03:32.281719+00:00Z", "free_bikes": 5, "empty_slots": 13, "extra": {"slots": 18, "status": "En fonctionnement", "uid": "5578", "last_update": "2025-05-03T03:01:11+00:00", "online": true, "payment-terminal": true}}, {"id": "aa6bb44bcccba8ffeb856ef38f78aa99", "name": "Ch\u00e8ques Postaux", "latitude": 48.108765, "longitude": -1.693432, "timestamp": "2025-05-03T03:03:32.281644+00:00Z", "free_bikes": 13, "empty_slots": 16, "extra": {"slots": 29, "status": "En fonctionnement", "uid": "5528", "last_update": "2025-05-03T03:01:11+00:00", "online": true, "payment-terminal": true}}, {"id": "ab96534e0184d415fd4990f6ed0650f6", "name": "Berger", "latitude": 48.116314, "longitude": -1.705097, "timestamp": "2025-05-03T03:03:32.281714+00:00Z", "free_bikes": 14, "empty_slots": 0, "extra": {"slots": 14, "status": "En fonctionnement", "uid": "5556", "last_update": "2025-05-03T03:01:11+00:00", "online": true, "payment-terminal": true}}, {"id": "af184142dd47aa984014571769146270", "name": "Plaine de Baud", "latitude": 48.112461, "longitude": -1.643674, "timestamp": "2025-05-03T03:03:32.281652+00:00Z", "free_bikes": 10, "empty_slots": 13, "extra": {"slots": 23, "status": "En fonctionnement", "uid": "5546", "last_update": "2025-05-03T03:01:11+00:00", "online": true, "payment-terminal": true}}, {"id": "b410cee4b6b45b55e7224d26733967da", "name": "Beaulieu Chimie", "latitude": 48.116458, "longitude": -1.633875, "timestamp": "2025-05-03T03:03:32.281706+00:00Z", "free_bikes": 19, "empty_slots": 11, "extra": {"slots": 30, "status": "En fonctionnement", "uid": "5547", "last_update": "2025-05-03T03:01:11+00:00", "online": true, "payment-terminal": true}}, {"id": "c7301b4bd55562b51796a0762dfbbaf9", "name": "Clemenceau", "latitude": 48.093292, "longitude": -1.674116, "timestamp": "2025-05-03T03:03:32.281660+00:00Z", "free_bikes": 7, "empty_slots": 15, "extra": {"slots": 22, "status": "En fonctionnement", "uid": "5562", "last_update": "2025-05-03T03:01:11+00:00", "online": true, "payment-terminal": true}}, {"id": "ca3f2372ef47f3444751ce4886d6228f", "name": "Anatole France", "latitude": 48.11817, "longitude": -1.688466, "timestamp": "2025-05-03T03:03:32.281646+00:00Z", "free_bikes": 4, "empty_slots": 24, "extra": {"slots": 28, "status": "En fonctionnement", "uid": "5533", "last_update": "2025-05-03T03:01:11+00:00", "online": true, "payment-terminal": true}}, {"id": "d5581c21dd1c06de72bfef43de0ec864", "name": "Sainte-Anne", "latitude": 48.11421, "longitude": -1.680461, "timestamp": "2025-05-03T03:03:32.281569+00:00Z", "free_bikes": 0, "empty_slots": 24, "extra": {"slots": 24, "status": "En fonctionnement", "uid": "5505", "last_update": "2025-05-03T03:01:11+00:00", "online": true, "payment-terminal": true}}, {"id": "d56ddd6648d0aea2e6fa505800cd6ea6", "name": "Place Hoche", "latitude": 48.115074, "longitude": -1.677073, "timestamp": "2025-05-03T03:03:32.281679+00:00Z", "free_bikes": 1, "empty_slots": 38, "extra": {"slots": 39, "status": "En fonctionnement", "uid": "5504", "last_update": "2025-05-03T03:01:11+00:00", "online": true, "payment-terminal": true}}, {"id": "d72c94e66d33ed6b5a3535f8961d99cd", "name": "Jacques Cartier", "latitude": 48.097505, "longitude": -1.674834, "timestamp": "2025-05-03T03:03:32.281657+00:00Z", "free_bikes": 3, "empty_slots": 20, "extra": {"slots": 23, "status": "En fonctionnement", "uid": "5561", "last_update": "2025-05-03T03:01:11+00:00", "online": true, "payment-terminal": true}}, {"id": "d74710fd94387b373867326058428b98", "name": "Place de Bretagne", "latitude": 48.1097, "longitude": -1.684041, "timestamp": "2025-05-03T03:03:32.281638+00:00Z", "free_bikes": 1, "empty_slots": 38, "extra": {"slots": 39, "status": "En fonctionnement", "uid": "5524", "last_update": "2025-05-03T03:01:11+00:00", "online": true, "payment-terminal": true}}, {"id": "d948f758ca4f1e70ff3e5c9d2844b581", "name": "Gare Sud F\u00e9val", "latitude": 48.102055, "longitude": -1.673959, "timestamp": "2025-05-03T03:03:32.281624+00:00Z", "free_bikes": 12, "empty_slots": 12, "extra": {"slots": 24, "status": "En fonctionnement", "uid": "5588", "last_update": "2025-05-03T03:01:11+00:00", "online": true, "payment-terminal": true}}, {"id": "e3f27e8d3d60c68b9a989ab3e8fd3b11", "name": "TNB", "latitude": 48.107748, "longitude": -1.673711, "timestamp": "2025-05-03T03:03:32.281681+00:00Z", "free_bikes": 4, "empty_slots": 23, "extra": {"slots": 27, "status": "En fonctionnement", "uid": "5512", "last_update": "2025-05-03T03:01:11+00:00", "online": true, "payment-terminal": true}}, {"id": "e9e6a288af677f38f0523a3f62886218", "name": "La Poterie", "latitude": 48.087309, "longitude": -1.643683, "timestamp": "2025-05-03T03:03:32.281616+00:00Z", "free_bikes": 15, "empty_slots": 4, "extra": {"slots": 19, "status": "En fonctionnement", "uid": "5582", "last_update": "2025-05-03T03:01:11+00:00", "online": true, "payment-terminal": true}}, {"id": "f42a9e7d8db0ad6405e6e6b153bb6d4a", "name": "Mairie - Op\u00e9ra", "latitude": 48.111624, "longitude": -1.678757, "timestamp": "2025-05-03T03:03:32.281676+00:00Z", "free_bikes": 2, "empty_slots": 22, "extra": {"slots": 24, "status": "En fonctionnement", "uid": "5502", "last_update": "2025-05-03T03:01:11+00:00", "online": true, "payment-terminal": true}}, {"id": "f7b91768d934b261fe6990cd27167901", "name": "Binquenais", "latitude": 48.091594, "longitude": -1.667321, "timestamp": "2025-05-03T03:03:32.281663+00:00Z", "free_bikes": 15, "empty_slots": 1, "extra": {"slots": 16, "status": "En fonctionnement", "uid": "5567", "last_update": "2025-05-03T03:01:11+00:00", "online": true, "payment-terminal": true}}, {"id": "f85d015e700119331bbf52da56fac4bc", "name": "Br\u00e9quigny Piscine", "latitude": 48.089978, "longitude": -1.690244, "timestamp": "2025-05-03T03:03:32.281608+00:00Z", "free_bikes": 10, "empty_slots": 14, "extra": {"slots": 24, "status": "En fonctionnement", "uid": "5566", "last_update": "2025-05-03T03:01:11+00:00", "online": true, "payment-terminal": true}}, {"id": "fbc2240741c5b82b347f808d864ce67b", "name": "Jules Ferry", "latitude": 48.118172, "longitude": -1.670735, "timestamp": "2025-05-03T03:03:32.281632+00:00Z", "free_bikes": 9, "empty_slots": 21, "extra": {"slots": 30, "status": "En fonctionnement", "uid": "5507", "last_update": "2025-05-03T03:01:11+00:00", "online": true, "payment-terminal": true}}, {"id": "fc295667e5a921dc782df37f1728bb2f", "name": "Sainte-Th\u00e9r\u00e8se", "latitude": 48.094986, "longitude": -1.663731, "timestamp": "2025-05-03T03:03:32.281717+00:00Z", "free_bikes": 9, "empty_slots": 3, "extra": {"slots": 12, "status": "En fonctionnement", "uid": "5571", "last_update": "2025-05-03T03:01:11+00:00", "online": true, "payment-terminal": true}}]}