{"id": "longanoinbici", "name": "LonganoinBici", "location": {"latitude": 38.149812517944284, "longitude": 15.212116241455078, "city": "Barcellona Pozzo di Gotto", "country": "IT"}, "href": "/v2/networks/longanoinbici", "company": ["Comunicare S.r.l."], "system": "Bicincitt\u00e0", "source": "https://www.bicincitta.com/frmLeStazioni.aspx?ID=140", "stations": [{"id": "2c5167a61f07ae6987cad4a50103d722", "name": "Stazione Vecchia", "latitude": 38.149475031635326, "longitude": 15.214186906814575, "timestamp": "2025-05-03T03:03:52.548372+00:00Z", "free_bikes": 5, "empty_slots": 3, "extra": {"uid": "907", "number": 5, "status": "offline", "score": 2.1, "reviews": 9}}, {"id": "812e90840bb94d743330befc149374b4", "name": "Stazione Nuova", "latitude": 38.153457270582535, "longitude": 15.200271606445312, "timestamp": "2025-05-03T03:03:52.548352+00:00Z", "free_bikes": 5, "empty_slots": 3, "extra": {"uid": "905", "number": 3, "status": "offline", "score": 1.2, "reviews": 10}}, {"id": "a156a264e9703c85fbff347cfc160325", "name": "Caldera`", "latitude": 38.172083161686736, "longitude": 15.19683837890625, "timestamp": "2025-05-03T03:03:52.548340+00:00Z", "free_bikes": 5, "empty_slots": 3, "extra": {"uid": "904", "number": 2, "status": "offline", "score": 2.6, "reviews": 6}}, {"id": "c838f1c10a36ca5dac7f0edd2a143b2f", "name": "Tribunale", "latitude": 38.13911344216544, "longitude": 15.219755172729492, "timestamp": "2025-05-03T03:03:52.548320+00:00Z", "free_bikes": 5, "empty_slots": 3, "extra": {"uid": "903", "number": 1, "status": "offline", "score": 2.5, "reviews": 23}}, {"id": "f063699e4c819287890ade09291cab27", "name": "Villa Oasi", "latitude": 38.145838517600616, "longitude": 15.215088129043579, "timestamp": "2025-05-03T03:03:52.548362+00:00Z", "free_bikes": 5, "empty_slots": 3, "extra": {"uid": "906", "number": 4, "status": "offline", "score": 1.8, "reviews": 4}}]}