{"id": "lovesharing-canary-islands-fuerteventura", "name": "Lovesharing (Canary Islands)", "location": {"latitude": 28.3584, "longitude": -14.064, "city": "Fuerteventura", "country": "ES"}, "href": "/v2/networks/lovesharing-canary-islands-fuerteventura", "company": ["Nextbike GmbH"], "system": "Nextbike", "stations": [{"id": "022c393cd6478c54cb56d1033193d6a2", "name": "R2 P\u00e1jara Beach", "latitude": 28.150222, "longitude": -14.233111, "timestamp": "2025-05-03T02:57:38.078639+00:00Z", "free_bikes": 4, "empty_slots": 0, "extra": {"uid": "18599628", "number": "3592", "slots": 6, "bike_uids": ["34462", "34458", "34457", "34456"], "virtual": false}}, {"id": "1377e713194469601525770f9397b31c", "name": "R2 Bahia Calma", "latitude": 28.192111, "longitude": -14.118778, "timestamp": "2025-05-03T02:57:38.078689+00:00Z", "free_bikes": 4, "empty_slots": 0, "extra": {"uid": "18599699", "number": "3594", "slots": 4, "bike_uids": ["34490", "34464", "34463", "34460"], "virtual": false}}, {"id": "1c1dd1e7d7a6f4c5e5304c667e4a5f98", "name": "R2 Rio Calma", "latitude": 28.167917, "longitude": -14.209889, "timestamp": "2025-05-03T02:57:38.078669+00:00Z", "free_bikes": 3, "empty_slots": 1, "extra": {"uid": "18599658", "number": "3593", "slots": 4, "bike_uids": ["34486", "34479", "34475"], "virtual": false}}, {"id": "5172b8ac28972af5552df371df8cb888", "name": "Elba Sara", "latitude": 28.384953, "longitude": -13.86489, "timestamp": "2025-05-03T02:57:38.078594+00:00Z", "free_bikes": 4, "empty_slots": 0, "extra": {"uid": "18599421", "number": "3586", "slots": 4, "bike_uids": ["34494", "34489", "34470", "34466"], "virtual": false}}, {"id": "51a60a5cea836f30ca84381995ef78a5", "name": "Barcel\u00f3 Jand\u00eda Playa", "latitude": 28.055778, "longitude": -14.325444, "timestamp": "2025-05-03T02:57:38.078555+00:00Z", "free_bikes": 3, "empty_slots": 1, "extra": {"uid": "18571131", "number": "3596", "slots": 6, "bike_uids": ["34498", "34478", "34465"], "virtual": false}}, {"id": "f30bb375ed771cdf19539b034b78382f", "name": "Sheraton Fuerteventura", "latitude": 28.390124, "longitude": -13.863219, "timestamp": "2025-05-03T02:57:38.078617+00:00Z", "free_bikes": 3, "empty_slots": 2, "extra": {"uid": "18599488", "number": "3588", "slots": 4, "bike_uids": ["34476", "34474", "34468"], "virtual": false}}]}