{"id": "lovesharing-canary-islands-gran-canaria", "name": "Lovesharing (Canary Islands)", "location": {"latitude": 27.8154, "longitude": -15.5182, "city": "Gran Canaria", "country": "ES"}, "href": "/v2/networks/lovesharing-canary-islands-gran-canaria", "company": ["Nextbike GmbH"], "system": "Nextbike", "stations": [{"id": "170476ca15539a7a21d36064ae7eeb8a", "name": "Cordial Santa Agueda", "latitude": 27.754379, "longitude": -15.674696, "timestamp": "2025-05-03T02:57:38.035420+00:00Z", "free_bikes": 4, "empty_slots": 1, "extra": {"uid": "507417515", "number": "35910", "slots": 6, "bike_uids": ["32494", "32491", "32465", "32416"], "virtual": false}}, {"id": "2cac3b3448c07e1dbcfc7f249b873b30", "name": "Satocan Salobre", "latitude": 27.782611, "longitude": -15.649778, "timestamp": "2025-05-03T02:57:38.035408+00:00Z", "free_bikes": 0, "empty_slots": 4, "extra": {"uid": "18599901", "number": "3599", "slots": 6, "bike_uids": [], "virtual": false}}, {"id": "2d9ec1afeb51ffee61ce321c12dba28b", "name": "Satocan Gold by Marina", "latitude": 27.756972, "longitude": -15.572444, "timestamp": "2025-05-03T02:57:38.035395+00:00Z", "free_bikes": 2, "empty_slots": 1, "extra": {"uid": "18599750", "number": "3582", "slots": 4, "bike_uids": ["32446", "32420"], "virtual": false}}, {"id": "6e220638591c6ff96dc92acd0481d780", "name": "Cordial Mogan Valle", "latitude": 27.824618, "longitude": -15.758277, "timestamp": "2025-05-03T02:57:38.035320+00:00Z", "free_bikes": 2, "empty_slots": 1, "extra": {"uid": "18598248", "number": "3580", "slots": 4, "bike_uids": ["32447", "32401"], "virtual": false}}, {"id": "6f2674ce7a7f19602d8fac885fc2547f", "name": "Lopesan Villa del Conde", "latitude": 27.742972, "longitude": -15.605667, "timestamp": "2025-05-03T02:57:38.035367+00:00Z", "free_bikes": 2, "empty_slots": 3, "extra": {"uid": "18599537", "number": "3590", "slots": 6, "bike_uids": ["32458", "32435"], "virtual": false}}, {"id": "b90d721053cae53967367fbb2c03c3d5", "name": "Lopesan Baobab", "latitude": 27.740583, "longitude": -15.600083, "timestamp": "2025-05-03T02:57:38.035382+00:00Z", "free_bikes": 4, "empty_slots": 1, "extra": {"uid": "18599596", "number": "3591", "slots": 6, "bike_uids": ["32479", "32455", "32423", "32422"], "virtual": false}}, {"id": "e4a2b6c0cccdcce06b2bc387c5612c70", "name": "Occidental Margaritas", "latitude": 27.762925, "longitude": -15.579987, "timestamp": "2025-05-03T02:57:38.035350+00:00Z", "free_bikes": 3, "empty_slots": 2, "extra": {"uid": "18598681", "number": "3583", "slots": 4, "bike_uids": ["32436", "32428", "32407"], "virtual": false}}]}