{"id": "meglio-in-bici", "name": "Meglio in Bici", "location": {"latitude": 45.520541, "longitude": 9.341984, "city": "Cernusco sul Naviglio - Pioltello - Carugate", "country": "IT"}, "href": "/v2/networks/meglio-in-bici", "company": ["Comunicare S.r.l."], "system": "Bicincitt\u00e0", "source": "https://www.bicincitta.com/frmLeStazioni.aspx?ID=121", "stations": [{"id": "082b1b2bd2504bb73d0edb555e92785c", "name": "Esselunga - Pioltello", "latitude": 45.48551917784917, "longitude": 9.318017160990848, "timestamp": "2025-05-03T03:12:54.133560+00:00Z", "free_bikes": 5, "empty_slots": 3, "extra": {"uid": "1309", "number": 104, "status": "offline", "score": 0.4, "reviews": 7}}, {"id": "0f594d6af8d130e4c07c01766a549fd0", "name": "25 Aprile - Pioltello", "latitude": 45.501145994306576, "longitude": 9.328050405835029, "timestamp": "2025-05-03T03:12:54.133545+00:00Z", "free_bikes": 5, "empty_slots": 3, "extra": {"uid": "1039", "number": 103, "status": "offline", "score": 3.1, "reviews": 4}}, {"id": "599644c9973576759d394cdf76c57b11", "name": "Viale Assunta - Cernusco", "latitude": 45.519338394063496, "longitude": 9.330718517303467, "timestamp": "2025-05-03T03:12:54.133479+00:00Z", "free_bikes": 5, "empty_slots": 3, "extra": {"uid": "714", "number": 1, "status": "offline", "score": 2.3, "reviews": 12}}, {"id": "5fe44e3c0ab9631bb8454ea327865ae6", "name": "Villa Fiorita - Cernusco", "latitude": 45.52024046971439, "longitude": 9.345524311065674, "timestamp": "2025-05-03T03:12:54.133495+00:00Z", "free_bikes": 5, "empty_slots": 3, "extra": {"uid": "715", "number": 2, "status": "offline", "score": 1.3, "reviews": 3}}, {"id": "b9013d450eb99f01255f4a7dad47ed36", "name": "Centro Sportivo - Cernusco", "latitude": 45.522000203589045, "longitude": 9.317536647117208, "timestamp": "2025-05-03T03:12:54.133514+00:00Z", "free_bikes": 5, "empty_slots": 3, "extra": {"uid": "717", "number": 11, "status": "offline", "score": 1.7, "reviews": 5}}, {"id": "d1d9297386dbfa98ab870f60a07f135d", "name": "Municipio - Pioltello", "latitude": 45.49766919916826, "longitude": 9.327553510665894, "timestamp": "2025-05-03T03:12:54.133525+00:00Z", "free_bikes": 5, "empty_slots": 3, "extra": {"uid": "720", "number": 101, "status": "offline", "score": 1.9, "reviews": 3}}, {"id": "da48bad970a9843e6b5b0662390a5e79", "name": "Zona Industriale - Cernusco", "latitude": 45.51213630484634, "longitude": 9.33812141418457, "timestamp": "2025-05-03T03:12:54.133505+00:00Z", "free_bikes": 5, "empty_slots": 3, "extra": {"uid": "716", "number": 3, "status": "offline", "score": 2.5, "reviews": 4}}, {"id": "ef129098140da7a015b20b83b7db010a", "name": "Stazione FFSS - Pioltello", "latitude": 45.48616203823974, "longitude": 9.325826168060303, "timestamp": "2025-05-03T03:12:54.133535+00:00Z", "free_bikes": 5, "empty_slots": 3, "extra": {"uid": "721", "number": 102, "status": "offline", "score": 1.8, "reviews": 3}}]}