{"id": "meiob", "name": "meioB", "location": {"latitude": 39.6024, "longitude": -8.4069, "city": "M\u00e9dio Tejo", "country": "PT"}, "href": "/v2/networks/meiob", "company": ["CIM M\u00e9dio Tejo"], "stations": [{"id": "043e3ecafdbdf924fea9b7a26d3f930d", "name": "Vila Nova da Barquinha", "latitude": 39.4645, "longitude": -8.35684, "timestamp": "2025-05-03T03:12:42.530198+00:00Z", "free_bikes": 2, "empty_slots": 1, "extra": {"address": "N3-9 63-6", "city": "2260-230, Vila Nova da Barquinha"}}, {"id": "04523f508f32b3e42bc2a0cef62bec20", "name": "Pra\u00e7a do Mun\u00edcipio", "latitude": 39.65826, "longitude": -8.57871, "timestamp": "2025-05-03T03:12:41.109484+00:00Z", "free_bikes": 3, "empty_slots": 3, "extra": {"address": "Pra\u00e7a do Munic\u00edpio 11", "city": "2490-499, Our\u00e9m"}}, {"id": "05d10c6b052cf4765640bdebee44281a", "name": "Paragens", "latitude": 39.45789, "longitude": -8.66781, "timestamp": "2025-05-03T03:12:40.634289+00:00Z", "free_bikes": 0, "empty_slots": 10, "extra": {"address": "R. Jo\u00e3o da Silva Naz\u00e1rio 1", "city": "2380-011, Alcanena"}}, {"id": "08a0231ea7928135a0683cf95f4e46a8", "name": "Ch\u00e3", "latitude": 39.46729, "longitude": -8.66283, "timestamp": "2025-05-03T03:12:40.750245+00:00Z", "free_bikes": 1, "empty_slots": 5, "extra": {"address": "Av. Rainha Dona Maria I 75", "city": "2380-102, Alcanena"}}, {"id": "0a7b6de62853f7ea0d8f0e68f19a2106", "name": "Escola Maria Lamas", "latitude": 39.48377, "longitude": -8.53966, "timestamp": "2025-05-03T03:12:41.993511+00:00Z", "free_bikes": 1, "empty_slots": 7, "extra": {"address": "R. Escola Secund\u00e1ria 2", "city": "2350-786, Torres Novas"}}, {"id": "0ef5d9d8ba23ab97e8a40eb9b2114732", "name": "Posto Turismo", "latitude": 39.5581, "longitude": -7.99567, "timestamp": "2025-05-03T03:12:40.752705+00:00Z", "free_bikes": 1, "empty_slots": 6, "extra": {"address": "R. Padre Ant\u00f3nio Pereira de Figueiredo 2-24", "city": "6120-750, Ma\u00e7\u00e3o"}}, {"id": "14ee833c62d814ee31452f39786d0696", "name": "Vila Nova da Barquinha", "latitude": 39.47072, "longitude": -8.43941, "timestamp": "2025-05-03T03:12:42.649755+00:00Z", "free_bikes": 2, "empty_slots": 1, "extra": {"address": "R. do Po\u00e7o Novo 8", "city": "2260-572, Vila Nova da Barquinha"}}, {"id": "15c45afbb3c17324d76a5946d5cb8729", "name": "Torres Novas", "latitude": 39.43281, "longitude": -8.50518, "timestamp": "2025-05-03T03:12:42.193466+00:00Z", "free_bikes": 3, "empty_slots": 3, "extra": {"address": "R. Esta\u00e7\u00e3o", "city": "2350-336, Torres Novas"}}, {"id": "17120818182ebcacf8c0ea5cb857cf15", "name": "Esta\u00e7\u00e3o Ferrovi\u00e1ria", "latitude": 39.46083, "longitude": -8.47231, "timestamp": "2025-05-03T03:12:43.186219+00:00Z", "free_bikes": 0, "empty_slots": 6, "extra": {"address": "Parque de Estacionamento da Esta\u00e7\u00e3o Ferrovi\u00e1ria", "city": "2330-096, Entroncamento"}}, {"id": "17829fdf3daa04746343e58665c98ec3", "name": "Vila Nova da Barquinha", "latitude": 39.45862, "longitude": -8.3995, "timestamp": "2025-05-03T03:12:42.613427+00:00Z", "free_bikes": 2, "empty_slots": 1, "extra": {"address": "Jardim Ribeirinho de Tancos", "city": "2260-329, Vila Nova da Barquinha"}}, {"id": "180ac3374b7321d55a54e65edbf55f3f", "name": "Biblioteca Municipal", "latitude": 39.60312, "longitude": -8.40495, "timestamp": "2025-05-03T03:12:41.695719+00:00Z", "free_bikes": 5, "empty_slots": 4, "extra": {"address": "\u00c1lameda dos Templ\u00e1rios", "city": "2300-303, Tomar"}}, {"id": "1a4c8d52b1b57d907ea030b25f63f6e3", "name": "Complexo Desportivo Municipal", "latitude": 39.60719, "longitude": -8.39924, "timestamp": "2025-05-03T03:12:41.896044+00:00Z", "free_bikes": 0, "empty_slots": 6, "extra": {"address": "Estr. do Barreiro 74-18", "city": "2300-442, Tomar"}}, {"id": "1ac8af4ee999f9ce261b824f44aca334", "name": "Escola D. Maria II", "latitude": 39.46171, "longitude": -8.44374, "timestamp": "2025-05-03T03:12:42.794146+00:00Z", "free_bikes": 1, "empty_slots": 2, "extra": {"address": "Vila Nova da Barquinha - Rua D. Maria II", "city": "2260-434, Vila Nova da Barquinha"}}, {"id": "1e2d89bebbf9d4d7def578c0d0e029b3", "name": "Gustave Eiffel", "latitude": 39.45124, "longitude": -8.4803, "timestamp": "2025-05-03T03:12:43.188163+00:00Z", "free_bikes": 0, "empty_slots": 6, "extra": {"address": "Escola Profissional Gustave Eiffel", "city": "2334-519, Entroncamento"}}, {"id": "212fe4fe259963a085a50272e921ecb1", "name": "Sert\u00e3", "latitude": 39.73028, "longitude": -8.23191, "timestamp": "2025-05-03T03:12:41.171974+00:00Z", "free_bikes": 2, "empty_slots": 4, "extra": {"address": "Estacionamento da Praia Fluvial do Tr\u00edzio", "city": "6100-494, Sert\u00e3"}}, {"id": "25607c71e171ae7b075c1dc1d0201d3f", "name": "Zona Desportiva e Cultural", "latitude": 39.69551, "longitude": -8.28685, "timestamp": "2025-05-03T03:12:40.714611+00:00Z", "free_bikes": 2, "empty_slots": 4, "extra": {"address": "R. Ferreira do Alentejo", "city": "2240-388, Ferreira do Z\u00eazere"}}, {"id": "2ba46676b622466f10b5c23b5e9f866b", "name": "BUE", "latitude": 39.46236, "longitude": -8.46998, "timestamp": "2025-05-03T03:12:42.930891+00:00Z", "free_bikes": 0, "empty_slots": 10, "extra": {"address": "Jardim da Pra\u00e7a Salgueiro Maia", "city": "2330-176, Entroncamento"}}, {"id": "2d008e697b03372a4e83af00a8f78436", "name": "Museu", "latitude": 39.55685, "longitude": -7.99369, "timestamp": "2025-05-03T03:12:40.784222+00:00Z", "free_bikes": 2, "empty_slots": 10, "extra": {"address": "Alameda Infante D. Henrique", "city": "6120-721, Ma\u00e7\u00e3o"}}, {"id": "37def1012b182b02993760b0b93c869f", "name": "Inter marche/ Zona Comercial", "latitude": 39.69513, "longitude": -8.30251, "timestamp": "2025-05-03T03:12:42.824633+00:00Z", "free_bikes": 0, "empty_slots": 6, "extra": {"address": "Av. 13 de Junho", "city": "2240-385, Ferreira do Z\u00eazere"}}, {"id": "3addf6542f1e474a8455ec6ed73a47df", "name": "BUE", "latitude": 39.47159, "longitude": -8.47748, "timestamp": "2025-05-03T03:12:43.128879+00:00Z", "free_bikes": 0, "empty_slots": 9, "extra": {"address": "R. Forno do Grilo", "city": "2330-160, Entroncamento"}}, {"id": "3d603f984498500c370b025c6dd0a981", "name": "Piscinas Municipais", "latitude": 39.80589, "longitude": -8.09609, "timestamp": "2025-05-03T03:12:41.251002+00:00Z", "free_bikes": 2, "empty_slots": 7, "extra": {"address": "Urbaniza\u00e7\u00e3o Pinhal de Cima 20", "city": "6100-654, Sert\u00e3"}}, {"id": "3f463e83d6eb07fe448dbc38ba0f914b", "name": "GNR", "latitude": 39.63294, "longitude": -8.68197, "timestamp": "2025-05-03T03:12:40.905434+00:00Z", "free_bikes": 1, "empty_slots": 5, "extra": {"address": "Av. de Dom Jos\u00e9 Alves Correia da Silva", "city": "2495-402, Our\u00e9m"}}, {"id": "3feea9f9b7998d537af282bab7ef5c38", "name": "BUE", "latitude": 39.46128, "longitude": -8.47264, "timestamp": "2025-05-03T03:12:42.867434+00:00Z", "free_bikes": 0, "empty_slots": 10, "extra": {"address": "Jardim da Pra\u00e7a da Rep\u00fablica", "city": "2330-096, Entroncamento"}}, {"id": "418de4c0014cb35fc0163052003b4e5c", "name": "IPT", "latitude": 39.60063, "longitude": -8.3916, "timestamp": "2025-05-03T03:12:41.766381+00:00Z", "free_bikes": 3, "empty_slots": 9, "extra": {"address": "Estrada da Serra", "city": "2300-410, Tomar"}}, {"id": "4b0147ebbdff28be2dfc382132930a8f", "name": "Terminal Rodoviario", "latitude": 39.47763, "longitude": -8.53717, "timestamp": "2025-05-03T03:12:42.118336+00:00Z", "free_bikes": 5, "empty_slots": 4, "extra": {"address": "R. Nogueiral", "city": "2350-413, Torres Novas"}}, {"id": "508f06bd692c4802c7e8c4eeb3124a98", "name": "BUE", "latitude": 39.47577, "longitude": -8.46793, "timestamp": "2025-05-03T03:12:43.129801+00:00Z", "free_bikes": 1, "empty_slots": 8, "extra": {"address": "Av. das For\u00e7as Armadas", "city": "2330-065, Entroncamento"}}, {"id": "56280404f79b415dc3f22da29056f0ef", "name": "BUE", "latitude": 39.46628, "longitude": -8.47183, "timestamp": "2025-05-03T03:12:43.035473+00:00Z", "free_bikes": 0, "empty_slots": 7, "extra": {"address": "R. Dr. Miguel Bombarda", "city": "2330-017, Entroncamento"}}, {"id": "5a912c9a4d2f90adb838a6bf5792ed38", "name": "BUE", "latitude": 39.45725, "longitude": -8.47016, "timestamp": "2025-05-03T03:12:43.033152+00:00Z", "free_bikes": 1, "empty_slots": 8, "extra": {"address": "R. Jo\u00e3o Lopes Caldeira", "city": "2330-336, Entroncamento"}}, {"id": "5cdf1f70397e18670b37a4f2a5bdf33c", "name": "Posto de Turismo", "latitude": 39.62741, "longitude": -8.67502, "timestamp": "2025-05-03T03:12:40.930806+00:00Z", "free_bikes": 4, "empty_slots": 2, "extra": {"address": "Av. de Dom Jos\u00e9 Alves Correia da Silva 213", "city": "2495-402, Our\u00e9m"}}, {"id": "658efe5b0c0fe9ea4cc98e3cba348496", "name": "Vila Nova da Barquinha", "latitude": 39.46308, "longitude": -8.38263, "timestamp": "2025-05-03T03:12:42.612507+00:00Z", "free_bikes": 1, "empty_slots": 2, "extra": {"address": "Estacionamento Castelo e Convento de Almourol", "city": "2260, Vila Nova da Barquinha"}}, {"id": "690258ad7db1340ec03a3944f7410594", "name": "Zona Desportiva", "latitude": 39.60543, "longitude": -8.41156, "timestamp": "2025-05-03T03:12:41.992752+00:00Z", "free_bikes": 0, "empty_slots": 6, "extra": {"address": "Est\u00e1dio Municipal de Tomar", "city": "2300-586, Tomar"}}, {"id": "6b5d8d5ac4d88905636f9d3e37cc3e72", "name": "Posto de Turismo / Terminal Rodovi\u00e1rio", "latitude": 39.80074, "longitude": -8.09724, "timestamp": "2025-05-03T03:12:41.189462+00:00Z", "free_bikes": 4, "empty_slots": 5, "extra": {"address": "Av. Padre Manuel Antunes", "city": "6100-781, Sert\u00e3"}}, {"id": "6d6df094e2e597819f3d566d31a7a09e", "name": "Sophia de Mello Breyner", "latitude": 39.47219, "longitude": -8.48062, "timestamp": "2025-05-03T03:12:43.256498+00:00Z", "free_bikes": 0, "empty_slots": 6, "extra": {"address": "R. dos Ferrovi\u00e1rios", "city": "2330-144, Entroncamento"}}, {"id": "6db75bc82d2d83a38456e6c5951b5ae4", "name": "Mercado Municipal", "latitude": 39.65466, "longitude": -8.57189, "timestamp": "2025-05-03T03:12:41.040592+00:00Z", "free_bikes": 2, "empty_slots": 4, "extra": {"address": "R. Dr. Francisco S\u00e1 Carneiro 5-3", "city": "2490-548, Our\u00e9m"}}, {"id": "6e38a372d64911a8a2f5b49b2a170257", "name": "Rua Coronel Garc\u00eas Teixeira/McDonalds", "latitude": 39.60261, "longitude": -8.3992, "timestamp": "2025-05-03T03:12:41.696725+00:00Z", "free_bikes": 0, "empty_slots": 6, "extra": {"address": "R. Cel. Garc\u00eas Teixeira", "city": "2300-463, Tomar"}}, {"id": "70012ca33164afdd5e29fc4a237e4013", "name": "Bartolomeu Gusm\u00e3o", "latitude": 39.4729, "longitude": -8.48486, "timestamp": "2025-05-03T03:12:43.178644+00:00Z", "free_bikes": 3, "empty_slots": 3, "extra": {"address": "Rua Bartolomeu de Gusm\u00e3o", "city": "2330-218, Entroncamento"}}, {"id": "7261f3d81b31ba122e6153a37d560a73", "name": "Sede do Agrupamento Escolar", "latitude": 39.69071, "longitude": -8.28895, "timestamp": "2025-05-03T03:12:40.694586+00:00Z", "free_bikes": 2, "empty_slots": 7, "extra": {"address": "Praceta Dr. Guilherme F\u00e9lix de Faria Soeiro", "city": "2240-390, Ferreira do Z\u00eazere"}}, {"id": "77f7b146ee84a59bb8d27ac17d9ad98a", "name": "BUE", "latitude": 39.46107, "longitude": -8.46574, "timestamp": "2025-05-03T03:12:42.951621+00:00Z", "free_bikes": 0, "empty_slots": 9, "extra": {"address": "Av. Jos\u00e9 Eduardo Vitor das Neves", "city": "2330-066, Entroncamento"}}, {"id": "78dac3370d8dd3e6012eefc2501ebac0", "name": "Jardim da Vila", "latitude": 39.69341, "longitude": -8.29058, "timestamp": "2025-05-03T03:12:40.659206+00:00Z", "free_bikes": 3, "empty_slots": 6, "extra": {"address": "Jardim da Pra\u00e7a Dias Ferreira", "city": "2240-341, Ferreira do Z\u00eazere"}}, {"id": "79d042885c64eeb7aefd77d797ed7d47", "name": "Pavilh\u00e3o Municipal", "latitude": 39.47048, "longitude": -8.4678, "timestamp": "2025-05-03T03:12:43.188999+00:00Z", "free_bikes": 1, "empty_slots": 7, "extra": {"address": "R. J\u00falio Dinis", "city": "2330-059, Entroncamento"}}, {"id": "7b513c0e77f1e1ce6f5307fb8dd9f7e8", "name": "Av. Beato Nuno (c/ R. Anjo de Portugal)", "latitude": 39.63589, "longitude": -8.67865, "timestamp": "2025-05-03T03:12:40.971872+00:00Z", "free_bikes": 3, "empty_slots": 3, "extra": {"address": "Av. Beato Nuno", "city": "2495-401, Our\u00e9m"}}, {"id": "7b7b8733468e64b8984d4508743b3010", "name": "Mercado Municipal", "latitude": 39.67517, "longitude": -8.14703, "timestamp": "2025-05-03T03:12:42.340916+00:00Z", "free_bikes": 1, "empty_slots": 5, "extra": {"address": "Rua do Moinho 7", "city": "6110-206, Vila de Rei"}}, {"id": "83f233feae9a7af6ba87558e79f5608f", "name": "Convento de Cristo", "latitude": 39.60402, "longitude": -8.41727, "timestamp": "2025-05-03T03:12:41.649227+00:00Z", "free_bikes": 0, "empty_slots": 6, "extra": {"address": "Estrada do Convento", "city": "2300-633, Tomar"}}, {"id": "86bde316b26fa44420bf6f04012014b5", "name": "Pra\u00e7a das Laranjeiras", "latitude": 39.45841, "longitude": -8.66948, "timestamp": "2025-05-03T03:12:42.651288+00:00Z", "free_bikes": 3, "empty_slots": 3, "extra": {"address": "Rua Doutor Carlos Nunes Ferreira", "city": "2380-064, Alcanena"}}, {"id": "86f8367cc2afe81b272390cb5d496bd7", "name": "Escola Profissional", "latitude": 39.46768, "longitude": -8.53164, "timestamp": "2025-05-03T03:12:42.194461+00:00Z", "free_bikes": 0, "empty_slots": 8, "extra": {"address": "Cancela do Le\u00e3o 24", "city": "2350-650, Torres Novas"}}, {"id": "872540c06eea70519cb45cb1b6d3073b", "name": "Escola Secund\u00e1ria/ Piscinas", "latitude": 39.5626, "longitude": -7.9991, "timestamp": "2025-05-03T03:12:40.785181+00:00Z", "free_bikes": 0, "empty_slots": 10, "extra": {"address": "Rua das Piscinas", "city": "6120-724, Ma\u00e7\u00e3o"}}, {"id": "88fe9872941d06a02aaeed6ac955b9f9", "name": "Parque Ambiental de Santa Margarida", "latitude": 39.44609, "longitude": -8.32071, "timestamp": "2025-05-03T03:12:40.658296+00:00Z", "free_bikes": 1, "empty_slots": 5, "extra": {"address": "Estr. do Dep\u00f3sito", "city": "2250-382, Const\u00e2ncia"}}, {"id": "8a3b2abdbe1c24348bbfb4fa532e205e", "name": "BUE", "latitude": 39.46849, "longitude": -8.47798, "timestamp": "2025-05-03T03:12:43.127999+00:00Z", "free_bikes": 4, "empty_slots": 5, "extra": {"address": "R. Dr. Carlos Aya Vieira da Rocha", "city": "2330-084, Entroncamento"}}, {"id": "8b76b6261edcc889ddb401aad25c8511", "name": "Texugueiras", "latitude": 39.47369, "longitude": -8.47332, "timestamp": "2025-05-03T03:12:43.130774+00:00Z", "free_bikes": 1, "empty_slots": 8, "extra": {"address": "R. da Barroca", "city": "2330-148, Entroncamento"}}, {"id": "8bd3622f3d26eeb97d23589fe50b8b70", "name": "Rotunda dos Pastorinhos (Sul)", "latitude": 39.62526, "longitude": -8.6654, "timestamp": "2025-05-03T03:12:40.931979+00:00Z", "free_bikes": 2, "empty_slots": 4, "extra": {"address": "Rotunda dos Pastorinhos", "city": "2495-413, Our\u00e9m"}}, {"id": "8df5f18781672943d51edda5bed9a8b2", "name": "Parque de Feiras", "latitude": 39.67388, "longitude": -8.14497, "timestamp": "2025-05-03T03:12:42.198027+00:00Z", "free_bikes": 2, "empty_slots": 2, "extra": {"address": "Rua da Biblioteca", "city": "6110-244, Vila de Rei"}}, {"id": "8e5e8fff2fafa3dd7b300781028b7446", "name": "Alto das Nogueiras", "latitude": 39.63157, "longitude": -8.66459, "timestamp": "2025-05-03T03:12:40.949037+00:00Z", "free_bikes": 2, "empty_slots": 4, "extra": {"address": "R. do Alto das Nogueiras 88-110", "city": "2495-40, Our\u00e9m"}}, {"id": "903221841888d8c6e2a2af00cce94303", "name": "Biblioteca / Audit\u00f3rio", "latitude": 39.55334, "longitude": -7.99588, "timestamp": "2025-05-03T03:12:40.800617+00:00Z", "free_bikes": 2, "empty_slots": 4, "extra": {"address": "R. Sacadura Cabral 30", "city": "6120-753, Ma\u00e7\u00e3o"}}, {"id": "94c5d927684b87fe24098741af8cd0e7", "name": "Piscinas", "latitude": 39.48115, "longitude": -8.5388, "timestamp": "2025-05-03T03:12:42.795095+00:00Z", "free_bikes": 2, "empty_slots": 4, "extra": {"address": "Jardim das Rosas", "city": "2350-444, Torres Novas"}}, {"id": "9e1d2b7db90de272b0912c9e548b57d6", "name": "Junta de Freguesia/Ecovia", "latitude": 39.61633, "longitude": -8.65094, "timestamp": "2025-05-03T03:12:40.972929+00:00Z", "free_bikes": 1, "empty_slots": 2, "extra": {"address": "R. do Adro 300", "city": "2495-557, Our\u00e9m"}}, {"id": "a54a5fd00952b3ad1c3be0b72e0f43be", "name": "Largo do Munic\u00edpio", "latitude": 39.80905, "longitude": -8.09818, "timestamp": "2025-05-03T03:12:41.190425+00:00Z", "free_bikes": 3, "empty_slots": 3, "extra": {"address": "R. 5 de Outubro", "city": "6100-268, Sert\u00e3"}}, {"id": "a563adf4238f871ba225e4f8d968d891", "name": "BUE", "latitude": 39.46478, "longitude": -8.46881, "timestamp": "2025-05-03T03:12:42.866276+00:00Z", "free_bikes": 0, "empty_slots": 6, "extra": {"address": "Largo de Jos\u00e9 Duarte Coelho", "city": "2330-095, Entroncamento"}}, {"id": "b5def1b520e006490c079387f54de162", "name": "Parque da Ribeira da Vila", "latitude": 39.68019, "longitude": -8.14295, "timestamp": "2025-05-03T03:12:42.309686+00:00Z", "free_bikes": 0, "empty_slots": 8, "extra": {"address": "Av. Jos\u00e9 Cardoso Pires", "city": "6110-245, Vila de Rei"}}, {"id": "bb504dffbce87b521763e5201baacc4f", "name": "Zona Verde", "latitude": 39.45908, "longitude": -8.47378, "timestamp": "2025-05-03T03:12:43.187299+00:00Z", "free_bikes": 0, "empty_slots": 9, "extra": {"address": "Jardim Afonso Serr\u00e3o Lopes", "city": "2330-153, Entroncamento"}}, {"id": "c2427e454b25c9bd322975ec73712478", "name": "Central de Camionagem", "latitude": 39.69157, "longitude": -8.29182, "timestamp": "2025-05-03T03:12:40.693253+00:00Z", "free_bikes": 2, "empty_slots": 4, "extra": {"address": "R. Maria Vasques", "city": "2240-358, Ferreira do Z\u00eazere"}}, {"id": "c2df394b68ec3c7dfacffdf0a303d9c1", "name": "Escola Secund\u00e1ria", "latitude": 39.4618, "longitude": -8.66218, "timestamp": "2025-05-03T03:12:40.649480+00:00Z", "free_bikes": 2, "empty_slots": 7, "extra": {"address": "Av. Joaquim Maria Batista", "city": "2380-098, Alcanena"}}, {"id": "c4a303ac6883fd9e47dfe341cb89bac7", "name": "Rua Dr. Joaquim Francisco Alves", "latitude": 39.65676, "longitude": -8.58498, "timestamp": "2025-05-03T03:12:41.036205+00:00Z", "free_bikes": 2, "empty_slots": 1, "extra": {"address": "Rua Dr. Joaquim Francisco Alves", "city": "2490-579, Our\u00e9m"}}, {"id": "c4a88cf50151ecf205b553d4443c94b9", "name": "Campo de Futebol", "latitude": 39.69637, "longitude": -8.29513, "timestamp": "2025-05-03T03:12:42.845738+00:00Z", "free_bikes": 2, "empty_slots": 4, "extra": {"address": "R. Eduardo Mota", "city": "2240-005, Ferreira do Z\u00eazere"}}, {"id": "ca997222e560fb2e354c10ce909febc1", "name": "Jardim Dr. Luis Soares", "latitude": 39.48197, "longitude": -8.29474, "timestamp": "2025-05-03T03:12:40.657285+00:00Z", "free_bikes": 2, "empty_slots": 3, "extra": {"address": "R. Jos\u00e9 Silv\u00e9rio", "city": "2250-275, Const\u00e2ncia"}}, {"id": "ceb8e9c8482081a685bfad1212215cec", "name": "Escola Artur Gon\u00e7alves", "latitude": 39.473, "longitude": -8.54168, "timestamp": "2025-05-03T03:12:42.195348+00:00Z", "free_bikes": 1, "empty_slots": 7, "extra": {"address": "Rua do Babalhau", "city": "2350-536, Torres Novas"}}, {"id": "d27c5b486f1a157a4c9515497acdacb9", "name": "BUE", "latitude": 39.46435, "longitude": -8.47422, "timestamp": "2025-05-03T03:12:43.034268+00:00Z", "free_bikes": 2, "empty_slots": 4, "extra": {"address": "Rua Ferreira de Mesquita, 1-A", "city": "2330-152, Entroncamento"}}, {"id": "d33a392d5025596073415a864c7cd171", "name": "Vila Nova da Barquinha", "latitude": 39.47849, "longitude": -8.45027, "timestamp": "2025-05-03T03:12:42.433782+00:00Z", "free_bikes": 1, "empty_slots": 2, "extra": {"address": "Rua Mouzinho de Albuquerque", "city": "2260-037, Vila Nova da Barquinha"}}, {"id": "d366c44ad4b0807d1cc977ab37d3af16", "name": "Piscina Municipal", "latitude": 39.4821, "longitude": -8.33684, "timestamp": "2025-05-03T03:12:40.751352+00:00Z", "free_bikes": 0, "empty_slots": 6, "extra": {"address": "Rua do Moinho de Vento 3", "city": "2250-021, Const\u00e2ncia"}}, {"id": "dba7ecfe100cfd9e022d9825a0e8f34c", "name": "Mata dos Sete Montes", "latitude": 39.60093, "longitude": -8.41486, "timestamp": "2025-05-03T03:12:41.592527+00:00Z", "free_bikes": 0, "empty_slots": 6, "extra": {"address": "Largo 5 de Outubro", "city": "2300-588, Tomar"}}, {"id": "e5fb12ac10f8297c12da47ca1723e53a", "name": "Posto de Turismo / Centro Cultural", "latitude": 39.45789, "longitude": -8.43267, "timestamp": "2025-05-03T03:12:42.614346+00:00Z", "free_bikes": 3, "empty_slots": 2, "extra": {"address": "Largo do Primeiro de Dezembro 1-5", "city": "2260-432, Vila Nova da Barquinha"}}, {"id": "ea2562b5b38d214edbfaa9ffe425f901", "name": "Pra\u00e7a 5 de Outubro", "latitude": 39.47909, "longitude": -8.54005, "timestamp": "2025-05-03T03:12:42.024468+00:00Z", "free_bikes": 6, "empty_slots": 2, "extra": {"address": "Pra\u00e7a 5 de Outubro 30-19", "city": "2350-464, Torres Novas"}}, {"id": "ef908982f8a93088892022b591ba1cab", "name": "Sert\u00e3", "latitude": 39.8152, "longitude": -8.18858, "timestamp": "2025-05-03T03:12:41.168830+00:00Z", "free_bikes": 2, "empty_slots": 4, "extra": {"address": "R. dos Pinheiros 43", "city": "6100-266, Sert\u00e3"}}, {"id": "f32f9d08252328402188245337a8bc6c", "name": "Sert\u00e3", "latitude": 39.90236, "longitude": -8.13106, "timestamp": "2025-05-03T03:12:41.112768+00:00Z", "free_bikes": 1, "empty_slots": 5, "extra": {"address": "Rua do Mercado", "city": "6100-551, Sert\u00e3"}}, {"id": "f46fa22d5d589924eecbc08a314b0b89", "name": "Largo Cabral Moncada", "latitude": 39.47523, "longitude": -8.33985, "timestamp": "2025-05-03T03:12:40.655760+00:00Z", "free_bikes": 0, "empty_slots": 6, "extra": {"address": "R. Dom Jo\u00e3o", "city": "2250-051, Const\u00e2ncia"}}, {"id": "f693589e367df65e992fbd3dbde9fd39", "name": "Pra\u00e7a da Rep\u00fablica", "latitude": 39.65547, "longitude": -8.57794, "timestamp": "2025-05-03T03:12:41.110756+00:00Z", "free_bikes": 1, "empty_slots": 2, "extra": {"address": "Pra\u00e7a da Rep\u00fablica 20", "city": "2490-515, Our\u00e9m"}}, {"id": "fea31a5ba543004f5b872c447cf3dbde", "name": "Zona Desportiva", "latitude": 39.4572, "longitude": -8.66416, "timestamp": "2025-05-03T03:12:40.648250+00:00Z", "free_bikes": 4, "empty_slots": 5, "extra": {"address": "R. Bento de Jesus Cara\u00e7a", "city": "2380-074, Alcanena"}}, {"id": "feee9ce84a408e3851fe0047ee723f12", "name": "Esta\u00e7\u00e3o Rodovi\u00e1ria", "latitude": 39.59947, "longitude": -8.41263, "timestamp": "2025-05-03T03:12:41.420764+00:00Z", "free_bikes": 3, "empty_slots": 9, "extra": {"address": "Av. Combatentes da Grande Guerra", "city": "2300-533, Tomar"}}, {"id": "ff6a677498483993eeb620c4efaea49c", "name": "Complexo Desportivo", "latitude": 39.54896, "longitude": -8.00288, "timestamp": "2025-05-03T03:12:40.783157+00:00Z", "free_bikes": 1, "empty_slots": 9, "extra": {"address": "Rua do Marco", "city": "6120-790, Ma\u00e7\u00e3o"}}]}