{"id": "mvrad-hq", "name": "MV-Rad", "location": {"latitude": 53.6707, "longitude": 12.4255, "city": "MV-Rad", "country": "DE"}, "href": "/v2/networks/mvrad-hq", "company": ["Nextbike GmbH"], "system": "Nextbike", "stations": [{"id": "00922b924aa84b393f364e6374a5d486", "name": "Naturparkzentrum Stolpe bei Anklam 57143", "latitude": 53.873687, "longitude": 13.559441, "timestamp": "2025-05-03T03:12:46.232209+00:00Z", "free_bikes": 1, "empty_slots": 8, "extra": {"uid": "199134", "number": "57143", "slots": 9, "bike_uids": ["551009"], "virtual": false}}, {"id": "05b5c36027fb8899d6261ed3544f6580", "name": "57152 Hafen Altwarp", "latitude": 53.738283, "longitude": 14.270371, "timestamp": "2025-05-03T03:12:46.232787+00:00Z", "free_bikes": 3, "empty_slots": 7, "extra": {"uid": "448298966", "number": "57152", "slots": 10, "bike_uids": ["551194", "551278", "551277"], "virtual": false}}, {"id": "07e058bf7028d1339c4f4785049ad22e", "name": "Marina Kr\u00f6slin 57130", "latitude": 54.12153, "longitude": 13.753611, "timestamp": "2025-05-03T03:12:46.231984+00:00Z", "free_bikes": 6, "empty_slots": 4, "extra": {"uid": "128093", "number": "57130", "slots": 10, "bike_uids": ["55114", "55106", "55186", "55224", "55766", "56000"], "virtual": false}}, {"id": "0c567c16c7cdd0a708fa3e1fe838fb68", "name": "57187 Lockschuppen Pasewalk", "latitude": 53.517023, "longitude": 13.990971, "timestamp": "2025-05-03T03:12:46.232700+00:00Z", "free_bikes": 6, "empty_slots": 4, "extra": {"uid": "340786035", "number": "57187", "slots": 10, "bike_uids": ["551019", "551096", "551267", "551253", "551294", "551293"], "virtual": false}}, {"id": "0d1ff49b564b96f228233d1f00b144f1", "name": "DJH - Jugendherberge Binz 57103", "latitude": 54.403915, "longitude": 13.610334, "timestamp": "2025-05-03T03:12:46.232366+00:00Z", "free_bikes": 21, "empty_slots": 0, "extra": {"uid": "76245875", "number": "57103", "slots": 19, "bike_uids": ["56543", "56584", "56609", "56622", "551169", "551168", "551165", "551159", "551157", "551139", "551133", "551128", "551126", "551120", "551191", "551188", "551186", "551184", "551183", "551175", "551227"], "virtual": false}}, {"id": "10344ff378110dbdac9ba86c23b2a676", "name": "Carolinum Neustrelitz 57206", "latitude": 53.365051, "longitude": 13.070292, "timestamp": "2025-05-03T03:12:46.232979+00:00Z", "free_bikes": 7, "empty_slots": 5, "extra": {"uid": "522536154", "number": "57206", "slots": 12, "bike_uids": ["551298", "551297", "551295", "551309", "551305", "551304", "551303"], "virtual": false}}, {"id": "111fa335e260acbec3767e87d7730b7c", "name": "Postel Wolgast 57145", "latitude": 54.053024, "longitude": 13.774113, "timestamp": "2025-05-03T03:12:46.232251+00:00Z", "free_bikes": 4, "empty_slots": 3, "extra": {"uid": "272373", "number": "57145", "slots": 7, "bike_uids": ["551082", "551202", "551232", "551346"], "virtual": false}}, {"id": "13105a934323e3d492473641148c17e9", "name": "Waldcamp Freest 57142", "latitude": 54.139512, "longitude": 13.717461, "timestamp": "2025-05-03T03:12:46.232187+00:00Z", "free_bikes": 5, "empty_slots": 6, "extra": {"uid": "199130", "number": "57142", "slots": 11, "bike_uids": ["55208", "55289", "56522", "55786", "55817"], "virtual": false}}, {"id": "150c1f9a0ee09dba89f94bc62587c83e", "name": "57175 Biber Ferienhof/ Diemitz", "latitude": 53.20717, "longitude": 12.861434, "timestamp": "2025-05-03T03:12:46.232766+00:00Z", "free_bikes": 5, "empty_slots": 5, "extra": {"uid": "414200360", "number": "57175", "slots": 10, "bike_uids": ["551040", "551029", "551099", "551113", "551271"], "virtual": false}}, {"id": "34f24875ca2145f9906140b3cc8f2c74", "name": "DJH - Jugendherberge Sellin 57105 01", "latitude": 54.372459, "longitude": 13.70096, "timestamp": "2025-05-03T03:12:46.232393+00:00Z", "free_bikes": 18, "empty_slots": 3, "extra": {"uid": "76246101", "number": "57105", "slots": 21, "bike_uids": ["56597", "56588", "56626", "56641", "551017", "551016", "551013", "551012", "551010", "551007", "551167", "551163", "551141", "551138", "551134", "551124", "551193", "551180"], "virtual": false}}, {"id": "395834332f924d1864bcacb72375c904", "name": "Hauptbahnhof Wolgast 57131", "latitude": 54.044131, "longitude": 13.768578, "timestamp": "2025-05-03T03:12:46.232139+00:00Z", "free_bikes": 0, "empty_slots": 6, "extra": {"uid": "160710", "number": "57131", "slots": 6, "bike_uids": [], "virtual": false}}, {"id": "3e9eddd5479ca7e1e3cac80be2f914dd", "name": "DJH-Jugendherberge Warnem\u00fcnde 57119", "latitude": 54.175632, "longitude": 12.058179, "timestamp": "2025-05-03T03:12:46.232507+00:00Z", "free_bikes": 8, "empty_slots": 12, "extra": {"uid": "76289539", "number": "57119", "slots": 20, "bike_uids": ["551064", "551095", "551084", "551083", "551081", "551071", "551109", "551105"], "virtual": false}}, {"id": "45cce2e91740f4e89554ae01a5ed0a29", "name": "57232 Bahnhof Torgelow", "latitude": 53.634333, "longitude": 14.009049, "timestamp": "2025-05-03T03:12:46.232828+00:00Z", "free_bikes": 4, "empty_slots": 6, "extra": {"uid": "474397171", "number": "57232", "slots": 11, "bike_uids": ["551057", "551104", "551270", "551284"], "virtual": false}}, {"id": "46c88234b3212f328f46ad965cb6e404", "name": "Amt Mecklenburgische Kleinseenplatte 57160", "latitude": 53.278345, "longitude": 12.816058, "timestamp": "2025-05-03T03:12:46.232552+00:00Z", "free_bikes": 5, "empty_slots": 1, "extra": {"uid": "96809355", "number": "57160", "slots": 6, "bike_uids": ["551111", "551108", "551150", "551148", "551268"], "virtual": false}}, {"id": "48fd7804a4d5ca0592828c19348333a5", "name": "Seebr\u00fccke Seebad Lubmin 57137", "latitude": 54.137152, "longitude": 13.613144, "timestamp": "2025-05-03T03:12:46.232097+00:00Z", "free_bikes": 4, "empty_slots": 4, "extra": {"uid": "153216", "number": "57137", "slots": 8, "bike_uids": ["551320", "551327", "551325", "551347"], "virtual": false}}, {"id": "4db507cf06980240d478e286ad3fa746", "name": "Hotel Gutshaus Kajahn 57155", "latitude": 54.287387, "longitude": 13.216381, "timestamp": "2025-05-03T03:12:46.232573+00:00Z", "free_bikes": 6, "empty_slots": 2, "extra": {"uid": "99962532", "number": "57155", "slots": 8, "bike_uids": ["551164", "551161", "551160", "551135", "551121", "551178"], "virtual": false}}, {"id": "4e3f369b811750425f2733ae1e0b85ce", "name": "57236 Wasserwanderrastplatz Torgelow", "latitude": 53.631878, "longitude": 14.016023, "timestamp": "2025-05-03T03:12:46.232848+00:00Z", "free_bikes": 0, "empty_slots": 8, "extra": {"uid": "474397909", "number": "57236", "slots": 8, "bike_uids": [], "virtual": false}}, {"id": "4ee528705b77b052a9cbe6c53819f204", "name": "Bahnhof Anklam 57125", "latitude": 53.855675, "longitude": 13.701625, "timestamp": "2025-05-03T03:12:46.231859+00:00Z", "free_bikes": 5, "empty_slots": 3, "extra": {"uid": "66429", "number": "57125", "slots": 8, "bike_uids": ["551015", "551129", "551214", "551187", "551225"], "virtual": false}}, {"id": "58f1c41bb76a0a9752576449cbcb9b7e", "name": "Pension \"Zum Himmel\" Gro\u00df Ernsthof 57144", "latitude": 54.080157, "longitude": 13.74586, "timestamp": "2025-05-03T03:12:46.232230+00:00Z", "free_bikes": 4, "empty_slots": 4, "extra": {"uid": "199140", "number": "57144", "slots": 8, "bike_uids": ["55220", "55295", "55396", "551241"], "virtual": false}}, {"id": "5a70a5a9a9a6919d65de231c9ad68746", "name": "57081 Hafen Ueckerm\u00fcnde/ Reederei Peters", "latitude": 53.736693, "longitude": 14.050548, "timestamp": "2025-05-03T03:12:46.232744+00:00Z", "free_bikes": 4, "empty_slots": 3, "extra": {"uid": "414195423", "number": "57081", "slots": 8, "bike_uids": ["550025", "550235", "550172", "550300"], "virtual": false}}, {"id": "5d1ed20e84038b4824f8eddacfad59ec", "name": "Bahnhof Mirow 57161", "latitude": 53.270528, "longitude": 12.820653, "timestamp": "2025-05-03T03:12:46.232157+00:00Z", "free_bikes": 7, "empty_slots": 5, "extra": {"uid": "199129", "number": "57161", "slots": 12, "bike_uids": ["552807", "551038", "551078", "551119", "551116", "551269", "551252"], "virtual": false}}, {"id": "5fd82a3c47eb6821351aee030eefe1d7", "name": "Hotel Anklamer Hof  57150", "latitude": 53.855109, "longitude": 13.690263, "timestamp": "2025-05-03T03:12:46.232312+00:00Z", "free_bikes": 16, "empty_slots": 0, "extra": {"uid": "31395158", "number": "57150", "slots": 10, "bike_uids": ["55540", "56631", "56632", "55562", "55566", "55578", "56010", "56047", "56065", "56063", "56060", "56110", "56112", "552804", "551023", "551132"], "virtual": false}}, {"id": "60a57d15b2002b7aaa748e8e22ffefb0", "name": "Tourismus Information Ueckerm\u00fcnde 57132", "latitude": 53.735804, "longitude": 14.049103, "timestamp": "2025-05-03T03:12:46.232008+00:00Z", "free_bikes": 11, "empty_slots": 0, "extra": {"uid": "139977", "number": "57132", "slots": 10, "bike_uids": ["56628", "56638", "552803", "551031", "551201", "551199", "551198", "551221", "551279", "551276", "551275"], "virtual": false}}, {"id": "638d9050ba45806ea60683e550a6a2fe", "name": "Kurverwaltung Seebad Lubmin 57139", "latitude": 54.133252, "longitude": 13.615091, "timestamp": "2025-05-03T03:12:46.232074+00:00Z", "free_bikes": 15, "empty_slots": 5, "extra": {"uid": "153213", "number": "57139", "slots": 20, "bike_uids": ["56570", "56563", "56600", "56593", "551047", "551000", "551053", "551088", "551254", "551296", "551318", "551313", "551306", "551322", "551321"], "virtual": false}}, {"id": "63fcb2b13936537a74e622d0175f412e", "name": "DJH - Jugendherberge Waren 57115", "latitude": 53.504525, "longitude": 12.690787, "timestamp": "2025-05-03T03:12:46.232485+00:00Z", "free_bikes": 8, "empty_slots": 2, "extra": {"uid": "76289246", "number": "57115", "slots": 10, "bike_uids": ["551003", "551062", "551059", "551056", "551098", "551085", "551103", "551100"], "virtual": false}}, {"id": "64b5c7c6d7a74ef4fec5f78e957ec656", "name": "57190 Scheune Bollewick", "latitude": 53.35335, "longitude": 12.577661, "timestamp": "2025-05-03T03:12:46.232680+00:00Z", "free_bikes": 4, "empty_slots": 4, "extra": {"uid": "255731882", "number": "57190", "slots": 8, "bike_uids": ["551035", "551033", "551087", "551075"], "virtual": false}}, {"id": "726be4ce805bc730dff617fb569c63a7", "name": "57180 Tourismusinfo u. Rathaus Pasewalk", "latitude": 53.503488, "longitude": 13.988224, "timestamp": "2025-05-03T03:12:46.232594+00:00Z", "free_bikes": 6, "empty_slots": 2, "extra": {"uid": "255713801", "number": "57180", "slots": 8, "bike_uids": ["551034", "551027", "551026", "551025", "551097", "551197"], "virtual": false}}, {"id": "81b5b5ca95d2101bf5d71c5b88259616", "name": "57235 Heidebad Torgelow", "latitude": 53.63967, "longitude": 14.016715, "timestamp": "2025-05-03T03:12:46.232888+00:00Z", "free_bikes": 4, "empty_slots": 4, "extra": {"uid": "474717387", "number": "57235", "slots": 8, "bike_uids": ["551045", "551250", "551283", "551282"], "virtual": false}}, {"id": "830df51edac60d477967dc06467d109f", "name": "DJH - Jugendherberge Stralsund 57109 01", "latitude": 54.267684, "longitude": 13.143176, "timestamp": "2025-05-03T03:12:46.232419+00:00Z", "free_bikes": 7, "empty_slots": 2, "extra": {"uid": "76246285", "number": "57109", "slots": 10, "bike_uids": ["551158", "551155", "551154", "551153", "551152", "551145", "551185"], "virtual": false}}, {"id": "83550572daf7ce76c1e1b78989a891a2", "name": "DJH Jugendherberge Wismar 57121  01", "latitude": 53.889226, "longitude": 11.438554, "timestamp": "2025-05-03T03:12:46.232529+00:00Z", "free_bikes": 10, "empty_slots": 1, "extra": {"uid": "76289676", "number": "57121", "slots": 11, "bike_uids": ["551004", "551069", "551067", "551086", "551072", "551070", "551115", "551114", "551110", "551106"], "virtual": false}}, {"id": "8abf660871c1fd69a4e6078b91c37234", "name": "DJH - Jugendherberge Prora 57101", "latitude": 54.451273, "longitude": 13.569113, "timestamp": "2025-05-03T03:12:46.232338+00:00Z", "free_bikes": 21, "empty_slots": 50, "extra": {"uid": "76245743", "number": "57101", "slots": 71, "bike_uids": ["56568", "56550", "56598", "56579", "56576", "56610", "56623", "56627", "552805", "551014", "551008", "551006", "551166", "551144", "551142", "551140", "551130", "551179", "551177", "551176", "551173"], "virtual": false}}, {"id": "94562c54926305b098229fe3b437d895", "name": "Naturcamping Lassan 57127", "latitude": 53.947513, "longitude": 13.857255, "timestamp": "2025-05-03T03:12:46.231933+00:00Z", "free_bikes": 9, "empty_slots": 0, "extra": {"uid": "66431", "number": "57127", "slots": 6, "bike_uids": ["55170", "55135", "55131", "56562", "56580", "55232", "56517", "55344", "55754"], "virtual": false}}, {"id": "98133b5e0a40c26222206ab2be4ab4b3", "name": "57184 An der K\u00fcrassierkaserne Pasewalk", "latitude": 53.49851, "longitude": 13.99044, "timestamp": "2025-05-03T03:12:46.232616+00:00Z", "free_bikes": 1, "empty_slots": 7, "extra": {"uid": "255713854", "number": "57184", "slots": 8, "bike_uids": ["551290"], "virtual": false}}, {"id": "9e284df5124da57215efd9dbd23064ee", "name": "Marina Seebad Lubmin 57138", "latitude": 54.150887, "longitude": 13.64826, "timestamp": "2025-05-03T03:12:46.232117+00:00Z", "free_bikes": 3, "empty_slots": 7, "extra": {"uid": "153220", "number": "57138", "slots": 10, "bike_uids": ["551316", "551340", "551331"], "virtual": false}}, {"id": "a2e59eb0203efe01ad40f741dea3fe61", "name": "Alte Schnitterkate Lassan 57136", "latitude": 53.949844, "longitude": 13.846615, "timestamp": "2025-05-03T03:12:46.232292+00:00Z", "free_bikes": 6, "empty_slots": 4, "extra": {"uid": "417339", "number": "57136", "slots": 10, "bike_uids": ["551324", "551352", "551351", "551348", "551345", "551344"], "virtual": false}}, {"id": "a632020ca1b82cc5f489cb850df08ae4", "name": "Haffbad Ueckerm\u00fcnde 57133", "latitude": 53.748064, "longitude": 14.071598, "timestamp": "2025-05-03T03:12:46.232033+00:00Z", "free_bikes": 1, "empty_slots": 3, "extra": {"uid": "139983", "number": "57133", "slots": 4, "bike_uids": ["551218"], "virtual": false}}, {"id": "a96639e8c91448116c042409c1b5bf13", "name": "57182 Hauptbahnhof Pasewalk", "latitude": 53.514682, "longitude": 13.989319, "timestamp": "2025-05-03T03:12:46.232638+00:00Z", "free_bikes": 8, "empty_slots": 0, "extra": {"uid": "255713882", "number": "57182", "slots": 8, "bike_uids": ["551043", "551066", "551090", "551076", "551112", "551255", "551245", "551291"], "virtual": false}}, {"id": "b85c59dd64ca988a76da6160fbbd2410", "name": "57165 Bildungs und Erlebnishaus/ Fleeth", "latitude": 53.214668, "longitude": 12.851665, "timestamp": "2025-05-03T03:12:46.232659+00:00Z", "free_bikes": 5, "empty_slots": 7, "extra": {"uid": "255727865", "number": "57165", "slots": 12, "bike_uids": ["551049", "551041", "551080", "551149", "551147"], "virtual": false}}, {"id": "bd2924756956a90d441a570c85bcd449", "name": "DJH - Jugendherberge Mirow 57113", "latitude": 53.289998, "longitude": 12.795183, "timestamp": "2025-05-03T03:12:46.232461+00:00Z", "free_bikes": 11, "empty_slots": 1, "extra": {"uid": "76289121", "number": "57113", "slots": 12, "bike_uids": ["56630", "56650", "551042", "551037", "551018", "551061", "551051", "551102", "551146", "551273", "551272"], "virtual": false}}, {"id": "bef539cdfafe39588a3cbdfc3260efd0", "name": "Rathaus Anklam 57126", "latitude": 53.856197, "longitude": 13.688149, "timestamp": "2025-05-03T03:12:46.231903+00:00Z", "free_bikes": 5, "empty_slots": 2, "extra": {"uid": "66430", "number": "57126", "slots": 7, "bike_uids": ["550249", "550182", "550139", "550118", "551032"], "virtual": false}}, {"id": "c002b38d6ea5c9c15d187276af1446c7", "name": "Rungeplatz Wolgast 57135", "latitude": 54.053241, "longitude": 13.780718, "timestamp": "2025-05-03T03:12:46.232272+00:00Z", "free_bikes": 7, "empty_slots": 1, "extra": {"uid": "350543", "number": "57135", "slots": 8, "bike_uids": ["55218", "551022", "551060", "551092", "551239", "551299", "551308"], "virtual": false}}, {"id": "cab295d40419a51ea0c5b1e21ca7f028", "name": "57154 Seebad Altef\u00e4hr/ R\u00fcgen", "latitude": 54.329535, "longitude": 13.122944, "timestamp": "2025-05-03T03:12:46.232722+00:00Z", "free_bikes": 4, "empty_slots": 6, "extra": {"uid": "393842949", "number": "57154", "slots": 10, "bike_uids": ["551162", "551137", "551136", "551181"], "virtual": false}}, {"id": "cbbb1cfc3853196aca13bf745f1b5408", "name": "Hotel Ostseel\u00e4nder Z\u00fcssow 57141", "latitude": 53.97987, "longitude": 13.553034, "timestamp": "2025-05-03T03:12:46.232054+00:00Z", "free_bikes": 1, "empty_slots": 5, "extra": {"uid": "153092", "number": "57141", "slots": 6, "bike_uids": ["551151"], "virtual": false}}, {"id": "ccbeb69463eb632fbc290afaecb5b843", "name": "57234 Jugendherberge Torgelow", "latitude": 53.629009, "longitude": 14.013436, "timestamp": "2025-05-03T03:12:46.232865+00:00Z", "free_bikes": 4, "empty_slots": 11, "extra": {"uid": "474401109", "number": "57234", "slots": 15, "bike_uids": ["551266", "551274", "551292", "551289"], "virtual": false}}, {"id": "ce2f31dfc2a9da81960f4fdd2b518533", "name": "57238 Rathaus Eggesin", "latitude": 53.681996, "longitude": 14.078534, "timestamp": "2025-05-03T03:12:46.232923+00:00Z", "free_bikes": 5, "empty_slots": 3, "extra": {"uid": "500773929", "number": "57238", "slots": 8, "bike_uids": ["551036", "551052", "551079", "551311", "551310"], "virtual": false}}, {"id": "e1d5afa28f432c43ac0d49a072c01f51", "name": "Campus Carolinum Babke 57221", "latitude": 53.358998, "longitude": 12.891362, "timestamp": "2025-05-03T03:12:46.233004+00:00Z", "free_bikes": 3, "empty_slots": 3, "extra": {"uid": "522538972", "number": "57221", "slots": 6, "bike_uids": ["551317", "551329", "551328"], "virtual": false}}, {"id": "e78661ba9cc03d3184d9d95bd86bac48", "name": "Hotel Leuchtfeuer Freest 57129", "latitude": 54.133235, "longitude": 13.732499, "timestamp": "2025-05-03T03:12:46.231959+00:00Z", "free_bikes": 8, "empty_slots": 2, "extra": {"uid": "128091", "number": "57129", "slots": 10, "bike_uids": ["55158", "56586", "55276", "56651", "55800", "56095", "56106", "56098"], "virtual": false}}, {"id": "ee5d907c0661525c21cf48d57120dff0", "name": "DJH - Jugendherberge Burg Stargard 57111", "latitude": 53.494754, "longitude": 13.320059, "timestamp": "2025-05-03T03:12:46.232441+00:00Z", "free_bikes": 4, "empty_slots": 6, "extra": {"uid": "76289016", "number": "57111", "slots": 10, "bike_uids": ["551048", "551039", "551028", "551050"], "virtual": false}}, {"id": "f2455fc3a4fb3358392c456a7c679b3b", "name": "57153 Bahnhof Eggesin", "latitude": 53.681427, "longitude": 14.071802, "timestamp": "2025-05-03T03:12:46.232953+00:00Z", "free_bikes": 5, "empty_slots": 5, "extra": {"uid": "500775367", "number": "57153", "slots": 10, "bike_uids": ["551229", "551246", "551315", "551314", "551312"], "virtual": false}}, {"id": "fbb0442cc083bdf532deab169bf63634", "name": "57233 Friedrich von Schill- Kaserne Spechtberg Torgelow", "latitude": 53.643239, "longitude": 14.044572, "timestamp": "2025-05-03T03:12:46.232807+00:00Z", "free_bikes": 8, "empty_slots": 4, "extra": {"uid": "474395971", "number": "57233", "slots": 12, "bike_uids": ["551063", "551073", "551264", "551288", "551287", "551286", "551285", "551281"], "virtual": false}}]}