{"id": "nextbike-koprivnice", "name": "nextbike Kop\u0159ivnice", "location": {"latitude": 49.5934, "longitude": 18.1422, "city": "Kop\u0159ivnice", "country": "CZ"}, "href": "/v2/networks/nextbike-koprivnice", "company": ["Nextbike GmbH"], "system": "Nextbike", "stations": [{"id": "0087b95abf2db0060ec4af9ef123a90b", "name": "Koupali\u0161t\u011b Kop\u0159ivnice", "latitude": 49.5874, "longitude": 18.15421, "timestamp": "2025-02-03T11:21:28.278247Z", "free_bikes": 0, "empty_slots": null, "extra": {"uid": "386105395", "number": "46440", "bike_uids": [""]}}, {"id": "0b5f77c0e669c725df882276a6ad3802", "name": "Star\u00fd h\u0159bitov", "latitude": 49.59047, "longitude": 18.1404, "timestamp": "2025-02-03T11:21:28.278216Z", "free_bikes": 0, "empty_slots": null, "extra": {"uid": "386104568", "number": "46437", "bike_uids": [""]}}, {"id": "0fe1f855fb9c3e65aa7c3d26dcaa2a35", "name": "\u0160trambersk\u00e1", "latitude": 49.58857, "longitude": 18.14059, "timestamp": "2025-02-03T11:21:28.278112Z", "free_bikes": 0, "empty_slots": null, "extra": {"uid": "386099717", "number": "46425", "bike_uids": [""]}}, {"id": "2fe25078f8644e3d5df2c70873703100", "name": "V\u011bt\u0159kovick\u00e1 p\u0159ehrada", "latitude": 49.61698, "longitude": 18.18663, "timestamp": "2025-02-03T11:21:28.278237Z", "free_bikes": 0, "empty_slots": null, "extra": {"uid": "386105155", "number": "46439", "bike_uids": [""]}}, {"id": "30503981711b595415cb671c3a3d8c84", "name": "Centrum P\u011btka", "latitude": 49.60475, "longitude": 18.14428, "timestamp": "2025-02-03T11:21:28.278194Z", "free_bikes": 0, "empty_slots": null, "extra": {"uid": "386104120", "number": "46435", "bike_uids": [""]}}, {"id": "32e544670d8da96d2a781095438610c7", "name": "Lubina, to\u010dna", "latitude": 49.61315, "longitude": 18.16076, "timestamp": "2025-02-03T11:21:28.278299Z", "free_bikes": 0, "empty_slots": null, "extra": {"uid": "435685377", "number": "46432", "bike_uids": [""]}}, {"id": "3f056c6a3e0e72110632ed00e6e65134", "name": "Masarykovo n\u00e1m\u011bst\u00ed Kop\u0159ivnice", "latitude": 49.59353, "longitude": 18.14409, "timestamp": "2025-02-03T11:21:28.278289Z", "free_bikes": 0, "empty_slots": null, "extra": {"uid": "397271080", "number": "46419", "bike_uids": [""]}}, {"id": "41bf23ca49db747f5640bf6a6ec917b7", "name": "Horn\u00ed", "latitude": 49.58637, "longitude": 18.13668, "timestamp": "2025-02-03T11:21:28.278279Z", "free_bikes": 0, "empty_slots": null, "extra": {"uid": "389609219", "number": "46443", "bike_uids": [""]}}, {"id": "42fdb8ce133ee3d8c5e41f93fbe0c531", "name": "\u0160tef\u00e1nikova, poliklinika", "latitude": 49.59601, "longitude": 18.1456, "timestamp": "2025-02-03T11:21:28.277747Z", "free_bikes": 0, "empty_slots": null, "extra": {"uid": "386096381", "number": "46413", "bike_uids": [""]}}, {"id": "43b6f0dc06a8901a8bd8ec2434735286", "name": "M\u011bstsk\u00fd \u00fa\u0159ad Kop\u0159ivnice", "latitude": 49.59788, "longitude": 18.14682, "timestamp": "2025-02-03T11:21:28.278000Z", "free_bikes": 0, "empty_slots": null, "extra": {"uid": "386097208", "number": "46415", "bike_uids": [""]}}, {"id": "496bef13d34409be6e162c5bbf0f2a60", "name": "Hala h\u00e1zen\u00e9", "latitude": 49.59861, "longitude": 18.13835, "timestamp": "2025-02-03T11:21:28.278057Z", "free_bikes": 0, "empty_slots": null, "extra": {"uid": "386098445", "number": "46420", "bike_uids": [""]}}, {"id": "4dda2abfb5918cb037c0b24fa5fa5dd6", "name": "Katolick\u00fd d\u016fm, Lubina", "latitude": 49.61771, "longitude": 18.17027, "timestamp": "2025-02-03T11:21:28.278184Z", "free_bikes": 0, "empty_slots": null, "extra": {"uid": "386103940", "number": "46434", "bike_uids": [""]}}, {"id": "5ce8cdb8534e8d9580c8541319f83554", "name": "Kulturn\u00ed d\u016fm, Mni\u0161\u00ed", "latitude": 49.6001, "longitude": 18.20069, "timestamp": "2025-02-03T11:21:28.278204Z", "free_bikes": 0, "empty_slots": null, "extra": {"uid": "386104318", "number": "46436", "bike_uids": [""]}}, {"id": "66fe954db57562ae15b192574dccf31e", "name": "Intern\u00e1t S\u0160 a VO\u0160", "latitude": 49.58579, "longitude": 18.15115, "timestamp": "2025-02-03T11:21:28.278133Z", "free_bikes": 0, "empty_slots": null, "extra": {"uid": "386101368", "number": "46428", "bike_uids": [""]}}, {"id": "6c0459a50d0327012516aba1456576be", "name": "Technick\u00e9 muzeum osobn\u00edch aut", "latitude": 49.59919, "longitude": 18.14377, "timestamp": "2025-02-03T11:21:28.278046Z", "free_bikes": 0, "empty_slots": null, "extra": {"uid": "386098072", "number": "46418", "bike_uids": [""]}}, {"id": "72e1afce35da3b5a5660e994c6c535c1", "name": "Kulturn\u00ed d\u016fm Vl\u010dovice", "latitude": 49.59569, "longitude": 18.18903, "timestamp": "2025-02-03T11:21:28.278174Z", "free_bikes": 0, "empty_slots": null, "extra": {"uid": "386103412", "number": "46433", "bike_uids": [""]}}, {"id": "7a500f852bcb7b43931361d531d30288", "name": "Prodejna Severka, s\u00eddli\u0161t\u011b Sever", "latitude": 49.60568, "longitude": 18.14217, "timestamp": "2025-02-03T11:21:28.278078Z", "free_bikes": 0, "empty_slots": null, "extra": {"uid": "386098975", "number": "46422", "bike_uids": [""]}}, {"id": "7c63ac9198b1411049ea082447cd1ef4", "name": "Francouzsk\u00e1", "latitude": 49.603125, "longitude": 18.142588, "timestamp": "2025-02-03T11:21:28.278227Z", "free_bikes": 0, "empty_slots": null, "extra": {"uid": "386104795", "number": "46438", "bike_uids": [""]}}, {"id": "8164683bb5c5d371d4451a47aafc30e4", "name": "Kav\u00e1rna, ul. \u0160koln\u00ed", "latitude": 49.6012, "longitude": 18.13976, "timestamp": "2025-02-03T11:21:28.278090Z", "free_bikes": 0, "empty_slots": null, "extra": {"uid": "386099191", "number": "46423", "bike_uids": [""]}}, {"id": "903b410a73c48688f7c99ab7be9e5b06", "name": "Technick\u00e9 muzeum n\u00e1kladn\u00edch vozidel", "latitude": 49.59411, "longitude": 18.14761, "timestamp": "2025-02-03T11:21:28.278164Z", "free_bikes": 0, "empty_slots": null, "extra": {"uid": "386102994", "number": "46431", "bike_uids": [""]}}, {"id": "9ad2760dac41c3b6a4d35f4e3efe26f1", "name": "Pr\u016fmyslov\u00fd park, DURA", "latitude": 49.60149, "longitude": 18.16952, "timestamp": "2025-02-03T11:21:28.278123Z", "free_bikes": 0, "empty_slots": null, "extra": {"uid": "386101100", "number": "46427", "bike_uids": [""]}}, {"id": "a17e354577b3a4a33a373e2d550c7e26", "name": "Pansk\u00e1, Tatra", "latitude": 49.60483, "longitude": 18.15706, "timestamp": "2025-02-03T11:21:28.278309Z", "free_bikes": 0, "empty_slots": null, "extra": {"uid": "451963618", "number": "46444", "bike_uids": [""]}}, {"id": "a4f0a474b29d9db9b7b5da7d781bb38e", "name": "Autobusov\u00e9 n\u00e1dra\u017e\u00ed Kop\u0159ivnice", "latitude": 49.60379, "longitude": 18.14864, "timestamp": "2025-02-03T11:21:28.277720Z", "free_bikes": 0, "empty_slots": null, "extra": {"uid": "386095898", "number": "46414", "bike_uids": [""]}}, {"id": "af7248b064f9bc13cc75fe15c75a3927", "name": "Pod B\u00edlou horou", "latitude": 49.60183, "longitude": 18.13332, "timestamp": "2025-02-03T11:21:28.278143Z", "free_bikes": 0, "empty_slots": null, "extra": {"uid": "386101567", "number": "46430", "bike_uids": [""]}}, {"id": "b3f6ebbda2d87684c7db80384c222b5a", "name": "\u0160tramberk, vlakov\u00e9 n\u00e1dra\u017e\u00ed", "latitude": 49.5834, "longitude": 18.13239, "timestamp": "2025-02-03T11:21:28.278320Z", "free_bikes": 0, "empty_slots": null, "extra": {"uid": "474729486", "number": "46426", "bike_uids": [""]}}, {"id": "ba94ce870fdc409a9c688ddaed5a785c", "name": "D\u016fm d\u011bt\u00ed a ml\u00e1de\u017ee, kpt. Jaro\u0161e", "latitude": 49.59751, "longitude": 18.14433, "timestamp": "2025-02-03T11:21:28.278101Z", "free_bikes": 0, "empty_slots": null, "extra": {"uid": "386099549", "number": "46424", "bike_uids": [""]}}, {"id": "bbfce3499d3335db666a67a4b6b4542a", "name": "Husova/Pod stadi\u00f3nem", "latitude": 49.58991, "longitude": 18.15206, "timestamp": "2025-02-03T11:21:28.278035Z", "free_bikes": 0, "empty_slots": null, "extra": {"uid": "386097894", "number": "46417", "bike_uids": [""]}}, {"id": "c39d95d592052536aa34e4a724cfa40a", "name": "Hru\u0161ka, Husova", "latitude": 49.59549, "longitude": 18.14119, "timestamp": "2025-02-03T11:21:28.278021Z", "free_bikes": 0, "empty_slots": null, "extra": {"uid": "386097555", "number": "46416", "bike_uids": [""]}}, {"id": "d4fc7ce2beff5e518551625b2b5aacf6", "name": "Javorov\u00e1, Kauflandie", "latitude": 49.603244, "longitude": 18.137039, "timestamp": "2025-02-03T11:21:28.278154Z", "free_bikes": 0, "empty_slots": null, "extra": {"uid": "386102001", "number": "46429", "bike_uids": [""]}}, {"id": "d65416a337b25062d42c35b2dfcac524", "name": "Z\u0160 Al\u0161ova", "latitude": 49.58871, "longitude": 18.13884, "timestamp": "2025-02-03T11:21:28.278268Z", "free_bikes": 0, "empty_slots": null, "extra": {"uid": "386106666", "number": "46442", "bike_uids": [""]}}, {"id": "efda17b65da46d1b1ff96ffc671bd0e1", "name": "\u0160trambersk\u00e1/Husova", "latitude": 49.59463, "longitude": 18.14453, "timestamp": "2025-02-03T11:21:28.278258Z", "free_bikes": 0, "empty_slots": null, "extra": {"uid": "386106474", "number": "46441", "bike_uids": [""]}}, {"id": "f6269bc44d3b9ce845487a2f48886625", "name": "St\u0159edn\u00ed \u0161koly", "latitude": 49.59169, "longitude": 18.15133, "timestamp": "2025-02-03T11:21:28.278068Z", "free_bikes": 0, "empty_slots": null, "extra": {"uid": "386098657", "number": "46421", "bike_uids": [""]}}]}