{"id": "nextbike-zlin", "name": "nextbike Zl\u00edn", "location": {"latitude": 49.238, "longitude": 17.6788, "city": "Zl\u00edn", "country": "CZ"}, "href": "/v2/networks/nextbike-zlin", "company": ["Nextbike GmbH"], "system": "Nextbike", "stations": [{"id": "01ca3a612426b001baf3d5719e967282", "name": "P\u0159\u00edm\u00e1 - Albert", "latitude": 49.220224, "longitude": 17.641436, "timestamp": "2025-05-03T03:15:40.075089+00:00Z", "free_bikes": 0, "empty_slots": null, "extra": {"uid": "43155429", "number": "48614", "bike_uids": [], "virtual": false}}, {"id": "04a1b4ab961de41aa1988f69c99c1e6d", "name": "N\u00e1m\u011bst\u00ed m\u00edru - sever", "latitude": 49.226861, "longitude": 17.667266, "timestamp": "2025-05-03T03:15:40.076622+00:00Z", "free_bikes": 0, "empty_slots": null, "extra": {"uid": "164810870", "number": "48688", "bike_uids": [], "virtual": false}}, {"id": "072e744f257212f01712ef4322b4fa60", "name": "Kv\u00edtkov\u00e1-Tesco", "latitude": 49.226709, "longitude": 17.670114, "timestamp": "2025-05-03T03:15:40.076504+00:00Z", "free_bikes": 11, "empty_slots": null, "extra": {"uid": "126456992", "number": "48681", "bike_uids": ["489374", "489804", "489785", "489753", "489747", "489729", "489718", "489696", "489692", "489684", "489665"], "virtual": false}}, {"id": "0ac488a33129fbd67530f0dc3032140e", "name": "Kongresov\u00e9 centrum - do\u010dasn\u00e9", "latitude": 49.222597, "longitude": 17.664507, "timestamp": "2025-05-03T03:15:40.076221+00:00Z", "free_bikes": 0, "empty_slots": null, "extra": {"uid": "54406090", "number": "48670", "bike_uids": [], "virtual": false}}, {"id": "16d0da32e4e0a2d81d2bcf2996e06e29", "name": "Vodn\u00ed x Dlouh\u00e1", "latitude": 49.228661, "longitude": 17.669224, "timestamp": "2025-05-03T03:15:40.076802+00:00Z", "free_bikes": 4, "empty_slots": null, "extra": {"uid": "213169551", "number": "48700", "bike_uids": ["489390", "489808", "489765", "489741"], "virtual": false}}, {"id": "1900c8a8f6b86341438e861088d0f100", "name": "U12 - UTB", "latitude": 49.220226, "longitude": 17.666432, "timestamp": "2025-05-03T03:15:40.076107+00:00Z", "free_bikes": 0, "empty_slots": null, "extra": {"uid": "49538865", "number": "48663", "bike_uids": [], "virtual": false}}, {"id": "1a6f4d6814bc38521afbb4d5d05c1356", "name": "H\u0159i\u0161t\u011b Malenovice", "latitude": 49.208892, "longitude": 17.6054, "timestamp": "2025-05-03T03:15:40.076178+00:00Z", "free_bikes": 0, "empty_slots": null, "extra": {"uid": "50040695", "number": "48666", "bike_uids": [], "virtual": false}}, {"id": "1d5417dc4ad14fff62f897bd826b6815", "name": "U6 - UTB", "latitude": 49.22104, "longitude": 17.65254, "timestamp": "2025-05-03T03:15:40.076043+00:00Z", "free_bikes": 0, "empty_slots": null, "extra": {"uid": "49538714", "number": "48660", "bike_uids": [], "virtual": false}}, {"id": "1eb16cf82b17f3c020e365526427efbc", "name": "OD Zl\u00edn", "latitude": 49.222543, "longitude": 17.662725, "timestamp": "2025-05-03T03:15:40.075477+00:00Z", "free_bikes": 0, "empty_slots": null, "extra": {"uid": "43156334", "number": "48642", "bike_uids": [], "virtual": false}}, {"id": "1f807941c7d464d6f1f660f06795c854", "name": "U Barcuch\u016f", "latitude": 49.237753, "longitude": 17.656975, "timestamp": "2025-05-03T03:15:40.076489+00:00Z", "free_bikes": 0, "empty_slots": null, "extra": {"uid": "126456337", "number": "48680", "bike_uids": [], "virtual": false}}, {"id": "22d4b5dc487006a75c753ba48ed2e5b8", "name": "Sportcentrum Malenovice", "latitude": 49.208051, "longitude": 17.594469, "timestamp": "2025-05-03T03:15:40.076159+00:00Z", "free_bikes": 0, "empty_slots": null, "extra": {"uid": "50040460", "number": "48665", "bike_uids": [], "virtual": false}}, {"id": "2711e0ba7dd7e89c31a5bcb776bbd9ff", "name": "L\u00e1zn\u011b Kostelec", "latitude": 49.253454, "longitude": 17.699162, "timestamp": "2025-05-03T03:15:40.075769+00:00Z", "free_bikes": 0, "empty_slots": null, "extra": {"uid": "48010610", "number": "48656", "bike_uids": [], "virtual": false}}, {"id": "2bdbf23710f8ab9b667611f254484a05", "name": "Zimn\u00ed stadion, bus", "latitude": 49.218385, "longitude": 17.660274, "timestamp": "2025-05-03T03:15:40.076325+00:00Z", "free_bikes": 0, "empty_slots": null, "extra": {"uid": "54744305", "number": "48671", "bike_uids": [], "virtual": false}}, {"id": "2d887730111ccf58cde5243526e49f43", "name": "U15 - UTB", "latitude": 49.224991, "longitude": 17.660307, "timestamp": "2025-05-03T03:15:40.075978+00:00Z", "free_bikes": 0, "empty_slots": null, "extra": {"uid": "49538440", "number": "48657", "bike_uids": [], "virtual": false}}, {"id": "35669ba11c02b3018067677897393d7e", "name": "Sportovn\u00ed - obchodn\u00ed z\u00f3na", "latitude": 49.233239, "longitude": 17.660219, "timestamp": "2025-05-03T03:15:40.075505+00:00Z", "free_bikes": 3, "empty_slots": null, "extra": {"uid": "43272609", "number": "48645", "bike_uids": ["489386", "489384", "489377"], "virtual": false}}, {"id": "37cfb2fab5a382c507dc465f10b2e04a", "name": "Katastr\u00e1ln\u00ed \u00fa\u0159ad", "latitude": 49.225596, "longitude": 17.681119, "timestamp": "2025-05-03T03:15:40.076912+00:00Z", "free_bikes": 1, "empty_slots": null, "extra": {"uid": "377933920", "number": "47368", "bike_uids": ["489763"], "virtual": false}}, {"id": "3cbdf8205eb4fed4c24a860ab2813d3e", "name": "St\u0159edn\u00ed zdravotnick\u00e1 \u0161kola", "latitude": 49.224481, "longitude": 17.702682, "timestamp": "2025-05-03T03:15:40.075407+00:00Z", "free_bikes": 1, "empty_slots": null, "extra": {"uid": "43156221", "number": "48637", "bike_uids": ["489767"], "virtual": false}}, {"id": "3fe1eddd90a2cfeefce120ef0ada3241", "name": "N\u00e1m\u011bst\u00ed m\u00edru - MHD", "latitude": 49.22573, "longitude": 17.664805, "timestamp": "2025-05-03T03:15:40.076589+00:00Z", "free_bikes": 0, "empty_slots": null, "extra": {"uid": "164781580", "number": "48686", "bike_uids": [], "virtual": false}}, {"id": "40891d8f72ee2661d23a489c547b08c6", "name": "Park Milady Hor\u00e1kov\u00e9", "latitude": 49.2214, "longitude": 17.655919, "timestamp": "2025-05-03T03:15:40.076635+00:00Z", "free_bikes": 1, "empty_slots": null, "extra": {"uid": "164813890", "number": "48689", "bike_uids": ["489681"], "virtual": false}}, {"id": "41367f5a7911c8ad39a378c85ded109a", "name": "T\u0159. Svobody", "latitude": 49.205249, "longitude": 17.584322, "timestamp": "2025-05-03T03:15:40.075027+00:00Z", "free_bikes": 7, "empty_slots": null, "extra": {"uid": "43155363", "number": "48611", "bike_uids": ["489788", "489778", "489754", "489748", "489734", "489713", "489691"], "virtual": false}}, {"id": "421e5e22137ae3e5e767228b80cb4047", "name": "Tyr\u0161ovo n\u00e1b\u0159e\u017e\u00ed", "latitude": 49.229782, "longitude": 17.666692, "timestamp": "2025-05-03T03:15:40.075357+00:00Z", "free_bikes": 0, "empty_slots": null, "extra": {"uid": "43156152", "number": "48634", "bike_uids": [], "virtual": false}}, {"id": "43317d0fd0f429eb659ab21f65d6855e", "name": "Louky - Lidl", "latitude": 49.213328, "longitude": 17.614782, "timestamp": "2025-05-03T03:15:40.076469+00:00Z", "free_bikes": 1, "empty_slots": null, "extra": {"uid": "126455873", "number": "48679", "bike_uids": ["489739"], "virtual": false}}, {"id": "43d1e72fd0266a97c168a8d1a01d2786", "name": "Gymn\u00e1zium Lesn\u00ed \u010dtvr\u0165", "latitude": 49.218332, "longitude": 17.692707, "timestamp": "2025-05-03T03:15:40.074872+00:00Z", "free_bikes": 0, "empty_slots": null, "extra": {"uid": "43155177", "number": "48604", "bike_uids": [], "virtual": false}}, {"id": "465fe50a16355fd66fb5461cfe89dead", "name": "Galaxie Zl\u00edn", "latitude": 49.242602, "longitude": 17.690389, "timestamp": "2025-05-03T03:15:40.076822+00:00Z", "free_bikes": 2, "empty_slots": null, "extra": {"uid": "217238312", "number": "48701", "bike_uids": ["489805", "489803"], "virtual": false}}, {"id": "472ada8d820f4699864d9eefdfae585c", "name": "Zborovsk\u00e1 - h\u0159i\u0161t\u011b", "latitude": 49.225783, "longitude": 17.701809, "timestamp": "2025-05-03T03:15:40.074926+00:00Z", "free_bikes": 2, "empty_slots": null, "extra": {"uid": "43155231", "number": "48606", "bike_uids": ["489737", "489733"], "virtual": false}}, {"id": "48e19b2a06a5ced9c5d1b469a5a6e316", "name": "Na Vyhl\u00eddce", "latitude": 49.218327, "longitude": 17.655613, "timestamp": "2025-05-03T03:15:40.077332+00:00Z", "free_bikes": 1, "empty_slots": 2, "extra": {"uid": "523992814", "number": "48705", "slots": 3, "bike_uids": ["489690"], "virtual": false}}, {"id": "4db13cf8b645ef971edc237aeb17eddb", "name": "T\u0159. Tom\u00e1\u0161e Bati - Archa", "latitude": 49.225546, "longitude": 17.667901, "timestamp": "2025-05-03T03:15:40.075185+00:00Z", "free_bikes": 0, "empty_slots": null, "extra": {"uid": "43155628", "number": "48621", "bike_uids": [], "virtual": false}}, {"id": "4e0a9e9efe2c5d10b1fe141bb6edb55f", "name": "L. V\u00e1chy - magistr\u00e1t", "latitude": 49.219352, "longitude": 17.64196, "timestamp": "2025-05-03T03:15:40.075068+00:00Z", "free_bikes": 4, "empty_slots": null, "extra": {"uid": "43155407", "number": "48613", "bike_uids": ["489806", "489794", "489789", "489725"], "virtual": false}}, {"id": "4f263725d4cc6f4d2a133b1185cbf6e4", "name": "T\u0159. Tom\u00e1\u0161e Bati - \u0160koln\u00ed", "latitude": 49.225573, "longitude": 17.666215, "timestamp": "2025-05-03T03:15:40.075200+00:00Z", "free_bikes": 0, "empty_slots": null, "extra": {"uid": "43155652", "number": "48622", "bike_uids": [], "virtual": false}}, {"id": "52a6ef9b2a2d3d016cd7aa2c8cd6b166", "name": "Tr\u00e1vn\u00edk - Ba\u0165\u016fv institut", "latitude": 49.225586, "longitude": 17.658596, "timestamp": "2025-05-03T03:15:40.075636+00:00Z", "free_bikes": 0, "empty_slots": null, "extra": {"uid": "44582140", "number": "48650", "bike_uids": [], "virtual": false}}, {"id": "52b10da37bc6fce9e09878c459611bcb", "name": "T\u0159. Svobody - h\u0159i\u0161t\u011b", "latitude": 49.205663, "longitude": 17.585144, "timestamp": "2025-05-03T03:15:40.075248+00:00Z", "free_bikes": 0, "empty_slots": null, "extra": {"uid": "43155891", "number": "48628", "bike_uids": [], "virtual": false}}, {"id": "53b4d63a0a535fc4ac0f550196c2f37d", "name": "Kostelec - h\u0159i\u0161t\u011b", "latitude": 49.255699, "longitude": 17.701045, "timestamp": "2025-05-03T03:15:40.075650+00:00Z", "free_bikes": 4, "empty_slots": null, "extra": {"uid": "44863728", "number": "48651", "bike_uids": ["489813", "489786", "489746", "489689"], "virtual": false}}, {"id": "560b2f40c815b2a331969f2c624275cd", "name": "Ba\u0165\u016fv institut", "latitude": 49.224724, "longitude": 17.659307, "timestamp": "2025-05-03T03:15:40.075214+00:00Z", "free_bikes": 0, "empty_slots": null, "extra": {"uid": "43155708", "number": "48624", "bike_uids": [], "virtual": false}}, {"id": "5ba17196c3138a2dc45722cf768ed935", "name": "N\u00e1m. M\u00edru - magistr\u00e1t", "latitude": 49.22663, "longitude": 17.666477, "timestamp": "2025-05-03T03:15:40.075171+00:00Z", "free_bikes": 0, "empty_slots": null, "extra": {"uid": "43155597", "number": "48620", "bike_uids": [], "virtual": false}}, {"id": "5c6df681e5f3860ba1502a2d15a2257b", "name": "Obeciny h\u0159i\u0161t\u011b", "latitude": 49.221905, "longitude": 17.703393, "timestamp": "2025-05-03T03:15:40.076528+00:00Z", "free_bikes": 2, "empty_slots": null, "extra": {"uid": "126457198", "number": "48682", "bike_uids": ["489385", "489380"], "virtual": false}}, {"id": "60bca7890b92e323c2f9aa217325f939", "name": "T\u0159. Tom\u00e1\u0161e Bati - \u00fa\u0159ad soc. spr\u00e1vy", "latitude": 49.222021, "longitude": 17.657075, "timestamp": "2025-05-03T03:15:40.075491+00:00Z", "free_bikes": 0, "empty_slots": null, "extra": {"uid": "43156362", "number": "48643", "bike_uids": [], "virtual": false}}, {"id": "6426ea1db7ff18330a11567457a89db5", "name": "P\u0159\u00edluky - pr\u016fmyslov\u00e1 z\u00f3na", "latitude": 49.222671, "longitude": 17.725144, "timestamp": "2025-05-03T03:15:40.076370+00:00Z", "free_bikes": 1, "empty_slots": null, "extra": {"uid": "69823007", "number": "48673", "bike_uids": ["489799"], "virtual": false}}, {"id": "648ba9ffc41062d97b58487584583b75", "name": "U2 - UTB (odpo\u010dinkov\u00e1 z\u00f3na)", "latitude": 49.22091, "longitude": 17.65819, "timestamp": "2025-05-03T03:15:40.076001+00:00Z", "free_bikes": 0, "empty_slots": 4, "extra": {"uid": "49538609", "number": "48658", "slots": 4, "bike_uids": [], "virtual": false}}, {"id": "654e1c6a99efa840ed61ee1e8e36f1dd", "name": "Slune\u010dnice", "latitude": 49.226195, "longitude": 17.684142, "timestamp": "2025-05-03T03:15:40.076343+00:00Z", "free_bikes": 6, "empty_slots": null, "extra": {"uid": "58788181", "number": "48672", "bike_uids": ["489796", "489793", "489791", "489685", "489680", "489673"], "virtual": false}}, {"id": "669822f183a41005177deb942f3acdd2", "name": "U5 - UTB", "latitude": 49.230922, "longitude": 17.657239, "timestamp": "2025-05-03T03:15:40.076123+00:00Z", "free_bikes": 1, "empty_slots": null, "extra": {"uid": "49538922", "number": "48664", "bike_uids": ["489372"], "virtual": false}}, {"id": "6c09b9c744302655e8eb7334b9d52b32", "name": "Mal\u00e1 sc\u00e9na", "latitude": 49.224834, "longitude": 17.680337, "timestamp": "2025-05-03T03:15:40.075579+00:00Z", "free_bikes": 3, "empty_slots": null, "extra": {"uid": "43272682", "number": "48647", "bike_uids": ["489777", "489776", "489667"], "virtual": false}}, {"id": "6f6fc0e7bdad9e9415984af7a8f1f176", "name": "OC Centro II", "latitude": 49.204083, "longitude": 17.569418, "timestamp": "2025-05-03T03:15:40.075012+00:00Z", "free_bikes": 0, "empty_slots": null, "extra": {"uid": "43155341", "number": "48610", "bike_uids": [], "virtual": false}}, {"id": "70048065a3bc7d002e18a3a8a5d08bae", "name": "Hotel Baltaci Atrium, Le\u0161et\u00edn", "latitude": 49.227808, "longitude": 17.673899, "timestamp": "2025-05-03T03:15:40.077276+00:00Z", "free_bikes": 1, "empty_slots": 2, "extra": {"uid": "417818257", "number": "47156", "slots": 3, "bike_uids": ["489758"], "virtual": false}}, {"id": "703e1d68081f15ee6cb64f5e02a61d96", "name": "OC Centro I", "latitude": 49.204232, "longitude": 17.57128, "timestamp": "2025-05-03T03:15:40.074997+00:00Z", "free_bikes": 0, "empty_slots": null, "extra": {"uid": "43155319", "number": "48609", "bike_uids": [], "virtual": false}}, {"id": "71b651e1b100a0b44997949d5127a20c", "name": "J. A. Bati - parkovi\u0161t\u011b", "latitude": 49.224187, "longitude": 17.661431, "timestamp": "2025-05-03T03:15:40.075142+00:00Z", "free_bikes": 0, "empty_slots": null, "extra": {"uid": "43155515", "number": "48617", "bike_uids": [], "virtual": false}}, {"id": "71ebe91878178a7be5ba7edfa0a58ee1", "name": "Park Komensk\u00e9ho", "latitude": 49.22456, "longitude": 17.665963, "timestamp": "2025-05-03T03:15:40.075278+00:00Z", "free_bikes": 0, "empty_slots": null, "extra": {"uid": "43155936", "number": "48630", "bike_uids": [], "virtual": false}}, {"id": "730115da788fa18d34221752b5b183e6", "name": "Ba\u0165\u016fv mrakodrap", "latitude": 49.223123, "longitude": 17.658023, "timestamp": "2025-05-03T03:15:40.076453+00:00Z", "free_bikes": 0, "empty_slots": null, "extra": {"uid": "98741594", "number": "48678", "bike_uids": [], "virtual": false}}, {"id": "7603c314ee246ef1dc5b770df4bac77b", "name": "N\u00e1m\u011bst\u00ed pr\u00e1ce - MHD", "latitude": 49.222984, "longitude": 17.661139, "timestamp": "2025-05-03T03:15:40.076560+00:00Z", "free_bikes": 0, "empty_slots": null, "extra": {"uid": "164779258", "number": "48684", "bike_uids": [], "virtual": false}}, {"id": "792a311b43d46d8e9a6972049ee57539", "name": "M\u011bstsk\u00e9 l\u00e1zn\u011b", "latitude": 49.221332, "longitude": 17.670385, "timestamp": "2025-05-03T03:15:40.075462+00:00Z", "free_bikes": 0, "empty_slots": null, "extra": {"uid": "43156309", "number": "48641", "bike_uids": [], "virtual": false}}, {"id": "7c3730df670035087d06bfd59fa7b576", "name": "Jir\u00e1skova/M. Al\u0161e", "latitude": 49.21522, "longitude": 17.63691, "timestamp": "2025-05-03T03:15:40.076946+00:00Z", "free_bikes": 0, "empty_slots": null, "extra": {"uid": "377936887", "number": "47370", "bike_uids": [], "virtual": false}}, {"id": "7d38ab5de57b4885cc1e37730b79a9bf", "name": "Mari\u00e1nsk\u00e9 n\u00e1m\u011bst\u00ed - po\u0161ta", "latitude": 49.261925, "longitude": 17.714459, "timestamp": "2025-05-03T03:15:40.075672+00:00Z", "free_bikes": 5, "empty_slots": null, "extra": {"uid": "44863775", "number": "48652", "bike_uids": ["489382", "489783", "489770", "489752", "489732"], "virtual": false}}, {"id": "82a7e182e01995b72f1d97c675586787", "name": "Sokolsk\u00e1 - hosp\u016fdka Art", "latitude": 49.231618, "longitude": 17.672174, "timestamp": "2025-05-03T03:15:40.076765+00:00Z", "free_bikes": 6, "empty_slots": null, "extra": {"uid": "203186558", "number": "48698", "bike_uids": ["489769", "489762", "489761", "489728", "489715", "489666"], "virtual": false}}, {"id": "842f1c1363747abf5c1d70c66ed9dd7c", "name": "N\u00e1b\u0159e\u017e\u00ed - Lidl", "latitude": 49.228163, "longitude": 17.654138, "timestamp": "2025-05-03T03:15:40.075335+00:00Z", "free_bikes": 1, "empty_slots": null, "extra": {"uid": "43156126", "number": "48633", "bike_uids": ["489720"], "virtual": false}}, {"id": "8476c34ce0ad7fa8307ffcadacf7c5d0", "name": "\u0160tef\u00e1nikova - potraviny", "latitude": 49.223563, "longitude": 17.694976, "timestamp": "2025-05-03T03:15:40.075526+00:00Z", "free_bikes": 3, "empty_slots": null, "extra": {"uid": "43272632", "number": "48646", "bike_uids": ["489775", "489766", "489670"], "virtual": false}}, {"id": "857f1a6a9e0e011d311a2913db18365d", "name": "Zl\u00ednsk\u00fd klub 204", "latitude": 49.225338, "longitude": 17.665722, "timestamp": "2025-05-03T03:15:40.075263+00:00Z", "free_bikes": 0, "empty_slots": null, "extra": {"uid": "43155906", "number": "48629", "bike_uids": [], "virtual": false}}, {"id": "87c602afe0d1e017872c542cfbb392d7", "name": "Zar\u00e1m\u00ed - \u00fa\u0159ad", "latitude": 49.227549, "longitude": 17.665054, "timestamp": "2025-05-03T03:15:40.074979+00:00Z", "free_bikes": 0, "empty_slots": null, "extra": {"uid": "43155288", "number": "48608", "bike_uids": [], "virtual": false}}, {"id": "88b5b0e64235b492a6045bcec707750b", "name": "Parkovi\u0161t\u011b P+R P\u0159\u00edluky", "latitude": 49.221476, "longitude": 17.716773, "timestamp": "2025-05-03T03:15:40.076899+00:00Z", "free_bikes": 0, "empty_slots": null, "extra": {"uid": "377932482", "number": "47367", "bike_uids": [], "virtual": false}}, {"id": "89a98592fe90e6c1950112e4725dc2dd", "name": "Zoo Le\u0161n\u00e1", "latitude": 49.27015, "longitude": 17.714936, "timestamp": "2025-05-03T03:15:40.075696+00:00Z", "free_bikes": 1, "empty_slots": null, "extra": {"uid": "44863831", "number": "48653", "bike_uids": ["489389"], "virtual": false}}, {"id": "8b94a17d04fdf710841de2a3bf0b90f2", "name": "Nemocnice", "latitude": 49.22879, "longitude": 17.693525, "timestamp": "2025-05-03T03:15:40.076547+00:00Z", "free_bikes": 0, "empty_slots": null, "extra": {"uid": "126457388", "number": "48683", "bike_uids": [], "virtual": false}}, {"id": "8fedcaf56ac20c0bec0a961da7101713", "name": "Lidl", "latitude": 49.225423, "longitude": 17.692618, "timestamp": "2025-05-03T03:15:40.074898+00:00Z", "free_bikes": 1, "empty_slots": null, "extra": {"uid": "43155203", "number": "48605", "bike_uids": ["489727"], "virtual": false}}, {"id": "913f4e68851ced7c68b2ef4b86a6282b", "name": "Tr\u017enice Pod Ka\u0161tany", "latitude": 49.224666, "longitude": 17.662926, "timestamp": "2025-05-03T03:15:40.076574+00:00Z", "free_bikes": 0, "empty_slots": null, "extra": {"uid": "164781188", "number": "48685", "bike_uids": [], "virtual": false}}, {"id": "91d2e1792fdc630e636c21d48603c73e", "name": "Ji\u017en\u00ed Svahy - d\u011btsk\u00e9 h\u0159i\u0161t\u011b", "latitude": 49.241776, "longitude": 17.674311, "timestamp": "2025-05-03T03:15:40.075741+00:00Z", "free_bikes": 1, "empty_slots": null, "extra": {"uid": "47687787", "number": "48655", "bike_uids": ["489379"], "virtual": false}}, {"id": "9550c2ac6548fa197ed3bea310f74efe", "name": "Te\u010dovsk\u00e1", "latitude": 49.209916, "longitude": 17.596318, "timestamp": "2025-05-03T03:15:40.076433+00:00Z", "free_bikes": 1, "empty_slots": null, "extra": {"uid": "98472752", "number": "48676", "bike_uids": ["489738"], "virtual": false}}, {"id": "9ad30a2b20f2ff8a1436b6ffcb325759", "name": "Z\u0160 Malenovice", "latitude": 49.205757, "longitude": 17.588031, "timestamp": "2025-05-03T03:15:40.075051+00:00Z", "free_bikes": 0, "empty_slots": null, "extra": {"uid": "43155381", "number": "48612", "bike_uids": [], "virtual": false}}, {"id": "a027afb5accb4a39bce2662d25664816", "name": "Sokolsk\u00e1 - Kaufland", "latitude": 49.236583, "longitude": 17.68625, "timestamp": "2025-05-03T03:15:40.075620+00:00Z", "free_bikes": 0, "empty_slots": null, "extra": {"uid": "44581247", "number": "48649", "bike_uids": [], "virtual": false}}, {"id": "a14927686eeeac39a446483b9bcef305", "name": "H\u0159i\u0161t\u011b Podvesn\u00e1 - stojan u h\u0159i\u0161t\u011b", "latitude": 49.22747, "longitude": 17.69011, "timestamp": "2025-05-03T03:15:40.076685+00:00Z", "free_bikes": 5, "empty_slots": null, "extra": {"uid": "202708762", "number": "48694", "bike_uids": ["489774", "489755", "489735", "489704", "489699"], "virtual": false}}, {"id": "a8c5611edab4157d4ba32bf99bd09eeb", "name": "Block 96", "latitude": 49.224, "longitude": 17.64715, "timestamp": "2025-05-03T03:15:40.076960+00:00Z", "free_bikes": 0, "empty_slots": null, "extra": {"uid": "377959829", "number": "47365", "bike_uids": [], "virtual": false}}, {"id": "ac3f483f98f441790f941489bb82da88", "name": "D\u0159evnick\u00e1 - obchod", "latitude": 49.227428, "longitude": 17.699295, "timestamp": "2025-05-03T03:15:40.075430+00:00Z", "free_bikes": 2, "empty_slots": null, "extra": {"uid": "43156233", "number": "48638", "bike_uids": ["489772", "489707"], "virtual": false}}, {"id": "b0041a5d9cc3b86e674977d2d1fb7abe", "name": "Jedn\u00edm tahem", "latitude": 49.22311, "longitude": 17.65222, "timestamp": "2025-05-03T03:15:40.076667+00:00Z", "free_bikes": 1, "empty_slots": null, "extra": {"uid": "186562380", "number": "48692", "bike_uids": ["489383"], "virtual": false}}, {"id": "b2251cc2f9e3469e99354a464e00c861", "name": "U4 - UTB", "latitude": 49.222295, "longitude": 17.665999, "timestamp": "2025-05-03T03:15:40.076021+00:00Z", "free_bikes": 0, "empty_slots": null, "extra": {"uid": "49538673", "number": "48659", "bike_uids": [], "virtual": false}}, {"id": "b3886741c70390253caa23d36b9ab56b", "name": "D\u011btsk\u00e9 h\u0159i\u0161t\u011b Nerudova", "latitude": 49.2173, "longitude": 17.64195, "timestamp": "2025-05-03T03:15:40.076932+00:00Z", "free_bikes": 0, "empty_slots": null, "extra": {"uid": "377935771", "number": "47369", "bike_uids": [], "virtual": false}}, {"id": "b3cab6ee9815f87441675600becd5afa", "name": "Teplo Zl\u00edn", "latitude": 49.229274, "longitude": 17.655397, "timestamp": "2025-05-03T03:15:40.076862+00:00Z", "free_bikes": 0, "empty_slots": 6, "extra": {"uid": "301545572", "number": "48703", "slots": 6, "bike_uids": [], "virtual": false}}, {"id": "b9e670488af67962e9064ad726d8ae9d", "name": "D\u011btsk\u00e9 h\u0159i\u0161t\u011b Z\u00e1le\u0161n\u00e1", "latitude": 49.231178, "longitude": 17.684958, "timestamp": "2025-05-03T03:15:40.076408+00:00Z", "free_bikes": 12, "empty_slots": null, "extra": {"uid": "98472099", "number": "48675", "bike_uids": ["489392", "489371", "489370", "489810", "489760", "489740", "489714", "489709", "489708", "489700", "489677", "489676"], "virtual": false}}, {"id": "ba43c19a5bbf9163003ada5b3eb0b62b", "name": "Stadion Letn\u00e1", "latitude": 49.230553, "longitude": 17.670205, "timestamp": "2025-05-03T03:15:40.075448+00:00Z", "free_bikes": 0, "empty_slots": null, "extra": {"uid": "43156283", "number": "48640", "bike_uids": [], "virtual": false}}, {"id": "bab6663ab005ca8b358f67480a03eccd", "name": "Okru\u017en\u00ed - Billa(+15min zdarma na p\u0159\u00edjezd)", "latitude": 49.235636, "longitude": 17.666911, "timestamp": "2025-05-03T03:15:40.075228+00:00Z", "free_bikes": 1, "empty_slots": null, "extra": {"uid": "43155736", "number": "48625", "bike_uids": ["489394"], "virtual": false}}, {"id": "bd242e97d7490cfda2ab60c82fcba6e6", "name": "P\u0159\u00edluky - u l\u00e1vky", "latitude": 49.221342, "longitude": 17.714897, "timestamp": "2025-05-03T03:15:40.076602+00:00Z", "free_bikes": 5, "empty_slots": null, "extra": {"uid": "164782877", "number": "48687", "bike_uids": ["489807", "489749", "489731", "489693", "489688"], "virtual": false}}, {"id": "bee3ea0adcfdb26b752cb605db37e662", "name": "Lu\u017ekovice, SDH", "latitude": 49.22171, "longitude": 17.74643, "timestamp": "2025-05-03T03:15:40.076877+00:00Z", "free_bikes": 5, "empty_slots": 1, "extra": {"uid": "301730795", "number": "48704", "slots": 6, "bike_uids": ["489802", "489798", "489790", "489722", "489717"], "virtual": false}}, {"id": "bf7da892626c4fe6853831d4f2369ff9", "name": "U16 - UTB", "latitude": 49.220397, "longitude": 17.649572, "timestamp": "2025-05-03T03:15:40.076075+00:00Z", "free_bikes": 0, "empty_slots": null, "extra": {"uid": "49538776", "number": "48661", "bike_uids": [], "virtual": false}}, {"id": "c0778688d5d47fb62f35ca4255df9ac8", "name": "Hotel Baltaci U N\u00e1honu", "latitude": 49.228738, "longitude": 17.678767, "timestamp": "2025-05-03T03:15:40.077310+00:00Z", "free_bikes": 0, "empty_slots": 3, "extra": {"uid": "417818754", "number": "47157", "slots": 3, "bike_uids": [], "virtual": false}}, {"id": "c7cc4bc1ce5f1362d4b56cb857ab04d5", "name": "TS Zl\u00edn", "latitude": 49.216682, "longitude": 17.615816, "timestamp": "2025-05-03T03:15:40.075718+00:00Z", "free_bikes": 6, "empty_slots": null, "extra": {"uid": "45162327", "number": "48654", "bike_uids": ["489812", "489773", "489701", "489694", "489679", "489669"], "virtual": false}}, {"id": "c817d65ae4f4904ac1434d3f63e83924", "name": "Cara Plasma", "latitude": 49.233418, "longitude": 17.658916, "timestamp": "2025-05-03T03:15:40.076653+00:00Z", "free_bikes": 0, "empty_slots": null, "extra": {"uid": "167810774", "number": "48690", "bike_uids": [], "virtual": false}}, {"id": "ca348eb1bcc9d283a15e5330eb2eecb9", "name": "OC \u010cepkov", "latitude": 49.227989, "longitude": 17.661356, "timestamp": "2025-05-03T03:15:40.075372+00:00Z", "free_bikes": 1, "empty_slots": null, "extra": {"uid": "43156170", "number": "48635", "bike_uids": ["489671"], "virtual": false}}, {"id": "cff8ce0d89c48effc5a10e9e04ab09c0", "name": "J. A. Bati", "latitude": 49.223602, "longitude": 17.659171, "timestamp": "2025-05-03T03:15:40.075127+00:00Z", "free_bikes": 0, "empty_slots": null, "extra": {"uid": "43155490", "number": "48616", "bike_uids": [], "virtual": false}}, {"id": "d3b6fcce7d28628c33aa8afc15672032", "name": "K\u00faty", "latitude": 49.231107, "longitude": 17.679329, "timestamp": "2025-05-03T03:15:40.075303+00:00Z", "free_bikes": 12, "empty_slots": null, "extra": {"uid": "43155965", "number": "48631", "bike_uids": ["489795", "489782", "489771", "489723", "489719", "489716", "489712", "489705", "489697", "489683", "489678", "489672"], "virtual": false}}, {"id": "d417efb0a800bc531def86dbded67f12", "name": "Restaurace Myslivna", "latitude": 49.225716, "longitude": 17.673439, "timestamp": "2025-05-03T03:15:40.076784+00:00Z", "free_bikes": 5, "empty_slots": null, "extra": {"uid": "203187351", "number": "48699", "bike_uids": ["489809", "489764", "489759", "489743", "489726"], "virtual": false}}, {"id": "d6b48e33208fd7928ba14f98412ebd9f", "name": "Koupali\u0161t\u011b Zelen\u00e9", "latitude": 49.225609, "longitude": 17.696475, "timestamp": "2025-05-03T03:15:40.075391+00:00Z", "free_bikes": 0, "empty_slots": null, "extra": {"uid": "43156199", "number": "48636", "bike_uids": [], "virtual": false}}, {"id": "d720796a7ce4316203fe855130332529", "name": "Gymnastika Zl\u00edn", "latitude": 49.226675, "longitude": 17.650362, "timestamp": "2025-05-03T03:15:40.076195+00:00Z", "free_bikes": 2, "empty_slots": null, "extra": {"uid": "51827566", "number": "48669", "bike_uids": ["489736", "489730"], "virtual": false}}, {"id": "de2a18729904e4adc153af082aa0d663", "name": "Z\u00e1le\u0161n\u00e1 - h\u0159i\u0161t\u011b", "latitude": 49.229746, "longitude": 17.692475, "timestamp": "2025-05-03T03:15:40.076727+00:00Z", "free_bikes": 3, "empty_slots": null, "extra": {"uid": "203185384", "number": "48696", "bike_uids": ["489756", "489751", "489695"], "virtual": false}}, {"id": "df8f9649c2b8866d4ba2479983ec39f3", "name": "Sokolsk\u00e1 - venkovn\u00ed posilovna", "latitude": 49.23336, "longitude": 17.68446, "timestamp": "2025-05-03T03:15:40.076746+00:00Z", "free_bikes": 1, "empty_slots": null, "extra": {"uid": "203185568", "number": "48697", "bike_uids": ["489674"], "virtual": false}}, {"id": "e17b40125573a75ae6ae0c68cd922b4f", "name": "U18 - UTB", "latitude": 49.223502, "longitude": 17.666087, "timestamp": "2025-05-03T03:15:40.076092+00:00Z", "free_bikes": 0, "empty_slots": null, "extra": {"uid": "49538829", "number": "48662", "bike_uids": [], "virtual": false}}, {"id": "e5ed812ac9c8c9447dc1ab9904cabe83", "name": "L. V\u00e1chy", "latitude": 49.217556, "longitude": 17.633583, "timestamp": "2025-05-03T03:15:40.075600+00:00Z", "free_bikes": 4, "empty_slots": null, "extra": {"uid": "44581191", "number": "48648", "bike_uids": ["489814", "489797", "489742", "489682"], "virtual": false}}, {"id": "e98792b4651bc17f6c76c1fce59d1811", "name": "Farsk\u00e1 louka", "latitude": 49.22481, "longitude": 17.66898, "timestamp": "2025-05-03T03:15:40.076974+00:00Z", "free_bikes": 1, "empty_slots": null, "extra": {"uid": "389649358", "number": "47300", "bike_uids": ["489721"], "virtual": false}}, {"id": "ec1ba030d52a405712f4243f1697db20", "name": "Centr\u00e1ln\u00ed park - lanov\u00e1 pyramida", "latitude": 49.240911, "longitude": 17.671987, "timestamp": "2025-05-03T03:15:40.076392+00:00Z", "free_bikes": 0, "empty_slots": null, "extra": {"uid": "73272436", "number": "48674", "bike_uids": [], "virtual": false}}, {"id": "f30ca938533004cf050a981f5498aaf3", "name": "Sokolsk\u00e1 - obchod", "latitude": 49.232752, "longitude": 17.679171, "timestamp": "2025-05-03T03:15:40.074954+00:00Z", "free_bikes": 4, "empty_slots": null, "extra": {"uid": "43155256", "number": "48607", "bike_uids": ["489800", "489787", "489757", "489668"], "virtual": false}}, {"id": "f3c602a719163db6226ffc244bc69de9", "name": "Pr\u0161tn\u00e9, n\u00e1ves", "latitude": 49.22239, "longitude": 17.63439, "timestamp": "2025-05-03T03:15:40.076841+00:00Z", "free_bikes": 2, "empty_slots": 4, "extra": {"uid": "288272088", "number": "48702", "slots": 6, "bike_uids": ["489779", "489675"], "virtual": false}}, {"id": "f633feaba20eb4c45b6dc4503e7f12e4", "name": "Koupali\u0161t\u011b Panorama(+15min zdarma na p\u0159\u00edjezd)", "latitude": 49.234869, "longitude": 17.665369, "timestamp": "2025-05-03T03:15:40.075155+00:00Z", "free_bikes": 0, "empty_slots": null, "extra": {"uid": "43155542", "number": "48618", "bike_uids": [], "virtual": false}}, {"id": "fc51fc21a95837de6b907f49fa18f860", "name": "Mokr\u00e1 - h\u0159i\u0161t\u011b", "latitude": 49.240254, "longitude": 17.653869, "timestamp": "2025-05-03T03:15:40.075106+00:00Z", "free_bikes": 5, "empty_slots": null, "extra": {"uid": "43155457", "number": "48615", "bike_uids": ["489784", "489744", "489711", "489703", "489698"], "virtual": false}}, {"id": "fdecca8428a823f4a65f3a8f03d504ad", "name": "Potraviny, Bene\u0161ovo n\u00e1b\u0159e\u017e\u00ed", "latitude": 49.22962, "longitude": 17.67724, "timestamp": "2025-05-03T03:15:40.076706+00:00Z", "free_bikes": 7, "empty_slots": null, "extra": {"uid": "202708889", "number": "48695", "bike_uids": ["489378", "489811", "489801", "489781", "489780", "489710", "489687"], "virtual": false}}]}