{"id": "nextbike-vrchlabi", "name": "nextbike Vrchlab\u00ed", "location": {"latitude": 50.6222, "longitude": 15.6126, "city": "Vrchlab\u00ed", "country": "CZ"}, "href": "/v2/networks/nextbike-vrchlabi", "company": ["Nextbike GmbH"], "system": "Nextbike", "stations": [{"id": "0b978bd235755ef8f9cf6a41ed5f5b9b", "name": "Vrchlab\u00ed - autobusov\u00e9 n\u00e1dra\u017e\u00ed", "latitude": 50.62044, "longitude": 15.61981, "timestamp": "2025-05-03T03:15:40.687376+00:00Z", "free_bikes": 3, "empty_slots": 7, "extra": {"uid": "74852829", "number": "48502", "slots": 10, "bike_uids": ["488403", "488396", "488386"], "virtual": false}}, {"id": "3ef7312022c99bca86835b120620c5ef", "name": "Vrchlab\u00ed - Bucharova", "latitude": 50.64044, "longitude": 15.60693, "timestamp": "2025-05-03T03:15:40.687677+00:00Z", "free_bikes": 1, "empty_slots": 3, "extra": {"uid": "402685435", "number": "46973", "slots": 4, "bike_uids": ["488437"], "virtual": false}}, {"id": "61b406e2c203418506b48c1417197a75", "name": "Vrchlab\u00ed - Aquacentrum", "latitude": 50.619766, "longitude": 15.603049, "timestamp": "2025-05-03T03:15:40.687657+00:00Z", "free_bikes": 1, "empty_slots": 9, "extra": {"uid": "164636975", "number": "48516", "slots": 10, "bike_uids": ["488356"], "virtual": false}}, {"id": "6aa47f6e759e97bac9e1b52b9a4e248f", "name": "Vrchlab\u00ed - bus par\u010d\u00edk u Havla", "latitude": 50.62286, "longitude": 15.61197, "timestamp": "2025-05-03T03:15:40.687418+00:00Z", "free_bikes": 4, "empty_slots": 6, "extra": {"uid": "74853050", "number": "48504", "slots": 10, "bike_uids": ["488433", "488424", "488352", "488322"], "virtual": false}}, {"id": "710f4a348d6aa5126519c98fa546bcc7", "name": "Vrchlab\u00ed - Pra\u017esk\u00e1", "latitude": 50.618573, "longitude": 15.608264, "timestamp": "2025-05-03T03:15:40.687639+00:00Z", "free_bikes": 0, "empty_slots": 10, "extra": {"uid": "164636764", "number": "48515", "slots": 10, "bike_uids": [], "virtual": false}}, {"id": "7650b49b80222003cb2f5359220d210f", "name": "Vrchlab\u00ed - n\u00e1m. TGM (+15 minut na p\u0159\u00edjezd)", "latitude": 50.62786, "longitude": 15.60965, "timestamp": "2025-05-03T03:15:40.687450+00:00Z", "free_bikes": 1, "empty_slots": 9, "extra": {"uid": "74853285", "number": "48506", "slots": 10, "bike_uids": ["488439"], "virtual": false}}, {"id": "814d1175ff58e451d7f19d0773bbbb56", "name": "Doln\u00ed Dv\u016fr - Chata U Jirky (+15 minut na p\u0159\u00edjezd i odjezd)", "latitude": 50.660858, "longitude": 15.659161, "timestamp": "2025-05-03T03:15:40.687746+00:00Z", "free_bikes": 4, "empty_slots": 0, "extra": {"uid": "522536409", "number": "46980", "slots": 4, "bike_uids": ["488440", "488345", "488341", "488335"], "virtual": false}}, {"id": "81e5e00bc19b4d93fbe0ea5857f253c7", "name": "Vrchlab\u00ed - Po\u0161tovn\u00ed (+30min zdarma na odjezd)", "latitude": 50.598691, "longitude": 15.624812, "timestamp": "2025-05-03T03:15:40.687534+00:00Z", "free_bikes": 3, "empty_slots": 7, "extra": {"uid": "164636172", "number": "48514", "slots": 10, "bike_uids": ["488375", "488355", "488333"], "virtual": false}}, {"id": "82b266c79b5d265a253076d9686ae413", "name": "Vrchlab\u00ed - kulturn\u00ed centrum", "latitude": 50.63135, "longitude": 15.61043, "timestamp": "2025-05-03T03:15:40.687480+00:00Z", "free_bikes": 0, "empty_slots": 10, "extra": {"uid": "74853493", "number": "48508", "slots": 10, "bike_uids": [], "virtual": false}}, {"id": "842c234c195d34358c083ba99a8fc6c9", "name": "Vrchlab\u00ed - \u0160koda Auto", "latitude": 50.614127, "longitude": 15.621625, "timestamp": "2025-05-03T03:15:40.687310+00:00Z", "free_bikes": 0, "empty_slots": 10, "extra": {"uid": "74852630", "number": "48500", "slots": 10, "bike_uids": [], "virtual": false}}, {"id": "85ae464aa40b835a1b78c71220330aa9", "name": "Vrchlab\u00ed - Harta (+30min zdarma na odjezd)", "latitude": 50.603642, "longitude": 15.622786, "timestamp": "2025-05-03T03:15:40.687518+00:00Z", "free_bikes": 11, "empty_slots": 0, "extra": {"uid": "82105513", "number": "48511", "slots": 10, "bike_uids": ["488447", "488434", "488417", "488415", "488406", "488399", "488366", "488353", "488340", "488308", "488303"], "virtual": false}}, {"id": "92a54eb7d946e507eded31bb7cb67f8c", "name": "Doln\u00ed Dv\u016fr - n\u00e1m\u011bst\u00ed (+15 minut na p\u0159\u00edjezd i odjezd)", "latitude": 50.652268, "longitude": 15.655621, "timestamp": "2025-05-03T03:15:40.687728+00:00Z", "free_bikes": 1, "empty_slots": 3, "extra": {"uid": "522536181", "number": "46979", "slots": 4, "bike_uids": ["488395"], "virtual": false}}, {"id": "96c328448e78aa4e88a06696e4444ed6", "name": "Kaufland, Vrchlab\u00ed", "latitude": 50.621036, "longitude": 15.624226, "timestamp": "2025-05-03T03:15:40.687710+00:00Z", "free_bikes": 1, "empty_slots": 9, "extra": {"uid": "521516470", "number": "48429", "slots": 10, "bike_uids": ["488300"], "virtual": false}}, {"id": "b1d30947ad169f454de4cc3a3404887f", "name": "Vrchlab\u00ed - Tyr\u0161ova u Komety", "latitude": 50.61873, "longitude": 15.61524, "timestamp": "2025-05-03T03:15:40.687491+00:00Z", "free_bikes": 6, "empty_slots": 4, "extra": {"uid": "74853667", "number": "48509", "slots": 10, "bike_uids": ["488448", "488446", "488425", "488400", "488305", "488302"], "virtual": false}}, {"id": "c6f6d86b89522eb48d311b25c23ccdb8", "name": "Vrchlab\u00ed - n\u00e1m. M\u00edru", "latitude": 50.62936, "longitude": 15.60824, "timestamp": "2025-05-03T03:15:40.687466+00:00Z", "free_bikes": 2, "empty_slots": 8, "extra": {"uid": "74853362", "number": "48507", "slots": 10, "bike_uids": ["488432", "488351"], "virtual": false}}, {"id": "c73d43f88959f4337b8700f54858cbe5", "name": "Vrchlab\u00ed - n\u00e1plavka", "latitude": 50.6278, "longitude": 15.61257, "timestamp": "2025-05-03T03:15:40.687438+00:00Z", "free_bikes": 0, "empty_slots": 10, "extra": {"uid": "74853152", "number": "48505", "slots": 10, "bike_uids": [], "virtual": false}}, {"id": "c8eac11ceeb5b81882648f3624e12a2e", "name": "U Ka\u010d\u00e1ku", "latitude": 50.617128, "longitude": 15.60455, "timestamp": "2025-05-03T03:15:40.687695+00:00Z", "free_bikes": 0, "empty_slots": 10, "extra": {"uid": "521516166", "number": "48428", "slots": 10, "bike_uids": [], "virtual": false}}, {"id": "c98b821f42e5b240bcdefdb97d6c5dd4", "name": "Vrchlab\u00ed - Li\u0161\u010d\u00ed kopec (Nerudova)", "latitude": 50.61647, "longitude": 15.61476, "timestamp": "2025-05-03T03:15:40.687399+00:00Z", "free_bikes": 2, "empty_slots": 8, "extra": {"uid": "74852962", "number": "48503", "slots": 10, "bike_uids": ["488373", "488347"], "virtual": false}}, {"id": "dd65a3f1577bd4f011cffbcb97a65e21", "name": "Vrchlab\u00ed - Ho\u0159ej\u0161\u00ed", "latitude": 50.64519, "longitude": 15.6084, "timestamp": "2025-05-03T03:15:40.687507+00:00Z", "free_bikes": 0, "empty_slots": 10, "extra": {"uid": "74853754", "number": "48510", "slots": 10, "bike_uids": [], "virtual": false}}, {"id": "e6f94569646249abf65a2ff0136ff28b", "name": "Vrchlab\u00ed - vlakov\u00e9 n\u00e1dra\u017e\u00ed", "latitude": 50.61875, "longitude": 15.6222, "timestamp": "2025-05-03T03:15:40.687339+00:00Z", "free_bikes": 1, "empty_slots": 9, "extra": {"uid": "74852736", "number": "48501", "slots": 10, "bike_uids": ["488404"], "virtual": false}}]}