{"id": "nextbike-auckland-waterfront", "name": "Nextbike", "location": {"latitude": -36.841, "longitude": 174.763, "city": "Auckland Waterfront", "country": "NZ"}, "href": "/v2/networks/nextbike-auckland-waterfront", "company": ["Nextbike GmbH"], "stations": [{"id": "08025c069b623361227a8293ac0beb9c", "name": "440 Queen Street", "latitude": -36.854561, "longitude": 174.763019, "timestamp": "2023-04-03T07:13:15.420Z", "free_bikes": 0, "empty_slots": 2, "extra": {"slots": 2, "uid": "28819089", "bike_uids": [""], "number": "64040"}}, {"id": "11cbd84e9b17e01ee11d532026530a5a", "name": "28 Madden Street", "latitude": -36.841894, "longitude": 174.756045, "timestamp": "2023-04-03T07:13:15.422Z", "free_bikes": 0, "empty_slots": 3, "extra": {"slots": 3, "uid": "28819386", "bike_uids": [""], "number": "64032"}}, {"id": "19814ad184b208b600b5821f9c06f06f", "name": "118 Nelson Street", "latitude": -36.853544, "longitude": 174.757354, "timestamp": "2023-04-03T07:13:15.416Z", "free_bikes": 0, "empty_slots": 3, "extra": {"slots": 3, "uid": "28804742", "bike_uids": [""], "number": "64049"}}, {"id": "1c2ee73dc6e59551a30192c9edb5dba8", "name": "15 Nicholls Lane", "latitude": -36.853153, "longitude": 174.774891, "timestamp": "2023-04-03T07:13:15.431Z", "free_bikes": 0, "empty_slots": 2, "extra": {"slots": 2, "uid": "34948014", "bike_uids": [""], "number": "64066"}}, {"id": "1ed8ddadd00c7ddf6a5b6eff05805b22", "name": "375 Karangahape Road", "latitude": -36.858008, "longitude": 174.756534, "timestamp": "2023-04-03T07:13:15.410Z", "free_bikes": 0, "empty_slots": 2, "extra": {"slots": 2, "uid": "28775106", "bike_uids": [""], "number": "64052"}}, {"id": "2f85fd2dd00ea9a5dd0986ae6beb598b", "name": "122 Karangahape Road", "latitude": -36.857991, "longitude": 174.761029, "timestamp": "2023-04-03T07:13:15.412Z", "free_bikes": 0, "empty_slots": 2, "extra": {"slots": 2, "uid": "28804574", "bike_uids": [""], "number": "64053"}}, {"id": "4bf772aaa2574d4f46cfb4f6ce67b5be", "name": "82 Wyndham Street", "latitude": -36.846182, "longitude": 174.76142, "timestamp": "2023-04-03T07:13:15.417Z", "free_bikes": 0, "empty_slots": 11, "extra": {"slots": 11, "uid": "28804775", "bike_uids": [""], "number": "64048"}}, {"id": "4e5f9d7ebca67b774b90112ed8721fc8", "name": "55 Wellesley Street West", "latitude": -36.850067, "longitude": 174.761866, "timestamp": "2023-04-03T07:13:15.419Z", "free_bikes": 0, "empty_slots": 6, "extra": {"slots": 6, "uid": "28804823", "bike_uids": [""], "number": "64044"}}, {"id": "50d998be10f9785ebdbfeb49deb326a4", "name": "186 Parnell Road", "latitude": -36.85427, "longitude": 174.779804, "timestamp": "2023-04-03T07:13:15.430Z", "free_bikes": 0, "empty_slots": 3, "extra": {"slots": 3, "uid": "34947991", "bike_uids": [""], "number": "64065"}}, {"id": "53459cb4c0a8cdeb3dcf2e1ad52dacce", "name": "23 Shortland Street", "latitude": -36.846762, "longitude": 174.767225, "timestamp": "2023-04-03T07:13:15.415Z", "free_bikes": 0, "empty_slots": 5, "extra": {"slots": 5, "uid": "28804675", "bike_uids": [""], "number": "64057"}}, {"id": "5de1d066717aab12a633ccf9652aa2f0", "name": "35 Wellesley Street East", "latitude": -36.852501, "longitude": 174.766613, "timestamp": "2023-04-03T07:13:15.419Z", "free_bikes": 0, "empty_slots": 12, "extra": {"slots": 12, "uid": "28804812", "bike_uids": [""]}}, {"id": "629846782c60e4a450c9748d9e76e966", "name": "136 Ponsonby Road", "latitude": -36.856424, "longitude": 174.746518, "timestamp": "2023-04-03T07:13:15.433Z", "free_bikes": 0, "empty_slots": 10, "extra": {"slots": 10, "uid": "34948051", "bike_uids": [""], "number": "64068"}}, {"id": "71f2fa6ceb854c5251b53a8ff4d1755a", "name": "14 Grafton Road", "latitude": -36.853235, "longitude": 174.770765, "timestamp": "2023-04-03T07:13:15.428Z", "free_bikes": 0, "empty_slots": null, "extra": {"uid": "34524878", "bike_uids": [""], "number": "64016"}}, {"id": "76975eee490c95d0cf3abce63e1511b7", "name": "33 Princess Street", "latitude": -36.848377, "longitude": 174.770012, "timestamp": "2023-04-03T07:13:15.426Z", "free_bikes": 0, "empty_slots": null, "extra": {"uid": "34524401", "bike_uids": [""], "number": "64007"}}, {"id": "7eda31f29d75a82c07d1eb1245908b7a", "name": "25 O'Connell Street", "latitude": -36.84771, "longitude": 174.767026, "timestamp": "2023-04-03T07:13:15.415Z", "free_bikes": 0, "empty_slots": 6, "extra": {"slots": 6, "uid": "28804685", "bike_uids": [""], "number": "64056"}}, {"id": "81d6382d34bfba99e19c1aead93da36f", "name": "Britomart Place", "latitude": -36.845337, "longitude": 174.770755, "timestamp": "2023-04-03T07:13:15.427Z", "free_bikes": 0, "empty_slots": null, "extra": {"uid": "34524637", "bike_uids": [""], "number": "64011"}}, {"id": "8d0d6aa77c0b05e3988653970dc049d9", "name": "105 Symonds Street", "latitude": -36.858197, "longitude": 174.76362, "timestamp": "2023-04-03T07:13:15.414Z", "free_bikes": 0, "empty_slots": 2, "extra": {"slots": 2, "uid": "28804618", "bike_uids": [""], "number": "64060"}}, {"id": "9b6ae282cc033b91899b092c8ad9be0a", "name": "96 St Georges Bay Road", "latitude": -36.852338, "longitude": 174.782503, "timestamp": "2023-04-03T07:13:15.423Z", "free_bikes": 0, "empty_slots": 2, "extra": {"slots": 2, "uid": "28819613", "bike_uids": [""], "number": "64019"}}, {"id": "af7957a39f046ce0e47202096b765c39", "name": "108 Carlton Gore Road", "latitude": -36.865126, "longitude": 174.776733, "timestamp": "2023-04-03T07:13:15.430Z", "free_bikes": 0, "empty_slots": 2, "extra": {"slots": 2, "uid": "34947936", "bike_uids": [""], "number": "64062"}}, {"id": "b3f3e108cc420d8527e6bf89253e845b", "name": "4 Williamson Avenue", "latitude": -36.858257, "longitude": 174.74876, "timestamp": "2023-04-03T07:13:15.432Z", "free_bikes": 0, "empty_slots": 6, "extra": {"slots": 6, "uid": "34948033", "bike_uids": [""], "number": "64067"}}, {"id": "b6ae7d0ac80455162d3649ab76059b63", "name": "25 Symonds Street", "latitude": -36.854164, "longitude": 174.767838, "timestamp": "2023-04-03T07:13:15.425Z", "free_bikes": 0, "empty_slots": null, "extra": {"uid": "34524362", "bike_uids": [""], "number": "64006"}}, {"id": "bb6a1d08f0469bccceaaf3119eb2f82c", "name": "155 Victoria Street West", "latitude": -36.847848, "longitude": 174.758347, "timestamp": "2023-04-03T07:13:15.418Z", "free_bikes": 0, "empty_slots": 2, "extra": {"slots": 2, "uid": "28804787", "bike_uids": [""], "number": "64047"}}, {"id": "ce0d268b435d5d2fd000fe7026e0b23b", "name": "20 Pitt Street", "latitude": -36.855107, "longitude": 174.758942, "timestamp": "2023-04-03T07:13:15.413Z", "free_bikes": 0, "empty_slots": 4, "extra": {"slots": 4, "uid": "28804591", "bike_uids": [""], "number": "64051"}}, {"id": "d3dccb78e96a71a7558fd822651c8c47", "name": "90 Jellicoe Street", "latitude": -36.84049, "longitude": 174.755166, "timestamp": "2023-04-03T07:13:15.422Z", "free_bikes": 0, "empty_slots": 6, "extra": {"slots": 6, "uid": "28819378", "bike_uids": [""], "number": "64033"}}, {"id": "d5b8d6ca630af72559fe3ee72e05e267", "name": "75 Park Road", "latitude": -36.861077, "longitude": 174.768936, "timestamp": "2023-04-03T07:13:15.429Z", "free_bikes": 0, "empty_slots": 2, "extra": {"slots": 2, "uid": "34947898", "bike_uids": [""], "number": "64061"}}, {"id": "db728d291411ed7ae35b48a5ed96c59e", "name": "200 Victoria Street West", "latitude": -36.848234, "longitude": 174.756662, "timestamp": "2023-04-03T07:13:15.434Z", "free_bikes": 0, "empty_slots": 4, "extra": {"slots": 4, "uid": "51289406", "bike_uids": [""], "number": "64002"}}, {"id": "e4f09beee465995661f3698d54412136", "name": "508 Queen Street", "latitude": -36.857021, "longitude": 174.761957, "timestamp": "2023-04-03T07:13:15.421Z", "free_bikes": 0, "empty_slots": 2, "extra": {"slots": 2, "uid": "28819099", "bike_uids": [""], "number": "64039"}}, {"id": "e59aab1ff29f539b2aecc9ee6fe7fa36", "name": "49 Wellesley Street East", "latitude": -36.852744, "longitude": 174.767246, "timestamp": "2023-04-03T07:13:15.425Z", "free_bikes": 0, "empty_slots": null, "extra": {"uid": "34524273", "bike_uids": [""], "number": "64005"}}]}