{"id": "nextbike-bonn", "name": "Nextbike", "location": {"latitude": 50.7367, "longitude": 7.09541, "city": "Bonn", "country": "DE"}, "href": "/v2/networks/nextbike-bonn", "company": ["Nextbike GmbH"], "system": "Nextbike", "stations": [{"id": "00c6fb5db36ec0379e81b3d813eb114c", "name": "Altes Rathaus", "latitude": 50.734919, "longitude": 7.102499, "timestamp": "2025-05-03T03:12:37.710208+00:00Z", "free_bikes": 0, "empty_slots": null, "extra": {"uid": "10044359", "number": "53189", "bike_uids": [], "virtual": false}}, {"id": "01f5837efb13b58fe971bf6b84d24ce9", "name": "IGS Beuel, S\u00fcd", "latitude": 50.749271, "longitude": 7.149074, "timestamp": "2025-05-03T03:12:37.711754+00:00Z", "free_bikes": 1, "empty_slots": null, "extra": {"uid": "521108932", "number": "53249", "bike_uids": ["45262"], "virtual": true}}, {"id": "02e0e40be783805f0ad84ff5a297599c", "name": "An der Elisabethkirche", "latitude": 50.72437, "longitude": 7.10799, "timestamp": "2025-05-03T03:12:37.711533+00:00Z", "free_bikes": 6, "empty_slots": null, "extra": {"uid": "137165177", "number": "53238", "bike_uids": ["44874", "44593", "45318", "44648", "44485", "44484"], "virtual": false}}, {"id": "052d038f33ae7056d689bf5f7d7fb5ae", "name": "Ramersdorf", "latitude": 50.722049, "longitude": 7.155165, "timestamp": "2025-05-03T03:12:37.710766+00:00Z", "free_bikes": 1, "empty_slots": null, "extra": {"uid": "10044742", "number": "53180", "bike_uids": ["45609"], "virtual": false}}, {"id": "06baebb99a2a00b855c895fbbb082710", "name": "Rochusstra\u00dfe", "latitude": 50.715809, "longitude": 7.050042, "timestamp": "2025-05-03T03:12:37.711313+00:00Z", "free_bikes": 0, "empty_slots": null, "extra": {"uid": "12585369", "number": "53161", "bike_uids": [], "virtual": false}}, {"id": "09e70a9ae1c6eb3cc25aa0d912cff7d3", "name": "Rosental/Am Johanneskreuz", "latitude": 50.741469, "longitude": 7.097817, "timestamp": "2025-05-03T03:12:37.710907+00:00Z", "free_bikes": 0, "empty_slots": null, "extra": {"uid": "10058514", "number": "53156", "bike_uids": [], "virtual": false}}, {"id": "0fe76249bca71728b202522f0d072fd9", "name": "KAUFLAND Oppelner Stra\u00dfe", "latitude": 50.749914, "longitude": 7.04596, "timestamp": "2025-05-03T03:12:37.711345+00:00Z", "free_bikes": 0, "empty_slots": null, "extra": {"uid": "38249224", "bike_uids": [], "virtual": false}}, {"id": "1335f216adec2245410f12aa3bb02eb0", "name": "Bahnhof Godesberg", "latitude": 50.683143, "longitude": 7.159175, "timestamp": "2025-05-03T03:12:37.711132+00:00Z", "free_bikes": 0, "empty_slots": null, "extra": {"uid": "10059347", "number": "53164", "bike_uids": [], "virtual": false}}, {"id": "13a430d90514a910c641402d403c09b9", "name": "Lannesdorf Mitte", "latitude": 50.664601, "longitude": 7.171181, "timestamp": "2025-05-03T03:12:37.711231+00:00Z", "free_bikes": 0, "empty_slots": null, "extra": {"uid": "10059613", "number": "53169", "bike_uids": [], "virtual": false}}, {"id": "18a856434d683e6e40bb5b58b839d3b5", "name": "Pariser Stra\u00dfe", "latitude": 50.75523, "longitude": 7.076526, "timestamp": "2025-05-03T03:12:37.710921+00:00Z", "free_bikes": 2, "empty_slots": null, "extra": {"uid": "10058527", "number": "53174", "bike_uids": ["45206", "45639"], "virtual": false}}, {"id": "1997bd3784b01583f111b1d42a79c009", "name": "\u00dcckesdorf", "latitude": 50.69206, "longitude": 7.064745, "timestamp": "2025-05-03T03:12:37.711200+00:00Z", "free_bikes": 0, "empty_slots": null, "extra": {"uid": "10059589", "number": "53168", "bike_uids": [], "virtual": false}}, {"id": "1bcfdeb0b623c730aebfefc6798a7935", "name": "UN-Campus", "latitude": 50.71464, "longitude": 7.118325, "timestamp": "2025-05-03T03:12:37.710798+00:00Z", "free_bikes": 1, "empty_slots": null, "extra": {"uid": "10044769", "number": "53151", "bike_uids": ["44759"], "virtual": false}}, {"id": "1f3ac9f7cdd9fdb678bdac848145aa21", "name": "Rathausstra\u00dfe", "latitude": 50.740183, "longitude": 7.119661, "timestamp": "2025-05-03T03:12:37.711672+00:00Z", "free_bikes": 5, "empty_slots": null, "extra": {"uid": "143439692", "number": "53240", "bike_uids": ["44689", "44655", "45545", "45965", "45540"], "virtual": false}}, {"id": "1f743cd6e399e9e30090852a37efe6d6", "name": "Schiffsanlegestelle \u201eAlter Zoll\u201c", "latitude": 50.735092, "longitude": 7.108273, "timestamp": "2025-05-03T03:12:37.710332+00:00Z", "free_bikes": 3, "empty_slots": null, "extra": {"uid": "10044510", "number": "53141", "bike_uids": ["45526", "45220", "45612"], "virtual": false}}, {"id": "22267fe22a1ae740b39a64c4629a76aa", "name": "Wilhelm-Levison-Stra\u00dfe", "latitude": 50.72495, "longitude": 7.09908, "timestamp": "2025-05-03T03:12:37.711647+00:00Z", "free_bikes": 3, "empty_slots": null, "extra": {"uid": "137165246", "number": "53239", "bike_uids": ["44494", "44493", "44492"], "virtual": false}}, {"id": "22b2c95e976ed9ccfeb0b60f963a412c", "name": "IGS Beuel, Nord", "latitude": 50.750161, "longitude": 7.147758, "timestamp": "2025-05-03T03:12:37.711783+00:00Z", "free_bikes": 2, "empty_slots": null, "extra": {"uid": "521109240", "number": "53250", "bike_uids": ["45350", "45828"], "virtual": true}}, {"id": "23e8e109ac11bec38dcf3497dc8a975a", "name": "Bahnhof Duisdorf", "latitude": 50.71626, "longitude": 7.041636, "timestamp": "2025-05-03T03:12:37.711032+00:00Z", "free_bikes": 0, "empty_slots": null, "extra": {"uid": "10059220", "number": "53160", "bike_uids": [], "virtual": false}}, {"id": "28ef545ce854142113f6bbadcc651f43", "name": "Tannenbusch Mitte", "latitude": 50.749755, "longitude": 7.046147, "timestamp": "2025-05-03T03:12:37.710941+00:00Z", "free_bikes": 0, "empty_slots": null, "extra": {"uid": "10058536", "number": "53157", "bike_uids": [], "virtual": false}}, {"id": "32d0477b90f68221b0ebfc9ed829c1e5", "name": "Chlodwigplatz", "latitude": 50.743445, "longitude": 7.090307, "timestamp": "2025-05-03T03:12:37.710891+00:00Z", "free_bikes": 3, "empty_slots": null, "extra": {"uid": "10058501", "number": "53155", "bike_uids": ["44522", "45466", "45079"], "virtual": false}}, {"id": "32ded27301b0276aea5734fbddd8b70f", "name": "Ollenhauerstra\u00dfe", "latitude": 50.710586, "longitude": 7.126873, "timestamp": "2025-05-03T03:12:37.710618+00:00Z", "free_bikes": 0, "empty_slots": null, "extra": {"uid": "10044627", "number": "53144", "bike_uids": [], "virtual": false}}, {"id": "336b125b373a828220a93a652543d4b7", "name": "Schiffsanlegestelle Bundeshaus", "latitude": 50.718658, "longitude": 7.129261, "timestamp": "2025-05-03T03:12:37.710375+00:00Z", "free_bikes": 0, "empty_slots": null, "extra": {"uid": "10044530", "number": "53142", "bike_uids": [], "virtual": false}}, {"id": "3b1f2158ad390589325dd969ceac53a8", "name": "UKBonn", "latitude": 50.702784, "longitude": 7.10029, "timestamp": "2025-05-03T03:12:37.710191+00:00Z", "free_bikes": 0, "empty_slots": null, "extra": {"uid": "10044348", "number": "53188", "bike_uids": [], "virtual": false}}, {"id": "3dfc1eb949fb7feafe6b73f8b2a2fbf9", "name": "Bundeshaus", "latitude": 50.71788, "longitude": 7.12546, "timestamp": "2025-05-03T03:12:37.710148+00:00Z", "free_bikes": 0, "empty_slots": null, "extra": {"uid": "10044315", "number": "53133", "bike_uids": [], "virtual": false}}, {"id": "3eb5bca4fa37d43355e22fda5a982783", "name": "Karlstra\u00dfe", "latitude": 50.732863, "longitude": 7.083832, "timestamp": "2025-05-03T03:12:37.710872+00:00Z", "free_bikes": 1, "empty_slots": null, "extra": {"uid": "10058493", "number": "53154", "bike_uids": ["45879"], "virtual": false}}, {"id": "3ec0f8f8c119909854597116198bcc7d", "name": "Museum K\u00f6nig", "latitude": 50.72143, "longitude": 7.114651, "timestamp": "2025-05-03T03:12:37.710829+00:00Z", "free_bikes": 0, "empty_slots": null, "extra": {"uid": "10058424", "number": "53153", "bike_uids": [], "virtual": false}}, {"id": "42dcca5e56e9f5d06d6beaae20e7b3a1", "name": "Friesdorf Klufterplatz", "latitude": 50.698048, "longitude": 7.126812, "timestamp": "2025-05-03T03:12:37.711256+00:00Z", "free_bikes": 0, "empty_slots": null, "extra": {"uid": "10059626", "number": "53182", "bike_uids": [], "virtual": false}}, {"id": "43cc982b6690dc6fb33a2fd451fc62db", "name": "Haus der Geschichte", "latitude": 50.717595, "longitude": 7.119956, "timestamp": "2025-05-03T03:12:37.710272+00:00Z", "free_bikes": 0, "empty_slots": null, "extra": {"uid": "10044463", "number": "53176", "bike_uids": [], "virtual": false}}, {"id": "449e895f4540a772addd99f756d64579", "name": "T-Mobile, Landgrabenweg", "latitude": 50.721643, "longitude": 7.143157, "timestamp": "2025-05-03T03:12:37.710634+00:00Z", "free_bikes": 0, "empty_slots": null, "extra": {"uid": "10044650", "number": "53145", "bike_uids": [], "virtual": false}}, {"id": "4b9207c220bc33bef446afc45c6b11ce", "name": "Poppelsdorfer Platz", "latitude": 50.721355, "longitude": 7.087861, "timestamp": "2025-05-03T03:12:37.710728+00:00Z", "free_bikes": 6, "empty_slots": null, "extra": {"uid": "10044713", "number": "53175", "bike_uids": ["44779", "45451", "45643", "45160", "44612", "44658"], "virtual": false}}, {"id": "4ce225604bb7f3c727df0ffa3908f1c2", "name": "Friedensplatz/Budapester Stra\u00dfe", "latitude": 50.735673, "longitude": 7.096814, "timestamp": "2025-05-03T03:12:37.710783+00:00Z", "free_bikes": 0, "empty_slots": null, "extra": {"uid": "10044761", "number": "53150", "bike_uids": [], "virtual": false}}, {"id": "50722793f7812451f34eb0b62c0117f3", "name": "Beuel Krankenhaus", "latitude": 50.73656, "longitude": 7.117344, "timestamp": "2025-05-03T03:12:37.710665+00:00Z", "free_bikes": 0, "empty_slots": null, "extra": {"uid": "10044664", "number": "53146", "bike_uids": [], "virtual": false}}, {"id": "51c56738e0a4108bb6c2a050f5e05a6a", "name": "Rheindorfer Stra\u00dfe", "latitude": 50.742695, "longitude": 7.117317, "timestamp": "2025-05-03T03:12:37.710842+00:00Z", "free_bikes": 0, "empty_slots": null, "extra": {"uid": "10058463", "number": "53190", "bike_uids": [], "virtual": false}}, {"id": "557430dd13032f702881666acb31aa45", "name": "Magdalenenplatz", "latitude": 50.726092, "longitude": 7.073978, "timestamp": "2025-05-03T03:12:37.710956+00:00Z", "free_bikes": 0, "empty_slots": null, "extra": {"uid": "10058548", "number": "53177", "bike_uids": [], "virtual": false}}, {"id": "5bfeffece91f5ef0ce3dafe0c946c1b7", "name": "LIDL Endenicherstra\u00dfe", "latitude": 50.731702, "longitude": 7.080957, "timestamp": "2025-05-03T03:12:37.711359+00:00Z", "free_bikes": 0, "empty_slots": null, "extra": {"uid": "101397739", "number": "53202", "bike_uids": [], "virtual": false}}, {"id": "5c2e437621bbb9c52cf2cfb57e51866f", "name": "St. Marien Hospital", "latitude": 50.71757, "longitude": 7.090974, "timestamp": "2025-05-03T03:12:37.710167+00:00Z", "free_bikes": 1, "empty_slots": null, "extra": {"uid": "10044322", "number": "53134", "bike_uids": ["45421"], "virtual": false}}, {"id": "5cf302f284ab26bc5b576cf64ee316d8", "name": "Alter Friedhof", "latitude": 50.736217, "longitude": 7.094604, "timestamp": "2025-05-03T03:12:37.710240+00:00Z", "free_bikes": 0, "empty_slots": null, "extra": {"uid": "10044445", "number": "53137", "bike_uids": [], "virtual": false}}, {"id": "5f60cce5665b3a722d465dc1d10823b5", "name": "Celsiusstra\u00dfe", "latitude": 50.699567, "longitude": 7.057251, "timestamp": "2025-05-03T03:12:37.711047+00:00Z", "free_bikes": 0, "empty_slots": null, "extra": {"uid": "10059244", "number": "53192", "bike_uids": [], "virtual": false}}, {"id": "5f83d7c55f268921fe19529fc3383d2e", "name": "Campus Poppelsdorf I", "latitude": 50.728481, "longitude": 7.08527, "timestamp": "2025-05-03T03:12:37.710603+00:00Z", "free_bikes": 0, "empty_slots": null, "extra": {"uid": "10044582", "number": "53143", "bike_uids": [], "virtual": false}}, {"id": "6301fec0f26dbeb4b4b5d92d3eaf441d", "name": "Endenich Nord/ Auf dem H\u00fcgel", "latitude": 50.734985, "longitude": 7.061752, "timestamp": "2025-05-03T03:12:37.711282+00:00Z", "free_bikes": 0, "empty_slots": null, "extra": {"uid": "10666213", "number": "53129", "bike_uids": [], "virtual": false}}, {"id": "63a8bda3c3e6bfd0fb8be9a49fabaa65", "name": "Juridicum", "latitude": 50.730092, "longitude": 7.108278, "timestamp": "2025-05-03T03:12:37.710589+00:00Z", "free_bikes": 0, "empty_slots": null, "extra": {"uid": "10044540", "number": "53184", "bike_uids": [], "virtual": false}}, {"id": "6c1f929b09140b072c26852c51887c49", "name": "Hans-Steger-Ufer", "latitude": 50.737971, "longitude": 7.113851, "timestamp": "2025-05-03T03:12:37.710999+00:00Z", "free_bikes": 0, "empty_slots": null, "extra": {"uid": "10059156", "number": "53159", "bike_uids": [], "virtual": false}}, {"id": "700ba04b9cb56d2ea0baf1dd81ec4ca9", "name": "Bahnhof Beuel", "latitude": 50.739208, "longitude": 7.126806, "timestamp": "2025-05-03T03:12:37.710050+00:00Z", "free_bikes": 5, "empty_slots": null, "extra": {"uid": "10044279", "number": "53131", "bike_uids": ["45509", "44497", "44496", "44495", "44486"], "virtual": false}}, {"id": "706eade7196bc74362fede9287706b42", "name": "Kohlkauer Platz", "latitude": 50.749956, "longitude": 7.175042, "timestamp": "2025-05-03T03:12:37.710651+00:00Z", "free_bikes": 0, "empty_slots": null, "extra": {"uid": "10044658", "number": "53193", "bike_uids": [], "virtual": false}}, {"id": "71087c2d96fbe317f9e2b868cf42443f", "name": "Bonner Bogen", "latitude": 50.717948, "longitude": 7.154122, "timestamp": "2025-05-03T03:12:37.710358+00:00Z", "free_bikes": 0, "empty_slots": null, "extra": {"uid": "10044525", "number": "53183", "bike_uids": [], "virtual": false}}, {"id": "75d2b50bb46b15bfd2634d4dd577dbd3", "name": "Malteser Krankenhaus", "latitude": 50.706816, "longitude": 7.033889, "timestamp": "2025-05-03T03:12:37.711185+00:00Z", "free_bikes": 0, "empty_slots": null, "extra": {"uid": "10059545", "number": "53173", "bike_uids": [], "virtual": false}}, {"id": "78745b6f1ec9e0a7e9fc11bdcb2f9d66", "name": "Vilich M\u00fcldorf", "latitude": 50.754283, "longitude": 7.146741, "timestamp": "2025-05-03T03:12:37.711012+00:00Z", "free_bikes": 4, "empty_slots": null, "extra": {"uid": "10059187", "number": "53187", "bike_uids": ["45223", "45622", "44539", "44802"], "virtual": false}}, {"id": "7a5b6daf52668a1dac1127b7099feb17", "name": "Koblenzer Stra\u00dfe", "latitude": 50.683765, "longitude": 7.155844, "timestamp": "2025-05-03T03:12:37.711159+00:00Z", "free_bikes": 0, "empty_slots": null, "extra": {"uid": "10059425", "number": "53166", "bike_uids": [], "virtual": false}}, {"id": "7bc767d81863be8e5bac357850b4a2f9", "name": "Muffendorf Kommende", "latitude": 50.670497, "longitude": 7.16116, "timestamp": "2025-05-03T03:12:37.711244+00:00Z", "free_bikes": 0, "empty_slots": null, "extra": {"uid": "10059620", "number": "53170", "bike_uids": [], "virtual": false}}, {"id": "81bacb4e91628eff71b45c57e5a13e32", "name": "Ippendorf", "latitude": 50.697504, "longitude": 7.08042, "timestamp": "2025-05-03T03:12:37.710985+00:00Z", "free_bikes": 0, "empty_slots": null, "extra": {"uid": "10058571", "number": "53158", "bike_uids": [], "virtual": false}}, {"id": "8a4136ff39d83f9d51bddacdf41074d8", "name": "R\u00f6ttgen", "latitude": 50.678006, "longitude": 7.070915, "timestamp": "2025-05-03T03:12:37.711213+00:00Z", "free_bikes": 1, "empty_slots": null, "extra": {"uid": "10059595", "number": "53181", "bike_uids": ["45611"], "virtual": false}}, {"id": "8f9a8d7222468357d2d95f3e6feff470", "name": "Theater Bonn", "latitude": 50.736858, "longitude": 7.105968, "timestamp": "2025-05-03T03:12:37.710315+00:00Z", "free_bikes": 0, "empty_slots": null, "extra": {"uid": "10044499", "number": "53140", "bike_uids": [], "virtual": false}}, {"id": "980de55e1574b9f714519e6ae99291c2", "name": "Wiesenweg", "latitude": 50.727019, "longitude": 7.081236, "timestamp": "2025-05-03T03:12:37.710748+00:00Z", "free_bikes": 1, "empty_slots": null, "extra": {"uid": "10044733", "number": "53149", "bike_uids": ["44829"], "virtual": false}}, {"id": "9a98869cc6a5db4a0959b4f2698c9dcd", "name": "Haltepunkt Bonn-West", "latitude": 50.736768, "longitude": 7.080957, "timestamp": "2025-05-03T03:12:37.710097+00:00Z", "free_bikes": 1, "empty_slots": null, "extra": {"uid": "10044287", "number": "53185", "bike_uids": ["45678"], "virtual": false}}, {"id": "a0239c796570cba6bc7206384802810b", "name": "Poppelsdorfer Schloss", "latitude": 50.725962, "longitude": 7.094151, "timestamp": "2025-05-03T03:12:37.710224+00:00Z", "free_bikes": 0, "empty_slots": null, "extra": {"uid": "10044374", "number": "53136", "bike_uids": [], "virtual": false}}, {"id": "a109fee2f93b152ceb7f3e8f4ebae864", "name": "Haltepunkt Plittersdorfer Stra\u00dfe", "latitude": 50.687547, "longitude": 7.154074, "timestamp": "2025-05-03T03:12:37.711108+00:00Z", "free_bikes": 1, "empty_slots": null, "extra": {"uid": "10059334", "number": "53163", "bike_uids": ["45315"], "virtual": false}}, {"id": "a2a733f4c85997f109aa244fe2aa0f68", "name": "Frankenbad", "latitude": 50.73961, "longitude": 7.08836, "timestamp": "2025-05-03T03:12:37.711456+00:00Z", "free_bikes": 2, "empty_slots": null, "extra": {"uid": "137164951", "number": "53236", "bike_uids": ["44483", "44482"], "virtual": false}}, {"id": "a2c1fb1bf1067fb2484c275d8449cd1d", "name": "Kaiserstra\u00dfe", "latitude": 50.72829, "longitude": 7.10455, "timestamp": "2025-05-03T03:12:37.711505+00:00Z", "free_bikes": 3, "empty_slots": null, "extra": {"uid": "137165107", "number": "53237", "bike_uids": ["44489", "44488", "44487"], "virtual": false}}, {"id": "a32a282f43444fec6cb4f6fa94528bea", "name": "Bahnhof Mehlem", "latitude": 50.668494, "longitude": 7.181722, "timestamp": "2025-05-03T03:12:37.711146+00:00Z", "free_bikes": 0, "empty_slots": null, "extra": {"uid": "10059413", "number": "53165", "bike_uids": [], "virtual": false}}, {"id": "a4512dedfe36eb975192826f6cd8a66a", "name": "Alfter - Alanus Hochschule / Campus II  Villestra\u00dfe ", "latitude": 50.745641, "longitude": 7.027463, "timestamp": "2025-05-03T03:12:37.711421+00:00Z", "free_bikes": 1, "empty_slots": null, "extra": {"uid": "119455756", "number": "53198", "bike_uids": ["45927"], "virtual": true}}, {"id": "a83581de0e327d1e9eb223f73d98bf61", "name": "Mobility Hub Bahnhof Mehlem", "latitude": 50.669586, "longitude": 7.181326, "timestamp": "2025-05-03T03:12:37.711730+00:00Z", "free_bikes": 1, "empty_slots": null, "extra": {"uid": "461361308", "number": "53244", "bike_uids": ["45319"], "virtual": true}}, {"id": "a92e9e1cf15db736060ab7de5ff561d1", "name": "Frankenbad/Vorgebirgsstra\u00dfe", "latitude": 50.739524, "longitude": 7.087335, "timestamp": "2025-05-03T03:12:37.710970+00:00Z", "free_bikes": 0, "empty_slots": null, "extra": {"uid": "10058564", "number": "53179", "bike_uids": [], "virtual": false}}, {"id": "aa8239f381803aa407a1846a2539ef37", "name": "Buschdorf", "latitude": 50.758834, "longitude": 7.047021, "timestamp": "2025-05-03T03:12:37.711172+00:00Z", "free_bikes": 0, "empty_slots": null, "extra": {"uid": "10059495", "number": "53167", "bike_uids": [], "virtual": false}}, {"id": "aab2843a5b205cac1d45ba92ac0e8641", "name": "Quirinusplatz", "latitude": 50.704497, "longitude": 7.112296, "timestamp": "2025-05-03T03:12:37.711294+00:00Z", "free_bikes": 1, "empty_slots": null, "extra": {"uid": "12528644", "number": "53148", "bike_uids": ["45979"], "virtual": false}}, {"id": "cdacb3524a6229c59affc490ff714e57", "name": "Mobility Hub Bahnhof Godesberg", "latitude": 50.684194, "longitude": 7.159603, "timestamp": "2025-05-03T03:12:37.711713+00:00Z", "free_bikes": 0, "empty_slots": null, "extra": {"uid": "461360217", "number": "53243", "bike_uids": [], "virtual": true}}, {"id": "d32d3552b622d26405b73255cb8995a7", "name": "Frauen Museum", "latitude": 50.740346, "longitude": 7.091728, "timestamp": "2025-05-03T03:12:37.710290+00:00Z", "free_bikes": 1, "empty_slots": null, "extra": {"uid": "10044492", "number": "53139", "bike_uids": ["44543"], "virtual": false}}, {"id": "d642a86f4c9110502f7e773274c73a23", "name": "Schauspielhalle", "latitude": 50.740943, "longitude": 7.131441, "timestamp": "2025-05-03T03:12:37.710856+00:00Z", "free_bikes": 0, "empty_slots": null, "extra": {"uid": "10058482", "number": "53194", "bike_uids": [], "virtual": false}}, {"id": "e2e5e24989deb53054950443c2752286", "name": "LIDL Hausdorffstra\u00dfe", "latitude": 50.710673, "longitude": 7.108932, "timestamp": "2025-05-03T03:12:37.711375+00:00Z", "free_bikes": 0, "empty_slots": null, "extra": {"uid": "101398038", "number": "53203", "bike_uids": [], "virtual": false}}, {"id": "e370f95a787d20d1413d6c9bab1f2f80", "name": "Robert Schumann Platz", "latitude": 50.706681, "longitude": 7.137606, "timestamp": "2025-05-03T03:12:37.710816+00:00Z", "free_bikes": 0, "empty_slots": null, "extra": {"uid": "10044780", "number": "53152", "bike_uids": [], "virtual": false}}, {"id": "e9203ab3d04e41e7b168119db71f5510", "name": "Wachtberg - Niederbachem", "latitude": 50.643634, "longitude": 7.181148, "timestamp": "2025-05-03T03:12:37.711406+00:00Z", "free_bikes": 0, "empty_slots": null, "extra": {"uid": "119455033", "number": "53197", "bike_uids": [], "virtual": false}}, {"id": "ec6f32e384c5a76885889bab5b7a2fb4", "name": "Bonn Information", "latitude": 50.73433, "longitude": 7.097629, "timestamp": "2025-05-03T03:12:37.710256+00:00Z", "free_bikes": 0, "empty_slots": null, "extra": {"uid": "10044458", "number": "53138", "bike_uids": [], "virtual": false}}, {"id": "ee003199fc8017f33335433fc5f69277", "name": "Wurzer Stra\u00dfe", "latitude": 50.691768, "longitude": 7.148076, "timestamp": "2025-05-03T03:12:37.711060+00:00Z", "free_bikes": 0, "empty_slots": null, "extra": {"uid": "10059319", "number": "53178", "bike_uids": [], "virtual": false}}, {"id": "f04e11220c14fc1a18dea08a44fe1544", "name": "Bahnhof Oberkassel", "latitude": 50.71461, "longitude": 7.160082, "timestamp": "2025-05-03T03:12:37.710124+00:00Z", "free_bikes": 3, "empty_slots": null, "extra": {"uid": "10044296", "number": "53132", "bike_uids": ["44734", "44567", "45867"], "virtual": false}}, {"id": "f1b9e81c389981660c84cbbc80a36b87", "name": "Bundesrechnungshof", "latitude": 50.725994, "longitude": 7.111225, "timestamp": "2025-05-03T03:12:37.710706+00:00Z", "free_bikes": 1, "empty_slots": null, "extra": {"uid": "10044687", "number": "53147", "bike_uids": ["44799"], "virtual": false}}, {"id": "f1e4bd995e01db9965a26f770303353e", "name": "Paul-Sch\u00fcrmann-Platz (Bonn)", "latitude": 50.773851, "longitude": 7.092276, "timestamp": "2025-05-03T03:12:37.711695+00:00Z", "free_bikes": 0, "empty_slots": null, "extra": {"uid": "193726026", "number": "53246", "bike_uids": [], "virtual": false}}, {"id": "f7086222661bc874ab4c15a6f8220f27", "name": "Hochkreuz", "latitude": 50.697096, "longitude": 7.141677, "timestamp": "2025-05-03T03:12:37.710680+00:00Z", "free_bikes": 1, "empty_slots": null, "extra": {"uid": "10044675", "number": "53172", "bike_uids": ["45718"], "virtual": false}}, {"id": "fa9b358615ca4559fba8644f51227bdd", "name": "SWB Haupteingang", "latitude": 50.739942, "longitude": 7.103106, "timestamp": "2025-05-03T03:12:37.711269+00:00Z", "free_bikes": 0, "empty_slots": null, "extra": {"uid": "10478976", "number": "53186", "bike_uids": [], "virtual": false}}, {"id": "fd0f490c2fae28ba51cf1593598346f9", "name": "Hangelar Mitte - BONN", "latitude": 50.759858, "longitude": 7.16536, "timestamp": "2025-05-03T03:12:37.711390+00:00Z", "free_bikes": 0, "empty_slots": null, "extra": {"uid": "119453027", "number": "53195", "bike_uids": [], "virtual": false}}, {"id": "fd273076c2bb794db85a2add4952e080", "name": "Konrad-Adenauer-Platz", "latitude": 50.739524, "longitude": 7.117767, "timestamp": "2025-05-03T03:12:37.711326+00:00Z", "free_bikes": 2, "empty_slots": null, "extra": {"uid": "16804329", "number": "53191", "bike_uids": ["44613", "45442"], "virtual": false}}]}