{"id": "nextbike-dvur-kralove", "name": "nextbike Dv\u016fr Kr\u00e1lov\u00e9", "location": {"latitude": 50.4278, "longitude": 15.8162, "city": "Dv\u016fr Kr\u00e1lov\u00e9", "country": "CZ"}, "href": "/v2/networks/nextbike-dvur-kralove", "company": ["Nextbike GmbH"], "system": "Nextbike", "stations": [{"id": "05d0d4a53349f176fd00ca8a56a4b767", "name": "N\u00e1m\u011bst\u00ed V. Hanky", "latitude": 50.430719, "longitude": 15.811793, "timestamp": "2025-05-03T03:15:40.351846+00:00Z", "free_bikes": 6, "empty_slots": null, "extra": {"uid": "78685817", "number": "49045", "bike_uids": ["489132", "489118", "489115", "489110", "489094", "489086"], "virtual": false}}, {"id": "0e561eeaa9b0489df352b5b5bed8098f", "name": "Vorlech", "latitude": 50.44272, "longitude": 15.80808, "timestamp": "2025-05-03T03:15:40.352216+00:00Z", "free_bikes": 4, "empty_slots": null, "extra": {"uid": "522284268", "number": "49056", "bike_uids": ["489128", "489106", "489096", "489071"], "virtual": false}}, {"id": "1369fddf6cdc9afe0d4ca48cadc7e0f5", "name": "S\u00eddli\u0161t\u011b Str\u017e", "latitude": 50.436884, "longitude": 15.805895, "timestamp": "2025-05-03T03:15:40.351769+00:00Z", "free_bikes": 8, "empty_slots": null, "extra": {"uid": "78685338", "number": "49040", "bike_uids": ["489125", "489107", "489103", "489098", "489090", "489088", "489045", "489366"], "virtual": false}}, {"id": "167f2a5636960b1bc82d448aa1764be1", "name": "Smetanova, d\u011btsk\u00e9 h\u0159i\u0161t\u011b", "latitude": 50.42227, "longitude": 15.80102, "timestamp": "2025-05-03T03:15:40.352256+00:00Z", "free_bikes": 0, "empty_slots": null, "extra": {"uid": "522286740", "number": "49064", "bike_uids": [], "virtual": false}}, {"id": "24f9e9d76d7f95dd121340cb719fe382", "name": "\u017dire\u010d", "latitude": 50.413088, "longitude": 15.85265, "timestamp": "2025-05-03T03:15:40.352134+00:00Z", "free_bikes": 1, "empty_slots": null, "extra": {"uid": "104996762", "number": "49055", "bike_uids": ["489409"], "virtual": false}}, {"id": "3320d39d8a98c0b5602a1b96e12f815e", "name": "H\u0159i\u0161t\u011b \u2013 Slune\u010dn\u00e1", "latitude": 50.441766, "longitude": 15.818022, "timestamp": "2025-05-03T03:15:40.351958+00:00Z", "free_bikes": 4, "empty_slots": null, "extra": {"uid": "78686114", "number": "49048", "bike_uids": ["489121", "489119", "489398", "485434"], "virtual": false}}, {"id": "5ec5347e316e01eca836972b821b31a9", "name": "N\u00e1m\u011bst\u00ed Republiky", "latitude": 50.433665, "longitude": 15.813831, "timestamp": "2025-05-03T03:15:40.351892+00:00Z", "free_bikes": 1, "empty_slots": null, "extra": {"uid": "78685949", "number": "49047", "bike_uids": ["489080"], "virtual": false}}, {"id": "670cd04061cab760f333b0304969fa38", "name": "Na neb\u00ed\u010dku", "latitude": 50.438375, "longitude": 15.816451, "timestamp": "2025-05-03T03:15:40.352150+00:00Z", "free_bikes": 3, "empty_slots": null, "extra": {"uid": "431111005", "number": "49118", "bike_uids": ["489407", "489402", "489396"], "virtual": false}}, {"id": "672ebff67e259dd4f00283e8f6e343a5", "name": "Tyr\u0161ova, bus", "latitude": 50.44285, "longitude": 15.82143, "timestamp": "2025-05-03T03:15:40.352198+00:00Z", "free_bikes": 4, "empty_slots": null, "extra": {"uid": "522283578", "number": "49042", "bike_uids": ["489091", "489085", "489084", "489413"], "virtual": false}}, {"id": "678f5ea18bba4b2e07fd4f1495da45fc", "name": "SPO\u0160, Muzeum textilu", "latitude": 50.43255, "longitude": 15.810527, "timestamp": "2025-05-03T03:15:40.352050+00:00Z", "free_bikes": 3, "empty_slots": null, "extra": {"uid": "78687567", "number": "49050", "bike_uids": ["489134", "489109", "489083"], "virtual": false}}, {"id": "6fa9d74dbd1b647f21c1dba935098d0b", "name": "U \u017di\u017ekova", "latitude": 50.431405, "longitude": 15.824264, "timestamp": "2025-05-03T03:15:40.352166+00:00Z", "free_bikes": 1, "empty_slots": null, "extra": {"uid": "431111795", "number": "49119", "bike_uids": ["489105"], "virtual": false}}, {"id": "704107d42514fe1851140813abc94cb6", "name": "N\u00e1m\u011bst\u00ed TGM", "latitude": 50.431807, "longitude": 15.813597, "timestamp": "2025-05-03T03:15:40.351831+00:00Z", "free_bikes": 0, "empty_slots": null, "extra": {"uid": "78685597", "number": "49044", "bike_uids": [], "virtual": false}}, {"id": "76994857254b16014b9475924d9c5afc", "name": "Tyr\u0161ovo koupali\u0161t\u011b", "latitude": 50.429577, "longitude": 15.800041, "timestamp": "2025-05-03T03:15:40.351793+00:00Z", "free_bikes": 1, "empty_slots": null, "extra": {"uid": "78685413", "number": "49041", "bike_uids": ["489117"], "virtual": false}}, {"id": "8b60c7bf82d6db103679541b1dfa417f", "name": "Z\u0160 5. kv\u011btna", "latitude": 50.422266, "longitude": 15.806441, "timestamp": "2025-05-03T03:15:40.351687+00:00Z", "free_bikes": 5, "empty_slots": null, "extra": {"uid": "78685125", "number": "49037", "bike_uids": ["489123", "489087", "489053", "489369", "485442"], "virtual": false}}, {"id": "9c2b562e58ff5d176d79625028a39e5d", "name": "Podhar\u0165 - M\u00e1chova (+15 minut na p\u0159\u00edjezd)", "latitude": 50.443389, "longitude": 15.815036, "timestamp": "2025-05-03T03:15:40.352019+00:00Z", "free_bikes": 2, "empty_slots": null, "extra": {"uid": "78687487", "number": "49049", "bike_uids": ["489113", "489095"], "virtual": false}}, {"id": "9d67e49367dc30eb106bd3c53ab0b421", "name": "M\u011bstsk\u00e1 \u010d\u00e1st Lipnice", "latitude": 50.421785, "longitude": 15.787051, "timestamp": "2025-05-03T03:15:40.351723+00:00Z", "free_bikes": 3, "empty_slots": null, "extra": {"uid": "78685196", "number": "49038", "bike_uids": ["489129", "489122", "489092"], "virtual": false}}, {"id": "b9344e7a70c53b65e32dc3145ec0918e", "name": "Nad o\u010dn\u00ed \u0161kolou ", "latitude": 50.43704, "longitude": 15.81949, "timestamp": "2025-05-03T03:15:40.352182+00:00Z", "free_bikes": 3, "empty_slots": null, "extra": {"uid": "431112364", "number": "49120", "bike_uids": ["489124", "489111", "489368"], "virtual": false}}, {"id": "c456ccbd6ed9789b024692b734280200", "name": "Jaroslava Biliny \u2013 Berl\u00ednek", "latitude": 50.432112, "longitude": 15.807005, "timestamp": "2025-05-03T03:15:40.352071+00:00Z", "free_bikes": 3, "empty_slots": null, "extra": {"uid": "78687938", "number": "49051", "bike_uids": ["489127", "489099", "489097"], "virtual": false}}, {"id": "ca2b4bd9ffb50534bf7edec65e8b2722", "name": "Pod m\u011bstskou nemocnic\u00ed", "latitude": 50.4478, "longitude": 15.81495, "timestamp": "2025-05-03T03:15:40.352235+00:00Z", "free_bikes": 1, "empty_slots": null, "extra": {"uid": "522285519", "number": "49063", "bike_uids": ["489100"], "virtual": false}}, {"id": "cc67fde6b2e224067c6f411f912d6131", "name": "Sylv\u00e1rov", "latitude": 50.418406, "longitude": 15.814112, "timestamp": "2025-05-03T03:15:40.352114+00:00Z", "free_bikes": 10, "empty_slots": null, "extra": {"uid": "104996679", "number": "49054", "bike_uids": ["489120", "489116", "489108", "489101", "489082", "489081", "489040", "489410", "489406", "489403"], "virtual": false}}, {"id": "cf34d773bb1fb97b04ead24a27f58d92", "name": "ZOO", "latitude": 50.435022, "longitude": 15.799026, "timestamp": "2025-05-03T03:15:40.351748+00:00Z", "free_bikes": 3, "empty_slots": null, "extra": {"uid": "78685267", "number": "49039", "bike_uids": ["489112", "489089", "489058"], "virtual": false}}, {"id": "d27c98d67a0c387a82fa7cb2f6eb2c6d", "name": "Park Schulzovy sady", "latitude": 50.434261, "longitude": 15.820763, "timestamp": "2025-05-03T03:15:40.351813+00:00Z", "free_bikes": 2, "empty_slots": null, "extra": {"uid": "78685477", "number": "49043", "bike_uids": ["489126", "489104"], "virtual": false}}, {"id": "d96890111d283825ac0e6f1603f06152", "name": "Autobusov\u00e9 n\u00e1dra\u017e\u00ed", "latitude": 50.428522, "longitude": 15.816855, "timestamp": "2025-05-03T03:15:40.351869+00:00Z", "free_bikes": 1, "empty_slots": null, "extra": {"uid": "78685898", "number": "49046", "bike_uids": ["489131"], "virtual": false}}, {"id": "e1a6a4d3a1c885b717265c69e710b7cd", "name": "n\u00e1m. Denisovo", "latitude": 50.425408, "longitude": 15.8136, "timestamp": "2025-05-03T03:15:40.352093+00:00Z", "free_bikes": 2, "empty_slots": null, "extra": {"uid": "104996604", "number": "49053", "bike_uids": ["489133", "489130"], "virtual": false}}, {"id": "eea420927d3ab92b96ea31fc712f1fe9", "name": "N\u00e1dra\u017e\u00ed \u010cD (+15 minut na p\u0159\u00edjezd)", "latitude": 50.413948, "longitude": 15.798081, "timestamp": "2025-05-03T03:15:40.351656+00:00Z", "free_bikes": 0, "empty_slots": 4, "extra": {"uid": "78684741", "number": "49036", "slots": 4, "bike_uids": [], "virtual": false}}]}