{"id": "nextbike-norderstedt", "name": "Nextbike", "location": {"latitude": 53.6969, "longitude": 10.002, "city": "Norderstedt", "country": "DE"}, "href": "/v2/networks/nextbike-norderstedt", "company": ["Nextbike GmbH"], "system": "Nextbike", "stations": [{"id": "002f57a29538d654fc007320d0bca61f", "name": "Glash\u00fctte, Markt ", "latitude": 53.687879, "longitude": 10.036901, "timestamp": "2025-05-03T03:15:35.404219+00:00Z", "free_bikes": 5, "empty_slots": 5, "extra": {"uid": "66576", "number": "4723", "slots": 10, "bike_uids": ["35116", "35043", "35162", "35159", "200041"], "virtual": false}}, {"id": "1c7e1bcba431e0f8527db590ee4e2ef3", "name": "Stadtpark", "latitude": 53.71324, "longitude": 10.018646, "timestamp": "2025-05-03T03:15:35.404255+00:00Z", "free_bikes": 1, "empty_slots": null, "extra": {"uid": "66681", "number": "4725", "bike_uids": ["35087"], "virtual": false}}, {"id": "1e42a8498380ad9fffd1efa9e3a1007f", "name": "Herold Center", "latitude": 53.68441, "longitude": 9.984925, "timestamp": "2025-05-03T03:15:35.404296+00:00Z", "free_bikes": 1, "empty_slots": null, "extra": {"uid": "66684", "number": "4724", "bike_uids": ["35155"], "virtual": false}}, {"id": "340deba4de4ee6edd5719a6662e04be5", "name": "Harksheider Markt", "latitude": 53.704586, "longitude": 10.008845, "timestamp": "2025-05-03T03:15:35.404193+00:00Z", "free_bikes": 0, "empty_slots": 8, "extra": {"uid": "66552", "number": "4721", "slots": 9, "bike_uids": [], "virtual": false}}, {"id": "347b572747d4f3132db12902c935b6b6", "name": "Ulzburger Str. / Glash\u00fctter Weg", "latitude": 53.715879, "longitude": 9.999951, "timestamp": "2025-05-03T03:15:35.404327+00:00Z", "free_bikes": 3, "empty_slots": 7, "extra": {"uid": "238457", "number": "4730", "slots": 10, "bike_uids": ["35119", "35090", "200123"], "virtual": false}}, {"id": "34dfed98bd79bf66146d4e41adaaadd1", "name": "Buckh\u00f6rner Moor", "latitude": 53.704753, "longitude": 9.984644, "timestamp": "2025-05-03T03:15:35.404496+00:00Z", "free_bikes": 11, "empty_slots": 0, "extra": {"uid": "74510638", "number": "4719", "slots": 5, "bike_uids": ["35146", "35117", "35085", "35069", "35057", "200104", "200095", "200076", "200061", "200058", "200057"], "virtual": false}}, {"id": "3ea4e53946977cc36d3414f940f127cc", "name": "Hogenfelde / Ochsenzoller Stra\u00dfe", "latitude": 53.681643, "longitude": 9.979679, "timestamp": "2025-05-03T03:15:35.404431+00:00Z", "free_bikes": 10, "empty_slots": 0, "extra": {"uid": "492390", "number": "4734", "slots": 8, "bike_uids": ["35143", "35122", "35103", "35088", "35064", "35060", "35165", "200116", "200096", "200065"], "virtual": false}}, {"id": "4249e619bea28b413b891cf19fe18599", "name": "Albert-Schweitzer-Stra\u00dfe", "latitude": 53.723079, "longitude": 10.00514, "timestamp": "2025-05-03T03:15:35.404582+00:00Z", "free_bikes": 7, "empty_slots": 0, "extra": {"uid": "466777304", "number": "4740", "slots": 5, "bike_uids": ["35049", "35166", "200072", "200069", "200068", "200035", "200025"], "virtual": false}}, {"id": "5b781e476240399746adcfb6c5bfe8da", "name": "Waldstra\u00dfe", "latitude": 53.712712, "longitude": 9.990276, "timestamp": "2025-05-03T03:15:35.404540+00:00Z", "free_bikes": 10, "empty_slots": 0, "extra": {"uid": "101392060", "number": "4718", "slots": 6, "bike_uids": ["35111", "35109", "35075", "35056", "35042", "35040", "35030", "35025", "35161", "200078"], "virtual": false}}, {"id": "5c1f93503d9119b1b89c262bc9b368d5", "name": "Feuerwehrmuseum", "latitude": 53.703094, "longitude": 9.979804, "timestamp": "2025-05-03T03:15:35.404407+00:00Z", "free_bikes": 21, "empty_slots": 0, "extra": {"uid": "319413", "number": "4729", "slots": 10, "bike_uids": ["35142", "35135", "35130", "35128", "35124", "35105", "35102", "35101", "35096", "35080", "35074", "35170", "35156", "200109", "200108", "200106", "200067", "200056", "200040", "200037", "200002"], "virtual": false}}, {"id": "6cc7575dc51c07d32afe2a7e6b62dbca", "name": "Johnson/Johnson", "latitude": 53.686666, "longitude": 10.046037, "timestamp": "2025-05-03T03:15:35.404519+00:00Z", "free_bikes": 4, "empty_slots": 6, "extra": {"uid": "80593712", "number": "4735", "slots": 10, "bike_uids": ["35147", "35152", "35125", "35095"], "virtual": false}}, {"id": "7a6f6abafbf84115bf32c926459ccd51", "name": "Richtweg", "latitude": 53.69599, "longitude": 9.98945, "timestamp": "2025-05-03T03:15:35.404367+00:00Z", "free_bikes": 9, "empty_slots": 1, "extra": {"uid": "262106", "number": "4732", "slots": 10, "bike_uids": ["35081", "35045", "35038", "35173", "35168", "200055", "200045", "200023", "200015"], "virtual": false}}, {"id": "95d6f99f6fa3d16ce0cbc6b9115d8b9b", "name": "Schmuggelstieg", "latitude": 53.68238, "longitude": 9.99855, "timestamp": "2025-05-03T03:15:35.404347+00:00Z", "free_bikes": 9, "empty_slots": 1, "extra": {"uid": "254785", "number": "4731", "slots": 10, "bike_uids": ["35137", "35034", "35175", "200094", "200093", "200084", "200079", "200024", "200013"], "virtual": false}}, {"id": "b41643869f194937b1b7a87776cba13c", "name": "Strandkorbsiedlung", "latitude": 53.733744, "longitude": 10.006387, "timestamp": "2025-05-03T03:15:35.404387+00:00Z", "free_bikes": 7, "empty_slots": 0, "extra": {"uid": "319412", "number": "4728", "slots": 7, "bike_uids": ["35132", "35058", "35041", "200112", "200088", "200073", "200033"], "virtual": false}}, {"id": "b605d0e6d2d56b6006b5fb6d9b21f66e", "name": "Quickborner Str.", "latitude": 53.734158, "longitude": 9.989464, "timestamp": "2025-05-03T03:15:35.404275+00:00Z", "free_bikes": 7, "empty_slots": 8, "extra": {"uid": "66682", "number": "4726", "slots": 15, "bike_uids": ["35134", "35133", "35110", "35094", "35171", "35179", "200063"], "virtual": false}}, {"id": "bc6909444f5bb83dfec9d2aeab69af95", "name": "Friedrichsgaber Weg / Neue L\u00fcbecker", "latitude": 53.717736, "longitude": 9.987597, "timestamp": "2025-05-03T03:15:35.404562+00:00Z", "free_bikes": 8, "empty_slots": 0, "extra": {"uid": "209171746", "number": "4738", "slots": 5, "bike_uids": ["35112", "35100", "35083", "35051", "35050", "200087", "200071", "200009"], "virtual": false}}, {"id": "c37c59461bec6ff6d2a334e0ebfa5572", "name": "Segeberger Chaussee", "latitude": 53.685608, "longitude": 10.023217, "timestamp": "2025-05-03T03:15:35.404476+00:00Z", "free_bikes": 4, "empty_slots": 0, "extra": {"uid": "4392971", "number": "4737", "slots": 4, "bike_uids": ["35066", "35178", "200074", "200059"], "virtual": false}}, {"id": "ccd092ea238c8a4e946f16af00c000ac", "name": "Bahnhofstr. / Erlengang", "latitude": 53.727361, "longitude": 9.997203, "timestamp": "2025-05-03T03:15:35.404451+00:00Z", "free_bikes": 21, "empty_slots": 0, "extra": {"uid": "3328739", "number": "4736", "slots": 4, "bike_uids": ["35154", "35141", "35123", "35089", "35079", "35067", "35063", "35039", "35174", "35160", "200117", "200110", "200099", "200097", "200085", "200082", "200075", "200066", "200032", "200028", "200001"], "virtual": false}}, {"id": "ea2cece1cf49ed107ce0da27986f5361", "name": "Arriba Erlebnisbad", "latitude": 53.689677, "longitude": 9.999619, "timestamp": "2025-05-03T03:15:35.404312+00:00Z", "free_bikes": 0, "empty_slots": 7, "extra": {"uid": "92292", "number": "4727", "slots": 8, "bike_uids": [], "virtual": false}}]}