{"id": "nextbike-trutnov", "name": "nextbike Trutnov", "location": {"latitude": 50.5616, "longitude": 15.9126, "city": "Trutnov", "country": "CZ"}, "href": "/v2/networks/nextbike-trutnov", "company": ["Nextbike GmbH"], "system": "Nextbike", "stations": [{"id": "037d78809fc2f1026267b931d25db369", "name": "Plaveck\u00fd baz\u00e9n Trutnov", "latitude": 50.56254, "longitude": 15.92134, "timestamp": "2025-05-03T03:15:43.410795+00:00Z", "free_bikes": 1, "empty_slots": null, "extra": {"uid": "379611438", "number": "46958", "bike_uids": ["488733"], "virtual": false}}, {"id": "05089c2b36d97a299e14ca3d225b1af3", "name": "Nemocnice Trutnov", "latitude": 50.56067, "longitude": 15.91977, "timestamp": "2025-05-03T03:15:43.410781+00:00Z", "free_bikes": 0, "empty_slots": null, "extra": {"uid": "379611319", "number": "46957", "bike_uids": [], "virtual": false}}, {"id": "05883afc091bc05c2f7a8c6c43fde048", "name": "Autobusov\u00e9 n\u00e1dra\u017e\u00ed Trutnov", "latitude": 50.56443, "longitude": 15.90931, "timestamp": "2025-05-03T03:15:43.410719+00:00Z", "free_bikes": 0, "empty_slots": null, "extra": {"uid": "379610203", "number": "46951", "bike_uids": [], "virtual": false}}, {"id": "0c759b75450269983255b2f6aff439f7", "name": "Dvora\u010dka", "latitude": 50.57559, "longitude": 15.91343, "timestamp": "2025-05-03T03:15:43.410976+00:00Z", "free_bikes": 12, "empty_slots": null, "extra": {"uid": "379613625", "number": "46969", "bike_uids": ["489074", "489072", "489069", "489066", "489059", "489057", "489054", "489051", "489046", "488747", "488735", "485422"], "virtual": false}}, {"id": "25a7bef452d9c9aedc99c31cc16d4713", "name": "L\u00edpov\u00e9 n\u00e1m\u011bst\u00ed, Po\u0159\u00ed\u010d\u00ed", "latitude": 50.57354, "longitude": 15.9494, "timestamp": "2025-05-03T03:15:43.411015+00:00Z", "free_bikes": 3, "empty_slots": null, "extra": {"uid": "379614982", "number": "46964", "bike_uids": ["489062", "488723", "485429"], "virtual": false}}, {"id": "302d7e9081825fc7773b75c0fddbfff5", "name": "M\u011bstsk\u00fd h\u0159bitov Trutnov", "latitude": 50.55547, "longitude": 15.90389, "timestamp": "2025-05-03T03:15:43.411053+00:00Z", "free_bikes": 4, "empty_slots": null, "extra": {"uid": "458671106", "number": "46975", "bike_uids": ["489068", "489052", "489043", "485402"], "virtual": false}}, {"id": "35559e3a4c53e152a973298391262f01", "name": "U Stadionu, Patria", "latitude": 50.5651, "longitude": 15.92599, "timestamp": "2025-05-03T03:15:43.410844+00:00Z", "free_bikes": 1, "empty_slots": null, "extra": {"uid": "379611665", "number": "46961", "bike_uids": ["489065"], "virtual": false}}, {"id": "3fc1a9fa0c2dd18116ebef9a064fab16", "name": "Krakono\u0161ovo n\u00e1m\u011bst\u00ed", "latitude": 50.56068, "longitude": 15.91247, "timestamp": "2025-05-03T03:15:43.410735+00:00Z", "free_bikes": 0, "empty_slots": null, "extra": {"uid": "379610370", "number": "46952", "bike_uids": [], "virtual": false}}, {"id": "41fa9b29aca9a6cad45fde6873f28c80", "name": "Horsk\u00e1, h\u0159i\u0161t\u011b", "latitude": 50.58668, "longitude": 15.88629, "timestamp": "2025-05-03T03:15:43.410935+00:00Z", "free_bikes": 6, "empty_slots": null, "extra": {"uid": "379612887", "number": "46967", "bike_uids": ["489048", "489041", "488728", "485441", "485435", "485427"], "virtual": false}}, {"id": "555474383720ee52390ef6dcb07dfe61", "name": "\u0160estidom\u00ed - Rub\u00edn", "latitude": 50.56781, "longitude": 15.90159, "timestamp": "2025-05-03T03:15:43.410902+00:00Z", "free_bikes": 3, "empty_slots": null, "extra": {"uid": "379612015", "number": "46965", "bike_uids": ["489079", "489049", "488737"], "virtual": false}}, {"id": "55e83c088a50cbdf1450ac38c0275a4d", "name": "Horsk\u00e1, Zelen\u00e1 Louka", "latitude": 50.58161, "longitude": 15.89128, "timestamp": "2025-05-03T03:15:43.410956+00:00Z", "free_bikes": 5, "empty_slots": null, "extra": {"uid": "379613386", "number": "46968", "bike_uids": ["489078", "489061", "489060", "489056", "488730"], "virtual": false}}, {"id": "5e28a528c425d52bbe229ae73abdb092", "name": "Jir\u00e1skovo n\u00e1m\u011bst\u00ed", "latitude": 50.56532, "longitude": 15.91691, "timestamp": "2025-05-03T03:15:43.410830+00:00Z", "free_bikes": 0, "empty_slots": null, "extra": {"uid": "379611604", "number": "46960", "bike_uids": [], "virtual": false}}, {"id": "6b532d113357681fe2650f5904ef4948", "name": "M\u011bstsk\u00fd \u00fa\u0159ad Trutnov", "latitude": 50.56168, "longitude": 15.91562, "timestamp": "2025-05-03T03:15:43.410750+00:00Z", "free_bikes": 1, "empty_slots": null, "extra": {"uid": "379611162", "number": "46956", "bike_uids": ["489077"], "virtual": false}}, {"id": "6bcfbca27fbeffd3fe407020dacdd289", "name": "Promen\u00e1da, obchodn\u00ed akademie", "latitude": 50.56317, "longitude": 15.91348, "timestamp": "2025-05-03T03:15:43.410921+00:00Z", "free_bikes": 0, "empty_slots": null, "extra": {"uid": "379612186", "number": "46966", "bike_uids": [], "virtual": false}}, {"id": "74ff442ed5d436c7c3638b6bfd591339", "name": "Maxima Gork\u00e9ho", "latitude": 50.56029, "longitude": 15.92622, "timestamp": "2025-05-03T03:15:43.410864+00:00Z", "free_bikes": 3, "empty_slots": null, "extra": {"uid": "379611759", "number": "46962", "bike_uids": ["489070", "489063", "485419"], "virtual": false}}, {"id": "7b0a9637732e26bfb8eebb52835aca1b", "name": "Dolce", "latitude": 50.54563, "longitude": 15.86926, "timestamp": "2025-05-03T03:15:43.410997+00:00Z", "free_bikes": 1, "empty_slots": null, "extra": {"uid": "379613865", "number": "46970", "bike_uids": ["489044"], "virtual": false}}, {"id": "82f79d747391ab191d4c36d91335de3c", "name": "Z\u0160 V Domc\u00edch", "latitude": 50.56442, "longitude": 15.89986, "timestamp": "2025-05-03T03:15:43.411034+00:00Z", "free_bikes": 2, "empty_slots": null, "extra": {"uid": "458670939", "number": "46974", "bike_uids": ["488738", "485420"], "virtual": false}}, {"id": "86b435b07f5ccead64a453489648b592", "name": "Volanov", "latitude": 50.55907, "longitude": 15.87873, "timestamp": "2025-05-03T03:15:43.411071+00:00Z", "free_bikes": 3, "empty_slots": null, "extra": {"uid": "458671229", "number": "46976", "bike_uids": ["489067", "485413", "485401"], "virtual": false}}, {"id": "9c89f4c1dd43d6d6d26043e2bdc59b36", "name": "Vlakov\u00e9 n\u00e1dra\u017e\u00ed Trutnov", "latitude": 50.5649, "longitude": 15.91089, "timestamp": "2025-05-03T03:15:43.410692+00:00Z", "free_bikes": 0, "empty_slots": null, "extra": {"uid": "379610029", "number": "46950", "bike_uids": [], "virtual": false}}, {"id": "ea7dc364d67fadb774d4d673fe7aa693", "name": "Texlen, Horsk\u00e1", "latitude": 50.56995, "longitude": 15.90075, "timestamp": "2025-05-03T03:15:43.410884+00:00Z", "free_bikes": 1, "empty_slots": null, "extra": {"uid": "379611840", "number": "46963", "bike_uids": ["488741"], "virtual": false}}, {"id": "f00f074d7f1f4ed7d0aabb4566cdb66c", "name": "Z\u0160 Komensk\u00e9ho", "latitude": 50.55936, "longitude": 15.89965, "timestamp": "2025-05-03T03:15:43.410817+00:00Z", "free_bikes": 0, "empty_slots": null, "extra": {"uid": "379611511", "number": "46959", "bike_uids": [], "virtual": false}}]}