{"id": "nextbike-erfurt", "name": "Nextbike", "location": {"latitude": 50.9785, "longitude": 11.0334, "city": "Erfurt", "country": "DE"}, "href": "/v2/networks/nextbike-erfurt", "company": ["Nextbike GmbH"], "stations": [{"id": "2e1815bf3e1c9f284bf06e0abbeec702", "name": "FH LGF", "latitude": 50.99143, "longitude": 11.05469, "timestamp": "2023-08-14T06:41:18.906Z", "free_bikes": 0, "empty_slots": null, "extra": {"uid": "8221058", "bike_uids": [""], "number": "5748"}}, {"id": "300b54a02044e5afdf732da2e093eadb", "name": "FH Hauptcampus", "latitude": 50.984397, "longitude": 11.043545, "timestamp": "2023-08-14T06:41:18.903Z", "free_bikes": 0, "empty_slots": null, "extra": {"uid": "8220994", "bike_uids": [""], "number": "5747"}}, {"id": "6408ebc897e64ae452376f4343edaf5a", "name": "Event-Station Zughafen", "latitude": 50.974511, "longitude": 11.047928, "timestamp": "2023-08-14T06:41:18.906Z", "free_bikes": 0, "empty_slots": null, "extra": {"uid": "51413296", "bike_uids": [""], "number": "5750"}}, {"id": "65c8d792389ef5080dbbad88cc13661b", "name": "FH Schl\u00fcterstra\u00dfe", "latitude": 50.985461, "longitude": 11.02419, "timestamp": "2023-08-14T06:41:18.903Z", "free_bikes": 0, "empty_slots": null, "extra": {"uid": "8221000", "bike_uids": [""], "number": "5749"}}, {"id": "6a7aa9793cbd1ec933e7ddb7e9c9df8c", "name": "Domplatz", "latitude": 50.977284, "longitude": 11.02272, "timestamp": "2023-08-14T06:41:18.905Z", "free_bikes": 0, "empty_slots": null, "extra": {"uid": "8221048", "bike_uids": [""], "number": "5745"}}, {"id": "91916acd36925954b42c192700edb33d", "name": "Hirschgarten", "latitude": 50.97317, "longitude": 11.02897, "timestamp": "2023-08-14T06:41:18.900Z", "free_bikes": 0, "empty_slots": null, "extra": {"uid": "8220300", "bike_uids": [""], "number": "5743"}}, {"id": "9f617641149a4392d520e3d892158153", "name": "Hirschlachufer / M\u00fchlgasse", "latitude": 50.97487, "longitude": 11.03418, "timestamp": "2023-08-14T06:41:18.899Z", "free_bikes": 0, "empty_slots": null, "extra": {"uid": "8220277", "bike_uids": [""], "number": "5742"}}, {"id": "af8f072e4898dd2794eb83b8717cffdb", "name": "Hbf. S\u00fcd", "latitude": 50.97161, "longitude": 11.03904, "timestamp": "2023-08-14T06:41:18.897Z", "free_bikes": 0, "empty_slots": null, "extra": {"uid": "8220234", "bike_uids": [""], "number": "5740"}}, {"id": "bfd6003c3b45f19a257505b7ba6832d8", "name": "Kr\u00e4mpfertor", "latitude": 50.978811, "longitude": 11.036839, "timestamp": "2023-08-14T06:41:18.901Z", "free_bikes": 0, "empty_slots": null, "extra": {"uid": "8220318", "bike_uids": [""], "number": "5744"}}, {"id": "c433cf056df7bb861376d822207e1b79", "name": "Am Stadtgarten", "latitude": 50.97186, "longitude": 11.024437, "timestamp": "2023-08-14T06:41:18.902Z", "free_bikes": 0, "empty_slots": null, "extra": {"uid": "8220330", "bike_uids": [""], "number": "5746"}}, {"id": "e9a6076ee4b3b19b2e805adcce175572", "name": "Hbf. Nord", "latitude": 50.9737, "longitude": 11.03769, "timestamp": "2023-08-14T06:41:18.904Z", "free_bikes": 0, "empty_slots": null, "extra": {"uid": "8221036", "bike_uids": [""], "number": "5741"}}]}