{"id": "nextbike-dusseldorf", "name": "Nextbike", "location": {"latitude": 51.2243, "longitude": 6.77204, "city": "D\u00fcsseldorf", "country": "DE"}, "href": "/v2/networks/nextbike-dusseldorf", "company": ["Nextbike GmbH"], "system": "Nextbike", "stations": [{"id": "003ccaec1da528988c2b8d5c9f245490", "name": "Medienhafen", "latitude": 51.212949, "longitude": 6.752418, "timestamp": "2025-05-03T03:15:32.672103+00:00Z", "free_bikes": 0, "empty_slots": null, "extra": {"uid": "2008", "number": "5039", "bike_uids": [], "virtual": false}}, {"id": "006eafc6795b88e4645c1bddad74f2e8", "name": "Berliner Allee II", "latitude": 51.221269, "longitude": 6.781982, "timestamp": "2025-05-03T03:15:32.673432+00:00Z", "free_bikes": 1, "empty_slots": null, "extra": {"uid": "248533482", "number": "4773", "bike_uids": ["31023"], "virtual": false}}, {"id": "01c15b6e1900344ab5fb2c0261742010", "name": "Oberbilker Markt", "latitude": 51.21639, "longitude": 6.803568, "timestamp": "2025-05-03T03:15:32.672062+00:00Z", "free_bikes": 3, "empty_slots": null, "extra": {"uid": "1997", "number": "5028", "bike_uids": ["303362", "31037", "302974"], "virtual": false}}, {"id": "023f1156bb551ca18776f5d79805f399", "name": "Karl-Anton-Stra\u00dfe II", "latitude": 51.225371, "longitude": 6.794599, "timestamp": "2025-05-03T03:15:32.673528+00:00Z", "free_bikes": 1, "empty_slots": null, "extra": {"uid": "248555703", "number": "4785", "bike_uids": ["31618"], "virtual": false}}, {"id": "02677109f468d20be082980867d8b3af", "name": "Staufenplatz III", "latitude": 51.240822, "longitude": 6.825639, "timestamp": "2025-05-03T03:15:32.674637+00:00Z", "free_bikes": 0, "empty_slots": null, "extra": {"uid": "501443830", "number": "54502", "bike_uids": [], "virtual": false}}, {"id": "029917e67fda2fba4a464a8996953456", "name": "Drususstra\u00dfe", "latitude": 51.231236, "longitude": 6.73817, "timestamp": "2025-05-03T03:15:32.674456+00:00Z", "free_bikes": 0, "empty_slots": null, "extra": {"uid": "491231515", "number": "4876", "bike_uids": [], "virtual": false}}, {"id": "0415eaf0851b6b0e993d9777004a39ee", "name": "Worringerstra\u00dfe III", "latitude": 51.225479, "longitude": 6.79617, "timestamp": "2025-05-03T03:15:32.673591+00:00Z", "free_bikes": 5, "empty_slots": null, "extra": {"uid": "248562909", "number": "4791", "bike_uids": ["31141", "31341", "30872", "303167", "302943"], "virtual": false}}, {"id": "04559e0cc4a7e8730d9bddb213ce065f", "name": "Von-Gahlen-Stra\u00dfe-U", "latitude": 51.237507, "longitude": 6.853736, "timestamp": "2025-05-03T03:15:32.674646+00:00Z", "free_bikes": 0, "empty_slots": null, "extra": {"uid": "501444253", "number": "54501", "bike_uids": [], "virtual": false}}, {"id": "045c01fa9914da3e2032716c24957340", "name": "F\u00fcrstenplatz I", "latitude": 51.212523, "longitude": 6.786139, "timestamp": "2025-05-03T03:15:32.674125+00:00Z", "free_bikes": 2, "empty_slots": null, "extra": {"uid": "471538698", "number": "4823", "bike_uids": ["32234", "302652"], "virtual": false}}, {"id": "05db8a72366203558290077fc86ff133", "name": "Bahnstra\u00dfe", "latitude": 51.219172, "longitude": 6.785554, "timestamp": "2025-05-03T03:15:32.673453+00:00Z", "free_bikes": 2, "empty_slots": null, "extra": {"uid": "248535311", "number": "4775", "bike_uids": ["303380", "30832"], "virtual": false}}, {"id": "0896819517e75c1ed6b1c05711f0e550", "name": "Oper", "latitude": 51.227172, "longitude": 6.777593, "timestamp": "2025-05-03T03:15:32.672733+00:00Z", "free_bikes": 0, "empty_slots": null, "extra": {"uid": "246313143", "number": "5054", "bike_uids": [], "virtual": false}}, {"id": "0928191ef5a8f12b1bfeec6aa9e05272", "name": "Grafenberger Allee", "latitude": 51.232852, "longitude": 6.812029, "timestamp": "2025-05-03T03:15:32.674090+00:00Z", "free_bikes": 0, "empty_slots": null, "extra": {"uid": "448779210", "number": "4871", "bike_uids": [], "virtual": false}}, {"id": "0bacb3f10ca780a1136f94c41405e78d", "name": "Stadtwerke D\u00fcsseldorf", "latitude": 51.222489, "longitude": 6.813165, "timestamp": "2025-05-03T03:15:32.672245+00:00Z", "free_bikes": 6, "empty_slots": null, "extra": {"uid": "66665", "number": "5046", "bike_uids": ["32117", "31022", "30835", "303004", "302879", "302655"], "virtual": false}}, {"id": "0c4e023c4405198e02f3a7b93e4366c4", "name": "Derendorf S-Bahn", "latitude": 51.247284, "longitude": 6.794717, "timestamp": "2025-05-03T03:15:32.672351+00:00Z", "free_bikes": 0, "empty_slots": null, "extra": {"uid": "2342613", "number": "5055", "bike_uids": [], "virtual": false}}, {"id": "0d40016a84af640a265858e24c3cc89c", "name": "Chlodwigstra\u00dfe I", "latitude": 51.196127, "longitude": 6.783392, "timestamp": "2025-05-03T03:15:32.673725+00:00Z", "free_bikes": 2, "empty_slots": null, "extra": {"uid": "279003052", "number": "4810", "bike_uids": ["31384", "302963"], "virtual": false}}, {"id": "0d66b51d38727bb637e7e250d3d77b5f", "name": "Anna-Spielplatz D\u00fcsseldorf", "latitude": 51.240305, "longitude": 6.788907, "timestamp": "2025-05-03T03:15:32.674389+00:00Z", "free_bikes": 0, "empty_slots": null, "extra": {"uid": "486544608", "number": "4748", "bike_uids": [], "virtual": false}}, {"id": "0f84153e4154541becda04ad146c6634", "name": "Klemensplatz I", "latitude": 51.299919, "longitude": 6.738755, "timestamp": "2025-05-03T03:15:32.672324+00:00Z", "free_bikes": 14, "empty_slots": null, "extra": {"uid": "326142", "number": "5050", "bike_uids": ["31182", "31250", "31971", "32396", "32004", "32110", "31186", "303217", "303083", "302783", "302700", "302637", "302551", "302525"], "virtual": false}}, {"id": "0fdc4efc5bfd438ae482e7c33ad27d30", "name": "Radisson Blu Hotel", "latitude": 51.246753, "longitude": 6.769043, "timestamp": "2025-05-03T03:15:32.674028+00:00Z", "free_bikes": 1, "empty_slots": null, "extra": {"uid": "421627997", "number": "4849", "bike_uids": ["302887"], "virtual": false}}, {"id": "10bc0b461380595e1a74206d607711ba", "name": "Rheinbahn HQ", "latitude": 51.212523, "longitude": 6.820552, "timestamp": "2025-05-03T03:15:32.672464+00:00Z", "free_bikes": 4, "empty_slots": null, "extra": {"uid": "60150088", "number": "5027", "bike_uids": ["303363", "31531", "302696", "302592"], "virtual": false}}, {"id": "11d4fb881df6adc67c13e57bfc04d47a", "name": "K\u00d6 VII", "latitude": 51.221581, "longitude": 6.778157, "timestamp": "2025-05-03T03:15:32.673257+00:00Z", "free_bikes": 0, "empty_slots": null, "extra": {"uid": "248503875", "number": "4754", "bike_uids": [], "virtual": false}}, {"id": "1236d6cc12f81964aeff11661e587399", "name": "Uni-Kliniken IV", "latitude": 51.199375, "longitude": 6.790806, "timestamp": "2025-05-03T03:15:32.672379+00:00Z", "free_bikes": 1, "empty_slots": null, "extra": {"uid": "24494521", "number": "5020", "bike_uids": ["303062"], "virtual": false}}, {"id": "12c8f08b85d9798d80aec982a679ce40", "name": "Uni S\u00fcd", "latitude": 51.186384, "longitude": 6.797951, "timestamp": "2025-05-03T03:15:32.672181+00:00Z", "free_bikes": 1, "empty_slots": null, "extra": {"uid": "3522", "number": "5022", "bike_uids": ["32011"], "virtual": false}}, {"id": "12d9a4eb745ea6e523cca15f17aa0282", "name": "Ernst-Schneider-Platz", "latitude": 51.224978, "longitude": 6.783478, "timestamp": "2025-05-03T03:15:32.672956+00:00Z", "free_bikes": 0, "empty_slots": null, "extra": {"uid": "246334410", "number": "5088", "bike_uids": [], "virtual": false}}, {"id": "134acd8ce3484c589ae937c60a767c84", "name": "Georg-Schulhoff-Platz", "latitude": 51.207663, "longitude": 6.760154, "timestamp": "2025-05-03T03:15:32.672413+00:00Z", "free_bikes": 0, "empty_slots": null, "extra": {"uid": "28777145", "number": "5031", "bike_uids": [], "virtual": false}}, {"id": "1376b265aa1cbd858155dbfed2b7d97c", "name": "Am Wehrhahn III", "latitude": 51.229745, "longitude": 6.796117, "timestamp": "2025-05-03T03:15:32.673486+00:00Z", "free_bikes": 1, "empty_slots": null, "extra": {"uid": "248553780", "number": "4780", "bike_uids": ["31198"], "virtual": false}}, {"id": "1466868023be585b9a45b4d07c960b45", "name": "K\u00d6 VI", "latitude": 51.223372, "longitude": 6.77938, "timestamp": "2025-05-03T03:15:32.673249+00:00Z", "free_bikes": 0, "empty_slots": null, "extra": {"uid": "248502819", "number": "4753", "bike_uids": [], "virtual": false}}, {"id": "154b62ba9ab746d5b63c2e2479845d55", "name": "S-Bahnhof Volksgarten", "latitude": 51.209559, "longitude": 6.793596, "timestamp": "2025-05-03T03:15:32.672272+00:00Z", "free_bikes": 2, "empty_slots": null, "extra": {"uid": "121921", "number": "5073", "bike_uids": ["32321", "302687"], "virtual": false}}, {"id": "1cd97c06ca7181a91345d5c952e0c92c", "name": "Herzogstra\u00dfe II", "latitude": 51.215816, "longitude": 6.778786, "timestamp": "2025-05-03T03:15:32.674745+00:00Z", "free_bikes": 1, "empty_slots": null, "extra": {"uid": "501449918", "number": "4892", "bike_uids": ["302892"], "virtual": false}}, {"id": "1fe4514bccd03a5924f2c96c6c117ae4", "name": "Uni - Nord", "latitude": 51.193758, "longitude": 6.792304, "timestamp": "2025-05-03T03:15:32.672485+00:00Z", "free_bikes": 0, "empty_slots": null, "extra": {"uid": "66032396", "number": "5026", "bike_uids": [], "virtual": false}}, {"id": "2021127e49d0f80ae0754d502faf1475", "name": "Martin-Luther-Platz", "latitude": 51.224649, "longitude": 6.781713, "timestamp": "2025-05-03T03:15:32.672965+00:00Z", "free_bikes": 0, "empty_slots": null, "extra": {"uid": "246334932", "number": "5089", "bike_uids": [], "virtual": false}}, {"id": "215809796f46d6c3172e647f42dd0855", "name": "Stadttor", "latitude": 51.215443, "longitude": 6.762026, "timestamp": "2025-05-03T03:15:32.672494+00:00Z", "free_bikes": 1, "empty_slots": null, "extra": {"uid": "77433454", "number": "5041", "bike_uids": ["302649"], "virtual": false}}, {"id": "23a4cfff11c0a0c690ece3001b98b780", "name": "Corneliusstra\u00dfe II", "latitude": 51.215822, "longitude": 6.78232, "timestamp": "2025-05-03T03:15:32.674308+00:00Z", "free_bikes": 0, "empty_slots": null, "extra": {"uid": "474316153", "number": "4862", "bike_uids": [], "virtual": false}}, {"id": "23e7de0eec5b65d1573d7c63352d1a96", "name": "Benrath Bahnhof", "latitude": 51.162102, "longitude": 6.87742, "timestamp": "2025-05-03T03:15:32.674593+00:00Z", "free_bikes": 0, "empty_slots": null, "extra": {"uid": "499871105", "number": "4890", "bike_uids": [], "virtual": false}}, {"id": "2445fdebb0355045eebff176109e6d5e", "name": "Stresemannplatz I", "latitude": 51.21972, "longitude": 6.788591, "timestamp": "2025-05-03T03:15:32.673383+00:00Z", "free_bikes": 0, "empty_slots": null, "extra": {"uid": "248528974", "number": "4767", "bike_uids": [], "virtual": false}}, {"id": "25115c0c5c6fbdf870d7918d421bea50", "name": "Aachener Platz", "latitude": 51.196269, "longitude": 6.769584, "timestamp": "2025-05-03T03:15:32.672422+00:00Z", "free_bikes": 5, "empty_slots": null, "extra": {"uid": "28777203", "number": "5034", "bike_uids": ["303447", "303384", "32159", "31979", "303104"], "virtual": false}}, {"id": "2549b1ccf1387946debe44f9018b8fda", "name": "Berliner Allee I", "latitude": 51.221424, "longitude": 6.782636, "timestamp": "2025-05-03T03:15:32.673419+00:00Z", "free_bikes": 2, "empty_slots": null, "extra": {"uid": "248533063", "number": "4772", "bike_uids": ["303092", "302903"], "virtual": false}}, {"id": "26ac656318648378aa9ce3856b748c44", "name": "Stockumer Kirchstra\u00dfe I", "latitude": 51.260183, "longitude": 6.753915, "timestamp": "2025-05-03T03:15:32.673851+00:00Z", "free_bikes": 1, "empty_slots": null, "extra": {"uid": "390867430", "number": "4832", "bike_uids": ["303298"], "virtual": false}}, {"id": "26e39c9cc407fec8717d1c93cdd57653", "name": "Hammer Dorfstra\u00dfe", "latitude": 51.209922, "longitude": 6.741797, "timestamp": "2025-05-03T03:15:32.674351+00:00Z", "free_bikes": 3, "empty_slots": null, "extra": {"uid": "477955901", "number": "4854", "bike_uids": ["303292", "303188", "302724"], "virtual": false}}, {"id": "27225a244dd08af833be64e8da2640c6", "name": "Liesegangstra\u00dfe", "latitude": 51.225492, "longitude": 6.786515, "timestamp": "2025-05-03T03:15:32.672826+00:00Z", "free_bikes": 0, "empty_slots": null, "extra": {"uid": "246324067", "number": "5064", "bike_uids": [], "virtual": false}}, {"id": "27c6bb89feb1945653be30ffaaee56a6", "name": "K\u00d6 II", "latitude": 51.225344, "longitude": 6.779423, "timestamp": "2025-05-03T03:15:32.673233+00:00Z", "free_bikes": 0, "empty_slots": null, "extra": {"uid": "248500033", "number": "4751", "bike_uids": [], "virtual": false}}, {"id": "27ce04d69b8264a6e1c93b952cd774c8", "name": "H\u00fcttenstra\u00dfe I", "latitude": 51.211891, "longitude": 6.791798, "timestamp": "2025-05-03T03:15:32.674191+00:00Z", "free_bikes": 1, "empty_slots": null, "extra": {"uid": "472309423", "number": "4827", "bike_uids": ["303277"], "virtual": false}}, {"id": "2829c75f0205d94a4a399a9a0c39bd9c", "name": "Schinkelstra\u00dfe", "latitude": 51.234276, "longitude": 6.793419, "timestamp": "2025-05-03T03:15:32.674757+00:00Z", "free_bikes": 3, "empty_slots": null, "extra": {"uid": "503077748", "number": "54505", "bike_uids": ["31915", "303043", "302751"], "virtual": false}}, {"id": "28cb824fd42a868f84e645f0dca8520d", "name": "Kirchfeldstra\u00dfe", "latitude": 51.213154, "longitude": 6.788633, "timestamp": "2025-05-03T03:15:32.674214+00:00Z", "free_bikes": 1, "empty_slots": null, "extra": {"uid": "472310649", "number": "4864", "bike_uids": ["303075"], "virtual": false}}, {"id": "2b1fbd47fa9fd9a9ba2f514b13bf6aec", "name": "D\u00fcsseldorf HBF III", "latitude": 51.222253, "longitude": 6.795087, "timestamp": "2025-05-03T03:15:32.673366+00:00Z", "free_bikes": 0, "empty_slots": null, "extra": {"uid": "248525616", "number": "4765", "bike_uids": [], "virtual": false}}, {"id": "2c5ad9752a6e80c974465b2fedc7e670", "name": "B\u00f6rnestra\u00dfe", "latitude": 51.227256, "longitude": 6.791219, "timestamp": "2025-05-03T03:15:32.673507+00:00Z", "free_bikes": 0, "empty_slots": null, "extra": {"uid": "248554863", "number": "4783", "bike_uids": [], "virtual": false}}, {"id": "2c778cb966666266be0fabd0faf214a2", "name": "Benderstra\u00dfe - Regenbergastra\u00dfe", "latitude": 51.237151, "longitude": 6.85674, "timestamp": "2025-05-03T03:15:32.674654+00:00Z", "free_bikes": 0, "empty_slots": null, "extra": {"uid": "501444758", "number": "54500", "bike_uids": [], "virtual": false}}, {"id": "2c97326a4bece0c3abb6731fbf9a456f", "name": "Herzogstra\u00dfe I", "latitude": 51.215611, "longitude": 6.785077, "timestamp": "2025-05-03T03:15:32.674261+00:00Z", "free_bikes": 1, "empty_slots": null, "extra": {"uid": "474312160", "number": "4818", "bike_uids": ["32284"], "virtual": false}}, {"id": "2cc12bbd03739ecfe60d6122f41d255b", "name": "Nordstra\u00dfe/Collenbachstra\u00dfe", "latitude": 51.240644, "longitude": 6.781982, "timestamp": "2025-05-03T03:15:32.672259+00:00Z", "free_bikes": 3, "empty_slots": null, "extra": {"uid": "66677", "number": "5029", "bike_uids": ["303049", "302849", "302868"], "virtual": false}}, {"id": "2dceb76858bc3ebfe0f7dd791d43db55", "name": "Eller Mitte", "latitude": 51.202134, "longitude": 6.836791, "timestamp": "2025-05-03T03:15:32.674709+00:00Z", "free_bikes": 5, "empty_slots": null, "extra": {"uid": "501446397", "number": "4895", "bike_uids": ["31627", "31508", "303269", "302870", "302712"], "virtual": false}}, {"id": "2e476d3df68e05bc787723d524c0b7fe", "name": "Bismarckstra\u00dfe II", "latitude": 51.220782, "longitude": 6.789379, "timestamp": "2025-05-03T03:15:32.673327+00:00Z", "free_bikes": 1, "empty_slots": null, "extra": {"uid": "248518133", "number": "4761", "bike_uids": ["302524"], "virtual": false}}, {"id": "2ef6cee1a7d345c4e15b783d742e2a97", "name": "Wasserstra\u00dfe II", "latitude": 51.216414, "longitude": 6.772825, "timestamp": "2025-05-03T03:15:32.673097+00:00Z", "free_bikes": 1, "empty_slots": null, "extra": {"uid": "246403454", "number": "5102", "bike_uids": ["303215"], "virtual": false}}, {"id": "2f7f2c83259308bd0397412c73159d27", "name": "LIDL Oberbilker Allee", "latitude": 51.210096, "longitude": 6.791123, "timestamp": "2025-05-03T03:15:32.672506+00:00Z", "free_bikes": 0, "empty_slots": null, "extra": {"uid": "101392449", "number": "5047", "bike_uids": [], "virtual": false}}, {"id": "2fbd5284a34208d9799b13469f835288", "name": "Garath S-Bahnhof West", "latitude": 51.143296, "longitude": 6.897263, "timestamp": "2025-05-03T03:15:32.674831+00:00Z", "free_bikes": 1, "empty_slots": null, "extra": {"uid": "528069798", "number": "55512", "bike_uids": ["303068"], "virtual": false}}, {"id": "31798e8d942f11b0fd591f075f20414d", "name": "K\u00d6 X", "latitude": 51.219949, "longitude": 6.779251, "timestamp": "2025-05-03T03:15:32.673765+00:00Z", "free_bikes": 0, "empty_slots": null, "extra": {"uid": "279011683", "number": "4815", "bike_uids": [], "virtual": false}}, {"id": "32d3afb86b474bec17f2fa1d4505f39a", "name": "PSD Bank Dome", "latitude": 51.273065, "longitude": 6.810805, "timestamp": "2025-05-03T03:15:32.672623+00:00Z", "free_bikes": 7, "empty_slots": null, "extra": {"uid": "245283392", "number": "5087", "bike_uids": ["32351", "31521", "30865", "32187", "31183", "30853", "31032"], "virtual": false}}, {"id": "3348625be71b1b6a31186fceb749de31", "name": "Stockumer Kirchstra\u00dfe II", "latitude": 51.260404, "longitude": 6.754682, "timestamp": "2025-05-03T03:15:32.673864+00:00Z", "free_bikes": 2, "empty_slots": null, "extra": {"uid": "390867986", "number": "4833", "bike_uids": ["302776", "302728"], "virtual": false}}, {"id": "3362929e23922c31d21223e378a9f239", "name": "Benratherstra\u00dfe - Breitestra\u00dfe", "latitude": 51.222986, "longitude": 6.776751, "timestamp": "2025-05-03T03:15:32.672991+00:00Z", "free_bikes": 0, "empty_slots": null, "extra": {"uid": "246336213", "number": "5092", "bike_uids": [], "virtual": false}}, {"id": "33fc3de4fd779572a791144bf5eae9a4", "name": "Zoo S", "latitude": 51.236594, "longitude": 6.797576, "timestamp": "2025-05-03T03:15:32.674569+00:00Z", "free_bikes": 1, "empty_slots": null, "extra": {"uid": "499869861", "number": "4888", "bike_uids": ["303227"], "virtual": false}}, {"id": "361cf294f47aa0fec9fad9bf5af005bb", "name": "HSD-Mensa", "latitude": 51.247458, "longitude": 6.792871, "timestamp": "2025-05-03T03:15:32.672392+00:00Z", "free_bikes": 0, "empty_slots": null, "extra": {"uid": "26049363", "number": "5016", "bike_uids": [], "virtual": false}}, {"id": "381d57ae4251beb9ec9f7c4201273f54", "name": "Uni-Ost I", "latitude": 51.190321, "longitude": 6.800033, "timestamp": "2025-05-03T03:15:32.672285+00:00Z", "free_bikes": 0, "empty_slots": null, "extra": {"uid": "121932", "number": "5074", "bike_uids": [], "virtual": false}}, {"id": "384d3598b7ae8945a0c7a779611eaf20", "name": "Wasserstra\u00dfe I", "latitude": 51.218531, "longitude": 6.771526, "timestamp": "2025-05-03T03:15:32.673108+00:00Z", "free_bikes": 0, "empty_slots": null, "extra": {"uid": "246404872", "number": "5103", "bike_uids": [], "virtual": false}}, {"id": "386064abc518e896ed3a00b57eac01a0", "name": "St Michael", "latitude": 51.208476, "longitude": 6.830143, "timestamp": "2025-05-03T03:15:32.674671+00:00Z", "free_bikes": 6, "empty_slots": null, "extra": {"uid": "501445653", "number": "4898", "bike_uids": ["31095", "31197", "31484", "31019", "302699", "302688"], "virtual": false}}, {"id": "38d0367c9c18b1af1851143718715dd6", "name": "Stresemannstra\u00dfe III", "latitude": 51.220479, "longitude": 6.785211, "timestamp": "2025-05-03T03:15:32.673410+00:00Z", "free_bikes": 0, "empty_slots": null, "extra": {"uid": "248531536", "number": "4771", "bike_uids": [], "virtual": false}}, {"id": "38e9d52d21b6214495d38a317ec34fab", "name": "Eckenerstra\u00dfe", "latitude": 51.272035, "longitude": 6.773522, "timestamp": "2025-05-03T03:15:32.674509+00:00Z", "free_bikes": 2, "empty_slots": null, "extra": {"uid": "498503020", "number": "4883", "bike_uids": ["31377", "303222"], "virtual": false}}, {"id": "38f630e9adf13e94a1a83c059dc071ad", "name": "Immermannstra\u00dfe II", "latitude": 51.224152, "longitude": 6.786627, "timestamp": "2025-05-03T03:15:32.672852+00:00Z", "free_bikes": 1, "empty_slots": null, "extra": {"uid": "246325161", "number": "5066", "bike_uids": ["31127"], "virtual": false}}, {"id": "3985c576642493f3e7cb55ec1986f50a", "name": "Immermannstra\u00dfe IX", "latitude": 51.222193, "longitude": 6.790624, "timestamp": "2025-05-03T03:15:32.672947+00:00Z", "free_bikes": 0, "empty_slots": null, "extra": {"uid": "246332160", "number": "5079", "bike_uids": [], "virtual": false}}, {"id": "39b46745f6e544b0bc8846fb2e4265f4", "name": "Klemensplatz II", "latitude": 51.301475, "longitude": 6.739495, "timestamp": "2025-05-03T03:15:32.674317+00:00Z", "free_bikes": 11, "empty_slots": null, "extra": {"uid": "474653715", "number": "5036", "bike_uids": ["32343", "30806", "31967", "32115", "303240", "303186", "303054", "303017", "302844", "31960", "303399"], "virtual": false}}, {"id": "3a4eef8ed4c2310b58b8ac204052d944", "name": "Hofgarten I", "latitude": 51.232966, "longitude": 6.778913, "timestamp": "2025-05-03T03:15:32.672602+00:00Z", "free_bikes": 0, "empty_slots": null, "extra": {"uid": "219295165", "number": "5084", "bike_uids": [], "virtual": false}}, {"id": "3a7383696cc44ca13d68074ed3c0c81d", "name": "Toulouser Allee", "latitude": 51.231482, "longitude": 6.796476, "timestamp": "2025-05-03T03:15:32.674107+00:00Z", "free_bikes": 0, "empty_slots": null, "extra": {"uid": "453943475", "number": "4865", "bike_uids": [], "virtual": false}}, {"id": "3cbfe1e08ac1f39279cd7a62859c6cd4", "name": "Sch\u00fctzenstra\u00dfe I", "latitude": 51.228616, "longitude": 6.795071, "timestamp": "2025-05-03T03:15:32.673558+00:00Z", "free_bikes": 0, "empty_slots": null, "extra": {"uid": "248558887", "number": "4788", "bike_uids": [], "virtual": false}}, {"id": "43cd05254d358592a849a6b829842339", "name": "Messeplatz", "latitude": 51.257954, "longitude": 6.743084, "timestamp": "2025-05-03T03:15:32.673830+00:00Z", "free_bikes": 0, "empty_slots": null, "extra": {"uid": "390865354", "number": "4830", "bike_uids": [], "virtual": false}}, {"id": "445fae87a9643ff2973ba51616630cad", "name": "Schanzenstra\u00dfe I", "latitude": 51.232694, "longitude": 6.740509, "timestamp": "2025-05-03T03:15:32.674465+00:00Z", "free_bikes": 2, "empty_slots": null, "extra": {"uid": "491231775", "number": "4877", "bike_uids": ["303080", "302971"], "virtual": false}}, {"id": "44a750e00764ee50133d570d571fec81", "name": "Rath S I", "latitude": 51.263707, "longitude": 6.820477, "timestamp": "2025-05-03T03:15:32.674015+00:00Z", "free_bikes": 4, "empty_slots": null, "extra": {"uid": "419171778", "number": "4847", "bike_uids": ["32385", "31608", "302826", "302542"], "virtual": false}}, {"id": "45e654e0252f408e3d603c617909eeda", "name": "Tu\u00dfmannstra\u00dfe - Jordanstra\u00dfe", "latitude": 51.241746, "longitude": 6.792608, "timestamp": "2025-05-03T03:15:32.674433+00:00Z", "free_bikes": 0, "empty_slots": null, "extra": {"uid": "486547257", "number": "4741", "bike_uids": [], "virtual": false}}, {"id": "4711a0bc56f1aa30ff9d84cf7a9fab16", "name": "Immermannstra\u00dfe III", "latitude": 51.224246, "longitude": 6.787067, "timestamp": "2025-05-03T03:15:32.672871+00:00Z", "free_bikes": 3, "empty_slots": null, "extra": {"uid": "246325509", "number": "5068", "bike_uids": ["31881", "32364", "32108"], "virtual": false}}, {"id": "47b3467c938685abf164456761f3a8f4", "name": "M\u00fcnster Stra\u00dfe", "latitude": 51.262022, "longitude": 6.810483, "timestamp": "2025-05-03T03:15:32.673934+00:00Z", "free_bikes": 3, "empty_slots": null, "extra": {"uid": "419131148", "number": "4840", "bike_uids": ["303392", "303378", "302792"], "virtual": false}}, {"id": "48f7676f79e24cf6dcf9ac521b47f6e5", "name": "Schadowstra\u00dfe I", "latitude": 51.226359, "longitude": 6.783301, "timestamp": "2025-05-03T03:15:32.672803+00:00Z", "free_bikes": 0, "empty_slots": null, "extra": {"uid": "246319629", "number": "5059", "bike_uids": [], "virtual": false}}, {"id": "494945487a795945292ed6f056ea12e9", "name": "Kirchplatz I", "latitude": 51.213984, "longitude": 6.775534, "timestamp": "2025-05-03T03:15:32.672535+00:00Z", "free_bikes": 1, "empty_slots": null, "extra": {"uid": "121449413", "number": "5042", "bike_uids": ["303259"], "virtual": false}}, {"id": "496238cc494739346400df516b2bfba9", "name": "Prinz-Georg-Stra\u00dfe - Stockkampstra\u00dfe", "latitude": 51.236352, "longitude": 6.787078, "timestamp": "2025-05-03T03:15:32.674406+00:00Z", "free_bikes": 0, "empty_slots": null, "extra": {"uid": "486545779", "number": "4745", "bike_uids": [], "virtual": false}}, {"id": "49b05c03a46ec716ae9450cfaeb0e437", "name": "Freiligrathplatz II", "latitude": 51.265382, "longitude": 6.751512, "timestamp": "2025-05-03T03:15:32.673888+00:00Z", "free_bikes": 3, "empty_slots": null, "extra": {"uid": "390869871", "number": "4835", "bike_uids": ["303064", "302878", "302822"], "virtual": false}}, {"id": "4b5da2adb32d464a635f435d09aa42f4", "name": "Leopoldstra\u00dfe I", "latitude": 51.226352, "longitude": 6.788617, "timestamp": "2025-05-03T03:15:32.673203+00:00Z", "free_bikes": 0, "empty_slots": null, "extra": {"uid": "246419489", "number": "5113", "bike_uids": [], "virtual": false}}, {"id": "4b7ce0343c7846382c364a376fafd537", "name": "Staatsanwaltschaft ", "latitude": 51.230931, "longitude": 6.776016, "timestamp": "2025-05-03T03:15:32.672637+00:00Z", "free_bikes": 0, "empty_slots": null, "extra": {"uid": "246300216", "number": "5035", "bike_uids": [], "virtual": false}}, {"id": "50674021257b56fc71ae214e9b8e121f", "name": "Radstation", "latitude": 51.218826, "longitude": 6.795441, "timestamp": "2025-05-03T03:15:32.672401+00:00Z", "free_bikes": 1, "empty_slots": null, "extra": {"uid": "28183578", "number": "5017", "bike_uids": ["302769"], "virtual": false}}, {"id": "518a107921a7784dbbecc10d670752cb", "name": "Rath Mitte II", "latitude": 51.260579, "longitude": 6.809013, "timestamp": "2025-05-03T03:15:32.673958+00:00Z", "free_bikes": 0, "empty_slots": null, "extra": {"uid": "419132987", "number": "4842", "bike_uids": [], "virtual": false}}, {"id": "529bcf1bd7abcfe2402f032e3df7ca0d", "name": "Bachpl\u00e4tzchen II", "latitude": 51.208836, "longitude": 6.769246, "timestamp": "2025-05-03T03:15:32.673782+00:00Z", "free_bikes": 1, "empty_slots": null, "extra": {"uid": "310793188", "number": "4819", "bike_uids": ["302942"], "virtual": false}}, {"id": "536ba1f816504b8c910ed66b05f2dc32", "name": "Heinrich-Heine-Allee Ausweichstation", "latitude": 51.229554, "longitude": 6.777245, "timestamp": "2025-05-03T03:15:32.674116+00:00Z", "free_bikes": 0, "empty_slots": null, "extra": {"uid": "463413839", "number": "4874", "bike_uids": [], "virtual": false}}, {"id": "54e8c5cf21130138c21dd9d00df51f92", "name": "Derendorfer Allee 10", "latitude": 51.252515, "longitude": 6.782041, "timestamp": "2025-05-03T03:15:32.672206+00:00Z", "free_bikes": 5, "empty_slots": null, "extra": {"uid": "66647", "number": "5061", "bike_uids": ["31589", "31371", "303153", "302961", "302811"], "virtual": false}}, {"id": "54ea0a9af1ff7f50afd3f69eb29d7aa8", "name": "D\u00fcsseldorfer Stra\u00dfe", "latitude": 51.230706, "longitude": 6.740434, "timestamp": "2025-05-03T03:15:32.674442+00:00Z", "free_bikes": 1, "empty_slots": null, "extra": {"uid": "491220869", "number": "4769", "bike_uids": ["302934"], "virtual": false}}, {"id": "55635ab7694705339017c5e96a752c15", "name": "Reuterkaserne I", "latitude": 51.229073, "longitude": 6.77114, "timestamp": "2025-05-03T03:15:32.672676+00:00Z", "free_bikes": 3, "empty_slots": null, "extra": {"uid": "246308198", "number": "5052", "bike_uids": ["31237", "31958", "302530"], "virtual": false}}, {"id": "55d7b196edcde62f9088ac5db9ef40b0", "name": "Gerresheim Rathaus", "latitude": 51.237276, "longitude": 6.858566, "timestamp": "2025-05-03T03:15:32.674662+00:00Z", "free_bikes": 0, "empty_slots": null, "extra": {"uid": "501444945", "number": "54504", "bike_uids": [], "virtual": false}}, {"id": "56fc5500a88c33e182ffa759b109ead8", "name": "Sch\u00fctzenstra\u00dfe II", "latitude": 51.22645, "longitude": 6.793934, "timestamp": "2025-05-03T03:15:32.673549+00:00Z", "free_bikes": 0, "empty_slots": null, "extra": {"uid": "248558360", "number": "4787", "bike_uids": [], "virtual": false}}, {"id": "5772692c80c932eee0f030501c5d1f73", "name": "Hermannplatz", "latitude": 51.22868, "longitude": 6.808047, "timestamp": "2025-05-03T03:15:32.673803+00:00Z", "free_bikes": 2, "empty_slots": null, "extra": {"uid": "326400702", "number": "4822", "bike_uids": ["32088", "303243"], "virtual": false}}, {"id": "59815bf3d6738155205be5cddef3baa3", "name": "UKD II", "latitude": 51.194282, "longitude": 6.791337, "timestamp": "2025-05-03T03:15:32.673749+00:00Z", "free_bikes": 0, "empty_slots": null, "extra": {"uid": "279006497", "number": "4812", "bike_uids": [], "virtual": false}}, {"id": "59e38a8968cf8b4ab1070b0a10c15580", "name": "Bachpl\u00e4tzchen I", "latitude": 51.208483, "longitude": 6.767932, "timestamp": "2025-05-03T03:15:32.673611+00:00Z", "free_bikes": 1, "empty_slots": null, "extra": {"uid": "261131874", "number": "4794", "bike_uids": ["302805"], "virtual": false}}, {"id": "5c3395b81cb6fa2cd0ba51bd85120f1e", "name": "Ernst-Derra-Stra\u00dfe", "latitude": 51.19368, "longitude": 6.785367, "timestamp": "2025-05-03T03:15:32.673737+00:00Z", "free_bikes": 1, "empty_slots": null, "extra": {"uid": "279005042", "number": "4811", "bike_uids": ["302746"], "virtual": false}}, {"id": "5fd6c1e593e80d618a6abbdb947cb479", "name": "Worringer Platz", "latitude": 51.22348, "longitude": 6.795704, "timestamp": "2025-05-03T03:15:32.673171+00:00Z", "free_bikes": 4, "empty_slots": null, "extra": {"uid": "246416638", "number": "5110", "bike_uids": ["32233", "32326", "303026", "302559"], "virtual": false}}, {"id": "6085312c291d16f6d300f44e926744be", "name": "Uni-Mitte", "latitude": 51.187791, "longitude": 6.793144, "timestamp": "2025-05-03T03:15:32.672558+00:00Z", "free_bikes": 0, "empty_slots": null, "extra": {"uid": "143466663", "number": "5072", "bike_uids": [], "virtual": false}}, {"id": "6312027190956efecec6b41ea2965ae5", "name": "UKD III", "latitude": 51.196309, "longitude": 6.787646, "timestamp": "2025-05-03T03:15:32.673757+00:00Z", "free_bikes": 0, "empty_slots": null, "extra": {"uid": "279007599", "number": "4814", "bike_uids": [], "virtual": false}}, {"id": "6332476cdc4dd221bbb08fcbdf787184", "name": "Friedrich-Ebert-Stra\u00dfe", "latitude": 51.223019, "longitude": 6.785924, "timestamp": "2025-05-03T03:15:32.673286+00:00Z", "free_bikes": 0, "empty_slots": null, "extra": {"uid": "248513262", "number": "4757", "bike_uids": [], "virtual": false}}, {"id": "63986d44cc58f796ef358f7b8d925adb", "name": "Jugendherberge D\u00fcsseldorf", "latitude": 51.226167, "longitude": 6.757075, "timestamp": "2025-05-03T03:15:32.672119+00:00Z", "free_bikes": 1, "empty_slots": null, "extra": {"uid": "2009", "number": "5077", "bike_uids": ["303272"], "virtual": false}}, {"id": "6564e24457a89b7618d253cd96a8d94e", "name": "Corneliusstra\u00dfe I", "latitude": 51.212331, "longitude": 6.783215, "timestamp": "2025-05-03T03:15:32.674296+00:00Z", "free_bikes": 2, "empty_slots": null, "extra": {"uid": "474316024", "number": "4861", "bike_uids": ["30898", "303324"], "virtual": false}}, {"id": "6623beadb01e0c723fc4bd155d6415a8", "name": "Wielandstra\u00dfe", "latitude": 51.229187, "longitude": 6.793016, "timestamp": "2025-05-03T03:15:32.673498+00:00Z", "free_bikes": 0, "empty_slots": null, "extra": {"uid": "248554649", "number": "4782", "bike_uids": [], "virtual": false}}, {"id": "670b8af66df94c0500fa0837136cf043", "name": "Rath Mitte I", "latitude": 51.261082, "longitude": 6.809185, "timestamp": "2025-05-03T03:15:32.673946+00:00Z", "free_bikes": 3, "empty_slots": null, "extra": {"uid": "419132701", "number": "4841", "bike_uids": ["30820", "303112", "302554"], "virtual": false}}, {"id": "68c24daa35f808983878c182052968ad", "name": "Frankenplatz / Frankenstra\u00dfe", "latitude": 51.248546, "longitude": 6.776987, "timestamp": "2025-05-03T03:15:32.672220+00:00Z", "free_bikes": 5, "empty_slots": null, "extra": {"uid": "66650", "number": "5076", "bike_uids": ["32309", "31374", "31951", "302904", "302802"], "virtual": false}}, {"id": "69894970735936a23793e2b14ab52b23", "name": "D\u00fcsseldorf HBF II", "latitude": 51.221676, "longitude": 6.793392, "timestamp": "2025-05-03T03:15:32.673358+00:00Z", "free_bikes": 0, "empty_slots": null, "extra": {"uid": "248524671", "number": "4764", "bike_uids": [], "virtual": false}}, {"id": "6b6b96740219c237c76f11786fa4bcb7", "name": "Uni-West II", "latitude": 51.19135, "longitude": 6.788263, "timestamp": "2025-05-03T03:15:32.673669+00:00Z", "free_bikes": 0, "empty_slots": null, "extra": {"uid": "278985778", "number": "4801", "bike_uids": [], "virtual": false}}, {"id": "6c8eb02a5db88365b667434b0b0d96e1", "name": "Luisen-Gymnasium", "latitude": 51.221588, "longitude": 6.775743, "timestamp": "2025-05-03T03:15:32.673042+00:00Z", "free_bikes": 0, "empty_slots": null, "extra": {"uid": "246390603", "number": "5097", "bike_uids": [], "virtual": false}}, {"id": "6d186629bc15f1fbdea32b88942eb59b", "name": "Auf'm Hennekamp/Redinghovenstra\u00dfe", "latitude": 51.2057, "longitude": 6.788467, "timestamp": "2025-05-03T03:15:32.672294+00:00Z", "free_bikes": 0, "empty_slots": null, "extra": {"uid": "122000", "number": "5063", "bike_uids": [], "virtual": false}}, {"id": "6e59f645248457395f0caa61d6b6d8f5", "name": "Friedenspl\u00e4tzchen", "latitude": 51.212422, "longitude": 6.768179, "timestamp": "2025-05-03T03:15:32.672523+00:00Z", "free_bikes": 1, "empty_slots": null, "extra": {"uid": "107443871", "number": "5043", "bike_uids": ["303319"], "virtual": false}}, {"id": "6ea2dca9b32032be02d46a02dc66d5ad", "name": "Ratinger Stra\u00dfe", "latitude": 51.229564, "longitude": 6.775968, "timestamp": "2025-05-03T03:15:32.672661+00:00Z", "free_bikes": 0, "empty_slots": null, "extra": {"uid": "246304192", "number": "5051", "bike_uids": [], "virtual": false}}, {"id": "6f131eed19c92916546a6d785107c57b", "name": "H\u00fcttenstra\u00dfe IV", "latitude": 51.214919, "longitude": 6.786675, "timestamp": "2025-05-03T03:15:32.674238+00:00Z", "free_bikes": 1, "empty_slots": null, "extra": {"uid": "474310558", "number": "4808", "bike_uids": ["302851"], "virtual": false}}, {"id": "6f6f9cecb76c8b6bfdad8a1b5a027632", "name": "Schwanenmarkt I", "latitude": 51.219895, "longitude": 6.774144, "timestamp": "2025-05-03T03:15:32.673125+00:00Z", "free_bikes": 0, "empty_slots": null, "extra": {"uid": "246405887", "number": "5105", "bike_uids": [], "virtual": false}}, {"id": "70963427f6d084e98928012cedcfd57e", "name": "Klosterstra\u00dfe", "latitude": 51.224844, "longitude": 6.787936, "timestamp": "2025-05-03T03:15:32.673191+00:00Z", "free_bikes": 2, "empty_slots": null, "extra": {"uid": "246418026", "number": "5112", "bike_uids": ["303287", "302813"], "virtual": false}}, {"id": "7131bfa64bbadb403513bbceda1d64d7", "name": "Karl-Anton-Stra\u00dfe I", "latitude": 51.225583, "longitude": 6.791836, "timestamp": "2025-05-03T03:15:32.673516+00:00Z", "free_bikes": 3, "empty_slots": null, "extra": {"uid": "248555173", "number": "4784", "bike_uids": ["31585", "31879", "303108"], "virtual": false}}, {"id": "718d881c8f12495bcc6fbcb4c9b8f7d6", "name": "Oberbilker Allee II", "latitude": 51.211162, "longitude": 6.785586, "timestamp": "2025-05-03T03:15:32.674284+00:00Z", "free_bikes": 1, "empty_slots": null, "extra": {"uid": "474315672", "number": "4860", "bike_uids": ["302752"], "virtual": false}}, {"id": "71927a8cef3c3e30bddb190910b56a65", "name": "Messe S\u00fcd", "latitude": 51.25416, "longitude": 6.74472, "timestamp": "2025-05-03T03:15:32.672339+00:00Z", "free_bikes": 1, "empty_slots": null, "extra": {"uid": "333392", "number": "5040", "bike_uids": ["302617"], "virtual": false}}, {"id": "73df32dde5d7420c10a88202c444547a", "name": "C&A Online GmbH", "latitude": 51.284662, "longitude": 6.785962, "timestamp": "2025-05-03T03:15:32.672314+00:00Z", "free_bikes": 0, "empty_slots": null, "extra": {"uid": "236653", "number": "5045", "bike_uids": [], "virtual": false}}, {"id": "75f125527d065464bece264c3ce879b5", "name": "UKD V", "latitude": 51.194403, "longitude": 6.793177, "timestamp": "2025-05-03T03:15:32.674769+00:00Z", "free_bikes": 0, "empty_slots": null, "extra": {"uid": "516551761", "number": "55506", "bike_uids": [], "virtual": false}}, {"id": "7610c6fbe127465e64ca71db79fa0ce5", "name": "Reuterkaserne II", "latitude": 51.230047, "longitude": 6.771945, "timestamp": "2025-05-03T03:15:32.672703+00:00Z", "free_bikes": 1, "empty_slots": null, "extra": {"uid": "246309134", "number": "5053", "bike_uids": ["302799"], "virtual": false}}, {"id": "76cd6dc9fc9615a7551dca61b878c068", "name": "Schadowstra\u00dfe II", "latitude": 51.227252, "longitude": 6.786386, "timestamp": "2025-05-03T03:15:32.672813+00:00Z", "free_bikes": 1, "empty_slots": null, "extra": {"uid": "246320591", "number": "5060", "bike_uids": ["302548"], "virtual": false}}, {"id": "79c252eae387898dc80f27c590ae9462", "name": "H\u00fcttenstra\u00dfe III", "latitude": 51.213363, "longitude": 6.789615, "timestamp": "2025-05-03T03:15:32.674226+00:00Z", "free_bikes": 1, "empty_slots": null, "extra": {"uid": "474310268", "number": "4828", "bike_uids": ["302912"], "virtual": false}}, {"id": "7f5334dc1460d9299df26a855bb19c29", "name": "Maria-und-Josef-Otten-Platz", "latitude": 51.238311, "longitude": 6.783733, "timestamp": "2025-05-03T03:15:32.674614+00:00Z", "free_bikes": 1, "empty_slots": null, "extra": {"uid": "501287730", "number": "4899", "bike_uids": ["302856"], "virtual": false}}, {"id": "80b9970dffa255177130ae8260289aec", "name": "Uni - SP Saal", "latitude": 51.187965, "longitude": 6.795511, "timestamp": "2025-05-03T03:15:32.672476+00:00Z", "free_bikes": 0, "empty_slots": null, "extra": {"uid": "66032087", "number": "5024", "bike_uids": [], "virtual": false}}, {"id": "811d16cc63b47843855a3a95e6c61d2a", "name": "Steinstra\u00dfe", "latitude": 51.223083, "longitude": 6.780882, "timestamp": "2025-05-03T03:15:32.672982+00:00Z", "free_bikes": 0, "empty_slots": null, "extra": {"uid": "246335710", "number": "5091", "bike_uids": [], "virtual": false}}, {"id": "81da4ad7cb50aeebadba003231a522fe", "name": "Immermannstra\u00dfe I", "latitude": 51.224813, "longitude": 6.786069, "timestamp": "2025-05-03T03:15:32.672838+00:00Z", "free_bikes": 0, "empty_slots": null, "extra": {"uid": "246324390", "number": "5065", "bike_uids": [], "virtual": false}}, {"id": "8265f9f2a12a17f571cdb7e3b20a45b6", "name": "Oststra\u00dfe", "latitude": 51.221256, "longitude": 6.785678, "timestamp": "2025-05-03T03:15:32.673304+00:00Z", "free_bikes": 1, "empty_slots": null, "extra": {"uid": "248515851", "number": "4759", "bike_uids": ["30894"], "virtual": false}}, {"id": "8482e3c349cbeae0d3afce9ecd041ffa", "name": "Vinzenzplatz", "latitude": 51.226224, "longitude": 6.798595, "timestamp": "2025-05-03T03:15:32.673603+00:00Z", "free_bikes": 0, "empty_slots": null, "extra": {"uid": "248563347", "number": "4792", "bike_uids": [], "virtual": false}}, {"id": "84bbb040936f6ac7c920cb33eadbbcd4", "name": "M\u00fchlenstra\u00dfe II", "latitude": 51.227283, "longitude": 6.773103, "timestamp": "2025-05-03T03:15:32.672772+00:00Z", "free_bikes": 0, "empty_slots": null, "extra": {"uid": "246317391", "number": "5057", "bike_uids": [], "virtual": false}}, {"id": "84d148942529d0dc80449442b29d928d", "name": "Berliner Allee - Steinstra\u00dfe", "latitude": 51.223053, "longitude": 6.782041, "timestamp": "2025-05-03T03:15:32.672973+00:00Z", "free_bikes": 0, "empty_slots": null, "extra": {"uid": "246335502", "number": "5090", "bike_uids": [], "virtual": false}}, {"id": "8537a4a41ad18029a3e5606789d60c57", "name": "Stephanienstra\u00dfe - Klosterstra\u00dfe", "latitude": 51.224232, "longitude": 6.791487, "timestamp": "2025-05-03T03:15:32.673183+00:00Z", "free_bikes": 0, "empty_slots": null, "extra": {"uid": "246417408", "number": "5111", "bike_uids": [], "virtual": false}}, {"id": "864ae4b20645b8b048dba01e0a9f9c7c", "name": "Uni-Kliniken I", "latitude": 51.198054, "longitude": 6.782926, "timestamp": "2025-05-03T03:15:32.673653+00:00Z", "free_bikes": 0, "empty_slots": null, "extra": {"uid": "278979323", "number": "4798", "bike_uids": [], "virtual": false}}, {"id": "8734b3d7921ac28da555bee50c1a7928", "name": "Christophstra\u00dfe III", "latitude": 51.189306, "longitude": 6.797903, "timestamp": "2025-05-03T03:15:32.673708+00:00Z", "free_bikes": 0, "empty_slots": null, "extra": {"uid": "278996753", "number": "4805", "bike_uids": [], "virtual": false}}, {"id": "882b161bacdba4f0168fa3ad6a5a3006", "name": "Kalkumer Stra\u00dfe - Kleinschmitthauser Weg", "latitude": 51.269135, "longitude": 6.773962, "timestamp": "2025-05-03T03:15:32.674486+00:00Z", "free_bikes": 0, "empty_slots": null, "extra": {"uid": "498502554", "number": "4881", "bike_uids": [], "virtual": false}}, {"id": "8a571cb496eadc06a70d19081f71ee94", "name": "UKD VII", "latitude": 51.196339, "longitude": 6.792614, "timestamp": "2025-05-03T03:15:32.674786+00:00Z", "free_bikes": 0, "empty_slots": null, "extra": {"uid": "519319270", "number": "55508", "bike_uids": [], "virtual": false}}, {"id": "8a7ed12f2834c1c9e6fa9abb9519ab66", "name": "Zurheide I", "latitude": 51.218924, "longitude": 6.783146, "timestamp": "2025-05-03T03:15:32.673478+00:00Z", "free_bikes": 0, "empty_slots": null, "extra": {"uid": "248537413", "number": "4777", "bike_uids": [], "virtual": false}}, {"id": "8ae19fb5f97d5eaa5e85391fa8421fe0", "name": "Flughafen S-Bahn", "latitude": 51.291184, "longitude": 6.787823, "timestamp": "2025-05-03T03:15:32.672455+00:00Z", "free_bikes": 0, "empty_slots": null, "extra": {"uid": "43289064", "number": "5030", "bike_uids": [], "virtual": false}}, {"id": "8b2b8fb2ed3026ece292ccc4aee052b5", "name": "Marc-Chagall-Stra\u00dfe I", "latitude": 51.23825, "longitude": 6.795259, "timestamp": "2025-05-03T03:15:32.674415+00:00Z", "free_bikes": 0, "empty_slots": null, "extra": {"uid": "486546744", "number": "4743", "bike_uids": [], "virtual": false}}, {"id": "8b53b7296f4e4d6c5feab6c50bac7bd5", "name": "Benrather Marktplatz", "latitude": 51.163498, "longitude": 6.874282, "timestamp": "2025-05-03T03:15:32.674581+00:00Z", "free_bikes": 5, "empty_slots": null, "extra": {"uid": "499870683", "number": "4889", "bike_uids": ["31036", "31840", "303012", "302734", "302522"], "virtual": false}}, {"id": "8bc4f61e927cba010881144fcdf4754a", "name": "D\u00fcsseldorf HBF I", "latitude": 51.220356, "longitude": 6.792268, "timestamp": "2025-05-03T03:15:32.673339+00:00Z", "free_bikes": 1, "empty_slots": null, "extra": {"uid": "248521915", "number": "4762", "bike_uids": ["31035"], "virtual": false}}, {"id": "8dc8bdca3f832aa1692ab4c63913e998", "name": "LIDL Buscherstra\u00dfe", "latitude": 51.247583, "longitude": 6.796278, "timestamp": "2025-05-03T03:15:32.672514+00:00Z", "free_bikes": 0, "empty_slots": null, "extra": {"uid": "101393310", "number": "5048", "bike_uids": [], "virtual": false}}, {"id": "8dd009b566cce83f2f7ddc06b3183d53", "name": "Eulerstra\u00dfe - Scharnhorststra\u00dfe", "latitude": 51.241202, "longitude": 6.786718, "timestamp": "2025-05-03T03:15:32.674376+00:00Z", "free_bikes": 1, "empty_slots": null, "extra": {"uid": "486544153", "number": "4749", "bike_uids": ["302509"], "virtual": false}}, {"id": "8ea0f4f0381c34b059964c231d99514b", "name": "Oberbilker Allee I", "latitude": 51.211219, "longitude": 6.783119, "timestamp": "2025-05-03T03:15:32.674364+00:00Z", "free_bikes": 3, "empty_slots": null, "extra": {"uid": "478882685", "number": "4859", "bike_uids": ["32274", "31395", "302830"], "virtual": false}}, {"id": "8eb33287990b72ea3f8230a66df9db80", "name": "Oberbilk S-Bahn", "latitude": 51.208497, "longitude": 6.807908, "timestamp": "2025-05-03T03:15:32.672434+00:00Z", "free_bikes": 2, "empty_slots": null, "extra": {"uid": "28777345", "number": "5038", "bike_uids": ["31994", "302817"], "virtual": false}}, {"id": "9031e552cddb76065f9bed1b5a19bb8e", "name": "Bilker Stra\u00dfe", "latitude": 51.222771, "longitude": 6.772921, "timestamp": "2025-05-03T03:15:32.673015+00:00Z", "free_bikes": 0, "empty_slots": null, "extra": {"uid": "246338677", "number": "5094", "bike_uids": [], "virtual": false}}, {"id": "93016918e806df23a2e60454c560d855", "name": "F\u00fcrstenplatz III", "latitude": 51.213924, "longitude": 6.785281, "timestamp": "2025-05-03T03:15:32.674164+00:00Z", "free_bikes": 5, "empty_slots": null, "extra": {"uid": "471539607", "number": "4825", "bike_uids": ["31123", "303390", "302855", "302643", "302535"], "virtual": false}}, {"id": "94d111a7670e7f82e6f395f48d4dc805", "name": "H\u00fcttenstra\u00dfe II", "latitude": 51.212734, "longitude": 6.791187, "timestamp": "2025-05-03T03:15:32.674178+00:00Z", "free_bikes": 3, "empty_slots": null, "extra": {"uid": "472308976", "number": "4826", "bike_uids": ["31911", "32156", "302747"], "virtual": false}}, {"id": "960364c1fe602b0e6d42a1028c4d41d0", "name": "Christophstra\u00dfe I", "latitude": 51.196406, "longitude": 6.796407, "timestamp": "2025-05-03T03:15:32.672370+00:00Z", "free_bikes": 0, "empty_slots": null, "extra": {"uid": "24482873", "number": "5021", "bike_uids": [], "virtual": false}}, {"id": "9794a7e687254b22ee9630d284f0746e", "name": "Kasernenstra\u00dfe - Grabenstra\u00dfe", "latitude": 51.224289, "longitude": 6.775528, "timestamp": "2025-05-03T03:15:32.673024+00:00Z", "free_bikes": 0, "empty_slots": null, "extra": {"uid": "246387037", "number": "5095", "bike_uids": [], "virtual": false}}, {"id": "97d9bed944ab0add1bba9d7e708226c3", "name": "K\u00d6 VIII", "latitude": 51.221366, "longitude": 6.779289, "timestamp": "2025-05-03T03:15:32.673773+00:00Z", "free_bikes": 0, "empty_slots": null, "extra": {"uid": "279012181", "number": "4816", "bike_uids": [], "virtual": false}}, {"id": "982faaf9e9888b48fba9557590944ac2", "name": "Harkortstra\u00dfe", "latitude": 51.218524, "longitude": 6.790318, "timestamp": "2025-05-03T03:15:32.673392+00:00Z", "free_bikes": 0, "empty_slots": null, "extra": {"uid": "248529829", "number": "4768", "bike_uids": [], "virtual": false}}, {"id": "996486a6675d92ef5786c85b96717c47", "name": "Alexanderstra\u00dfe", "latitude": 51.219935, "longitude": 6.784047, "timestamp": "2025-05-03T03:15:32.673444+00:00Z", "free_bikes": 0, "empty_slots": null, "extra": {"uid": "248534734", "number": "4774", "bike_uids": [], "virtual": false}}, {"id": "9977765b93b3ce26af2d5d66c520d55b", "name": "Leopoldstra\u00dfe II", "latitude": 51.226392, "longitude": 6.790758, "timestamp": "2025-05-03T03:15:32.673212+00:00Z", "free_bikes": 0, "empty_slots": null, "extra": {"uid": "246425631", "number": "5114", "bike_uids": [], "virtual": false}}, {"id": "9cf7c547fd4a047b8436416807920511", "name": "UKD VI", "latitude": 51.195398, "longitude": 6.794744, "timestamp": "2025-05-03T03:15:32.674778+00:00Z", "free_bikes": 0, "empty_slots": null, "extra": {"uid": "519319073", "number": "55507", "bike_uids": [], "virtual": false}}, {"id": "a0f8d9a96cbcf2ecb5ca340a6b9af6b3", "name": "Garath S-Bahnhof Ost", "latitude": 51.143733, "longitude": 6.898009, "timestamp": "2025-05-03T03:15:32.674844+00:00Z", "free_bikes": 2, "empty_slots": null, "extra": {"uid": "528070142", "number": "55513", "bike_uids": ["31121", "302673"], "virtual": false}}, {"id": "a30e41117c674de00710c4e571cc5ba2", "name": "Gumbertstra\u00dfe", "latitude": 51.200585, "longitude": 6.84055, "timestamp": "2025-05-03T03:15:32.674721+00:00Z", "free_bikes": 7, "empty_slots": null, "extra": {"uid": "501446506", "number": "4894", "bike_uids": ["303367", "31343", "303328", "303099", "303041", "302949", "302848"], "virtual": false}}, {"id": "a3645e2b698e81d2c035b1c127905a52", "name": "Metro AG", "latitude": 51.236799, "longitude": 6.822939, "timestamp": "2025-05-03T03:15:32.672361+00:00Z", "free_bikes": 0, "empty_slots": null, "extra": {"uid": "4775611", "number": "5067", "bike_uids": [], "virtual": false}}, {"id": "a3cba94380c23347b61836ac27015844", "name": "Brehmplatz I", "latitude": 51.23868, "longitude": 6.80315, "timestamp": "2025-05-03T03:15:32.672154+00:00Z", "free_bikes": 0, "empty_slots": null, "extra": {"uid": "2353", "number": "5044", "bike_uids": [], "virtual": false}}, {"id": "a56391ae802991b86d7b93d7b274b2e5", "name": "K\u00d6 III - Ausweichstation", "latitude": 51.225287, "longitude": 6.778409, "timestamp": "2025-05-03T03:15:32.673818+00:00Z", "free_bikes": 1, "empty_slots": null, "extra": {"uid": "373865806", "number": "4829", "bike_uids": ["302692"], "virtual": false}}, {"id": "a708ec86d932df601d0b28c056205854", "name": "Eller Mitte S", "latitude": 51.202206, "longitude": 6.840961, "timestamp": "2025-05-03T03:15:32.674696+00:00Z", "free_bikes": 2, "empty_slots": null, "extra": {"uid": "501446199", "number": "4896", "bike_uids": ["31839", "302905"], "virtual": false}}, {"id": "a7ba061bc1abef7a491fd80d8025c158", "name": "Karlstra\u00dfe III", "latitude": 51.220049, "longitude": 6.788591, "timestamp": "2025-05-03T03:15:32.673220+00:00Z", "free_bikes": 1, "empty_slots": null, "extra": {"uid": "246429327", "number": "5115", "bike_uids": ["303030"], "virtual": false}}, {"id": "aaabc1339bc7b895af07519770fef474", "name": "Uni-Kliniken V", "latitude": 51.200215, "longitude": 6.789647, "timestamp": "2025-05-03T03:15:32.673631+00:00Z", "free_bikes": 0, "empty_slots": null, "extra": {"uid": "278977745", "number": "4796", "bike_uids": [], "virtual": false}}, {"id": "addca218a95a69f805b4060845b8cb07", "name": "Engerstra\u00dfe III", "latitude": 51.232321, "longitude": 6.816688, "timestamp": "2025-05-03T03:15:32.674065+00:00Z", "free_bikes": 0, "empty_slots": null, "extra": {"uid": "448775255", "number": "4868", "bike_uids": [], "virtual": false}}, {"id": "aef014a911e8588deed8718cb7099fed", "name": "K\u00f6lnerstra\u00dfe", "latitude": 51.226171, "longitude": 6.793853, "timestamp": "2025-05-03T03:15:32.673540+00:00Z", "free_bikes": 0, "empty_slots": null, "extra": {"uid": "248557678", "number": "4786", "bike_uids": [], "virtual": false}}, {"id": "b20a905a0d1847da7ca8431ae5df2ef2", "name": "GAP I", "latitude": 51.218554, "longitude": 6.775517, "timestamp": "2025-05-03T03:15:32.673134+00:00Z", "free_bikes": 0, "empty_slots": null, "extra": {"uid": "246406801", "number": "5106", "bike_uids": [], "virtual": false}}, {"id": "b37b3f7b27bed49fa53777517a96b308", "name": "Horionplatz", "latitude": 51.220439, "longitude": 6.768651, "timestamp": "2025-05-03T03:15:32.673074+00:00Z", "free_bikes": 2, "empty_slots": null, "extra": {"uid": "246393570", "number": "5100", "bike_uids": ["32353", "302921"], "virtual": false}}, {"id": "b454d17f574dcd7b781c79b818ed67b3", "name": "Rheinufer I", "latitude": 51.233937, "longitude": 6.772846, "timestamp": "2025-05-03T03:15:32.672568+00:00Z", "free_bikes": 16, "empty_slots": null, "extra": {"uid": "219291763", "number": "5081", "bike_uids": ["31093", "30886", "32352", "31815", "30831", "31005", "31312", "32005", "32040", "32067", "303185", "303100", "302923", "303351", "302735", "31427"], "virtual": false}}, {"id": "b47c20d117f024f43acafb9e238b5703", "name": "Auf'm Hennekamp", "latitude": 51.202366, "longitude": 6.783966, "timestamp": "2025-05-03T03:15:32.673717+00:00Z", "free_bikes": 0, "empty_slots": null, "extra": {"uid": "279000600", "number": "4809", "bike_uids": [], "virtual": false}}, {"id": "b50811bc24548f7942f02af669f15b1b", "name": "H\u00fcttenstra\u00dfe VI", "latitude": 51.217529, "longitude": 6.782148, "timestamp": "2025-05-03T03:15:32.674249+00:00Z", "free_bikes": 2, "empty_slots": null, "extra": {"uid": "474311028", "number": "4807", "bike_uids": ["32167", "31051"], "virtual": false}}, {"id": "b58f3653a0a1f821a9f9274da104b278", "name": "Uni-Ost II", "latitude": 51.189175, "longitude": 6.800113, "timestamp": "2025-05-03T03:15:32.673699+00:00Z", "free_bikes": 0, "empty_slots": null, "extra": {"uid": "278992198", "number": "4804", "bike_uids": [], "virtual": false}}, {"id": "b7c8dc2351a6a84682a474114e375690", "name": "Ruby Hotel", "latitude": 51.222509, "longitude": 6.775635, "timestamp": "2025-05-03T03:15:32.673033+00:00Z", "free_bikes": 0, "empty_slots": null, "extra": {"uid": "246388445", "number": "5096", "bike_uids": [], "virtual": false}}, {"id": "b7ee4f34e82a41807280331dbeef44de", "name": "Carl-Mosterts-Platz", "latitude": 51.238162, "longitude": 6.788676, "timestamp": "2025-05-03T03:15:32.672195+00:00Z", "free_bikes": 0, "empty_slots": null, "extra": {"uid": "66645", "number": "5018", "bike_uids": [], "virtual": false}}, {"id": "b8091378dd52307d92b5a34b226e9a99", "name": "Ludwig-Erhard-Allee", "latitude": 51.22054, "longitude": 6.79793, "timestamp": "2025-05-03T03:15:32.672304+00:00Z", "free_bikes": 0, "empty_slots": null, "extra": {"uid": "122769", "number": "5033", "bike_uids": [], "virtual": false}}, {"id": "b8298d44d048182bfc08b08471b0a002", "name": "Robert-Schumann-Hochschule", "latitude": 51.250275, "longitude": 6.769917, "timestamp": "2025-05-03T03:15:32.672446+00:00Z", "free_bikes": 0, "empty_slots": null, "extra": {"uid": "37124454", "number": "5025", "bike_uids": [], "virtual": false}}, {"id": "bb73347606edef8d25e911b1304d944d", "name": "Europaplatz", "latitude": 51.26458, "longitude": 6.735858, "timestamp": "2025-05-03T03:15:32.673900+00:00Z", "free_bikes": 1, "empty_slots": null, "extra": {"uid": "390870705", "number": "4836", "bike_uids": ["30860"], "virtual": false}}, {"id": "bbd5075f3f2eff8709714ef001c6ba4c", "name": "Uni S\u00fcd I", "latitude": 51.186115, "longitude": 6.795784, "timestamp": "2025-05-03T03:15:32.673678+00:00Z", "free_bikes": 0, "empty_slots": null, "extra": {"uid": "278988679", "number": "4802", "bike_uids": [], "virtual": false}}, {"id": "bbfadfcfc94c14247d167a0a68b236c8", "name": "Immermannstra\u00dfe IV", "latitude": 51.223906, "longitude": 6.78807, "timestamp": "2025-05-03T03:15:32.672886+00:00Z", "free_bikes": 2, "empty_slots": null, "extra": {"uid": "246326887", "number": "5069", "bike_uids": ["303308", "303110"], "virtual": false}}, {"id": "bc8a390b24b764d579c3bbc61a286157", "name": "Engerstra\u00dfe II", "latitude": 51.233712, "longitude": 6.816942, "timestamp": "2025-05-03T03:15:32.674053+00:00Z", "free_bikes": 1, "empty_slots": null, "extra": {"uid": "448773191", "number": "4867", "bike_uids": ["31205"], "virtual": false}}, {"id": "c129b3ed520a21e01e33fbd8b985b9fb", "name": "Cranachstra\u00dfe II", "latitude": 51.231937, "longitude": 6.814626, "timestamp": "2025-05-03T03:15:32.674082+00:00Z", "free_bikes": 0, "empty_slots": null, "extra": {"uid": "448778006", "number": "4870", "bike_uids": [], "virtual": false}}, {"id": "c199d71ae4a3843f83e172c03a93a071", "name": "Bankstra\u00dfe ", "latitude": 51.243422, "longitude": 6.775668, "timestamp": "2025-05-03T03:15:32.674807+00:00Z", "free_bikes": 2, "empty_slots": null, "extra": {"uid": "525488668", "number": "55510", "bike_uids": ["303201", "30857"], "virtual": false}}, {"id": "c1b5d45fcd0275e81e4951e87d48196d", "name": "Karlstra\u00dfe II", "latitude": 51.221239, "longitude": 6.791031, "timestamp": "2025-05-03T03:15:32.673150+00:00Z", "free_bikes": 0, "empty_slots": null, "extra": {"uid": "246415162", "number": "5108", "bike_uids": [], "virtual": false}}, {"id": "c2b8e430b5f5cafa8a980038b6b0f321", "name": "Hellerhof S-Bahnhof", "latitude": 51.132713, "longitude": 6.907906, "timestamp": "2025-05-03T03:15:32.674819+00:00Z", "free_bikes": 4, "empty_slots": null, "extra": {"uid": "528069185", "number": "55511", "bike_uids": ["32195", "303302", "32049", "302616"], "virtual": false}}, {"id": "c4f70cf302d22b69148ff54bbf9039ae", "name": "Schlesische Stra\u00dfe", "latitude": 51.207138, "longitude": 6.831518, "timestamp": "2025-05-03T03:15:32.674684+00:00Z", "free_bikes": 3, "empty_slots": null, "extra": {"uid": "501445850", "number": "4897", "bike_uids": ["303001", "302729", "302657"], "virtual": false}}, {"id": "c589eb8059be5b5950eb4c3c8f21ffb2", "name": "Rather Broich", "latitude": 51.260606, "longitude": 6.813825, "timestamp": "2025-05-03T03:15:32.673967+00:00Z", "free_bikes": 2, "empty_slots": null, "extra": {"uid": "419168954", "number": "4843", "bike_uids": ["303124", "302825"], "virtual": false}}, {"id": "c66c7751111e2e8adb30156a41c21b51", "name": "Kreuzstra\u00dfe", "latitude": 51.223802, "longitude": 6.785533, "timestamp": "2025-05-03T03:15:32.673274+00:00Z", "free_bikes": 2, "empty_slots": null, "extra": {"uid": "248512015", "number": "4756", "bike_uids": ["303037", "30879"], "virtual": false}}, {"id": "c718aa6490811098dc83bd6ae1970094", "name": "Westfalenstra\u00dfe II", "latitude": 51.263009, "longitude": 6.816759, "timestamp": "2025-05-03T03:15:32.673991+00:00Z", "free_bikes": 2, "empty_slots": null, "extra": {"uid": "419170153", "number": "4845", "bike_uids": ["31800", "303042"], "virtual": false}}, {"id": "c7fb4029f9739cb67e645855af637582", "name": "Kirchplatz II", "latitude": 51.21388, "longitude": 6.777513, "timestamp": "2025-05-03T03:15:32.673086+00:00Z", "free_bikes": 1, "empty_slots": null, "extra": {"uid": "246399416", "number": "5101", "bike_uids": ["303166"], "virtual": false}}, {"id": "c869f5a60eb5488e5a5fcd476f2b6bc8", "name": "Charlottenstra\u00dfe - Friedrich-Ebert-Stra\u00dfe", "latitude": 51.221497, "longitude": 6.788306, "timestamp": "2025-05-03T03:15:32.673315+00:00Z", "free_bikes": 2, "empty_slots": null, "extra": {"uid": "248517475", "number": "4760", "bike_uids": ["31055", "31603"], "virtual": false}}, {"id": "c9f5cfb5c49b75a8aea62470d54a8f3b", "name": "Schwanenmarkt II", "latitude": 51.219293, "longitude": 6.77269, "timestamp": "2025-05-03T03:15:32.673117+00:00Z", "free_bikes": 0, "empty_slots": null, "extra": {"uid": "246405720", "number": "5104", "bike_uids": [], "virtual": false}}, {"id": "ca15337a3b27459f0f9049956daf4617", "name": "Grabbeplatz", "latitude": 51.227501, "longitude": 6.776687, "timestamp": "2025-05-03T03:15:32.672749+00:00Z", "free_bikes": 1, "empty_slots": null, "extra": {"uid": "246315029", "number": "5056", "bike_uids": ["32178"], "virtual": false}}, {"id": "ca3fcbbed2cbaf6b73f3f8e29385c6ac", "name": "UKD IV", "latitude": 51.196262, "longitude": 6.789921, "timestamp": "2025-05-03T03:15:32.673925+00:00Z", "free_bikes": 0, "empty_slots": null, "extra": {"uid": "410110379", "number": "4838", "bike_uids": [], "virtual": false}}, {"id": "ca7160dac72e22f66b3711c0b56308d2", "name": "Gustaf-Gr\u00fcndgens-Platz", "latitude": 51.227854, "longitude": 6.784219, "timestamp": "2025-05-03T03:15:32.672612+00:00Z", "free_bikes": 0, "empty_slots": null, "extra": {"uid": "245282895", "number": "5086", "bike_uids": [], "virtual": false}}, {"id": "cb462272ff825cb2bf8d6bf5225dae3d", "name": "Platz der deutschen Einheit", "latitude": 51.223077, "longitude": 6.784111, "timestamp": "2025-05-03T03:15:32.673266+00:00Z", "free_bikes": 0, "empty_slots": null, "extra": {"uid": "248504834", "number": "4755", "bike_uids": [], "virtual": false}}, {"id": "cb53fb17518342ffab5718477311bec7", "name": "Westfalenstra\u00dfe III", "latitude": 51.263456, "longitude": 6.818336, "timestamp": "2025-05-03T03:15:32.674004+00:00Z", "free_bikes": 1, "empty_slots": null, "extra": {"uid": "419171355", "number": "4846", "bike_uids": ["32058"], "virtual": false}}, {"id": "cd1ddec6ac733c9410c3e198e1385e8c", "name": "K\u00d6 IX", "latitude": 51.219854, "longitude": 6.776719, "timestamp": "2025-05-03T03:15:32.672235+00:00Z", "free_bikes": 0, "empty_slots": null, "extra": {"uid": "66658", "number": "5037", "bike_uids": [], "virtual": false}}, {"id": "cd749227b3a87599c9c204ad8d275e00", "name": "Haus-der-Kirche", "latitude": 51.221595, "longitude": 6.773404, "timestamp": "2025-05-03T03:15:32.673051+00:00Z", "free_bikes": 0, "empty_slots": null, "extra": {"uid": "246391371", "number": "5098", "bike_uids": [], "virtual": false}}, {"id": "cef61c309a4fbc6b1332a23e4e116368", "name": "Elisabethstra\u00dfe", "latitude": 51.216231, "longitude": 6.775275, "timestamp": "2025-05-03T03:15:32.674734+00:00Z", "free_bikes": 1, "empty_slots": null, "extra": {"uid": "501449740", "number": "4893", "bike_uids": ["32381"], "virtual": false}}, {"id": "cf49820a8b456f0f3a3d39d3c42757f7", "name": "Uni-Kliniken VI", "latitude": 51.198914, "longitude": 6.788784, "timestamp": "2025-05-03T03:15:32.673795+00:00Z", "free_bikes": 0, "empty_slots": null, "extra": {"uid": "320915266", "number": "4821", "bike_uids": [], "virtual": false}}, {"id": "cf9d198554ef2bc73acc4c9369ba951b", "name": "Urdenbacher Allee", "latitude": 51.162169, "longitude": 6.874512, "timestamp": "2025-05-03T03:15:32.674602+00:00Z", "free_bikes": 2, "empty_slots": null, "extra": {"uid": "499871274", "number": "4891", "bike_uids": ["303245", "302739"], "virtual": false}}, {"id": "d16a439896c3ec32f1d8e63784bc39f7", "name": "Brehmplatz II", "latitude": 51.238515, "longitude": 6.802152, "timestamp": "2025-05-03T03:15:32.674545+00:00Z", "free_bikes": 1, "empty_slots": null, "extra": {"uid": "499866691", "number": "4886", "bike_uids": ["30885"], "virtual": false}}, {"id": "d5115a3d578e529aca46ce89836bfc21", "name": "Rheinufer II", "latitude": 51.23657, "longitude": 6.771639, "timestamp": "2025-05-03T03:15:32.672138+00:00Z", "free_bikes": 1, "empty_slots": null, "extra": {"uid": "2349", "number": "5082", "bike_uids": ["30855"], "virtual": false}}, {"id": "d57123844e54633d854c1dd066fa8e2e", "name": "Kalkumer Schlossallee", "latitude": 51.305094, "longitude": 6.743154, "timestamp": "2025-05-03T03:15:32.674331+00:00Z", "free_bikes": 5, "empty_slots": null, "extra": {"uid": "474654598", "number": "4875", "bike_uids": ["31989", "31801", "303141", "32109", "302837"], "virtual": false}}, {"id": "d7de789fee5aa8e87f2ecff22d2bb387", "name": "Achenbachstra\u00dfe", "latitude": 51.237494, "longitude": 6.798987, "timestamp": "2025-05-03T03:15:32.674557+00:00Z", "free_bikes": 2, "empty_slots": null, "extra": {"uid": "499869639", "number": "4887", "bike_uids": ["303325", "31410"], "virtual": false}}, {"id": "d8f035a259c1e7b7cf8b7b96690ea3bc", "name": "Friedrichstadt S", "latitude": 51.211202, "longitude": 6.787142, "timestamp": "2025-05-03T03:15:32.674272+00:00Z", "free_bikes": 2, "empty_slots": null, "extra": {"uid": "474314600", "number": "4863", "bike_uids": ["303369", "31473"], "virtual": false}}, {"id": "d8f169f1378a8b452c15a472f2733d12", "name": "Westfalenstra\u00dfe I", "latitude": 51.262556, "longitude": 6.812881, "timestamp": "2025-05-03T03:15:32.673979+00:00Z", "free_bikes": 3, "empty_slots": null, "extra": {"uid": "419169623", "number": "4844", "bike_uids": ["32061", "302691", "302656"], "virtual": false}}, {"id": "d8f4bba4b9e1c9cbd4607c927c157b2a", "name": "Kalkumer Stra\u00dfe - Bielefelder Stra\u00dfe", "latitude": 51.264221, "longitude": 6.775517, "timestamp": "2025-05-03T03:15:32.674521+00:00Z", "free_bikes": 1, "empty_slots": null, "extra": {"uid": "498503403", "number": "4884", "bike_uids": ["302613"], "virtual": false}}, {"id": "da82f7d0b57cacedcd7a570781eb3726", "name": "Uni-Kliniken III", "latitude": 51.199102, "longitude": 6.789063, "timestamp": "2025-05-03T03:15:32.673623+00:00Z", "free_bikes": 0, "empty_slots": null, "extra": {"uid": "278976949", "number": "4795", "bike_uids": [], "virtual": false}}, {"id": "da99b7ff81cafd0db662359ddaf9be00", "name": "Immermannstra\u00dfe VII", "latitude": 51.223134, "longitude": 6.789406, "timestamp": "2025-05-03T03:15:32.672923+00:00Z", "free_bikes": 1, "empty_slots": null, "extra": {"uid": "246330794", "number": "5075", "bike_uids": ["303333"], "virtual": false}}, {"id": "dc49ca17a06749ce698e93dbecdf631c", "name": "Immermannstra\u00dfe V", "latitude": 51.223634, "longitude": 6.787866, "timestamp": "2025-05-03T03:15:32.672899+00:00Z", "free_bikes": 2, "empty_slots": null, "extra": {"uid": "246327315", "number": "5070", "bike_uids": ["31354", "30889"], "virtual": false}}, {"id": "dcf98707db209770a0c79924f9e73384", "name": "Marc-Chagall-Stra\u00dfe II", "latitude": 51.241185, "longitude": 6.794974, "timestamp": "2025-05-03T03:15:32.674424+00:00Z", "free_bikes": 0, "empty_slots": null, "extra": {"uid": "486546956", "number": "4742", "bike_uids": [], "virtual": false}}, {"id": "ddd05011c5cd9e6a8d65c4a72c09c704", "name": "Bismarckstra\u00dfe", "latitude": 51.22223, "longitude": 6.785608, "timestamp": "2025-05-03T03:15:32.673294+00:00Z", "free_bikes": 0, "empty_slots": null, "extra": {"uid": "248514390", "number": "4758", "bike_uids": [], "virtual": false}}, {"id": "dfcd2840c04c4ad744be8ae5047881c8", "name": "GAP II", "latitude": 51.218161, "longitude": 6.779187, "timestamp": "2025-05-03T03:15:32.673142+00:00Z", "free_bikes": 0, "empty_slots": null, "extra": {"uid": "246408466", "number": "5107", "bike_uids": [], "virtual": false}}, {"id": "e05c248d0ae9bf46e45923279c6e2c30", "name": "Engerstra\u00dfe I", "latitude": 51.233397, "longitude": 6.814932, "timestamp": "2025-05-03T03:15:32.674040+00:00Z", "free_bikes": 1, "empty_slots": null, "extra": {"uid": "448768978", "number": "4866", "bike_uids": ["303297"], "virtual": false}}, {"id": "e17450bd7dd6c3315bad7c9b38fee3ed", "name": "Christophstra\u00dfe II", "latitude": 51.19277, "longitude": 6.79708, "timestamp": "2025-05-03T03:15:32.674099+00:00Z", "free_bikes": 0, "empty_slots": null, "extra": {"uid": "449515986", "number": "4872", "bike_uids": [], "virtual": false}}, {"id": "e25430fac3d467e470e03ebf03c63ba6", "name": "Gerresheimerstra\u00dfe", "latitude": 51.227236, "longitude": 6.7955, "timestamp": "2025-05-03T03:15:32.673567+00:00Z", "free_bikes": 0, "empty_slots": null, "extra": {"uid": "248560440", "number": "4789", "bike_uids": [], "virtual": false}}, {"id": "e76fa20996f1fe3210bdeb8ed35c6a48", "name": "Cranachstra\u00dfe I", "latitude": 51.231338, "longitude": 6.816225, "timestamp": "2025-05-03T03:15:32.674073+00:00Z", "free_bikes": 0, "empty_slots": null, "extra": {"uid": "448776618", "number": "4869", "bike_uids": [], "virtual": false}}, {"id": "e7c45b3b06dd996c088fe31afcfbc649", "name": "Stresemannplatz II", "latitude": 51.219398, "longitude": 6.790366, "timestamp": "2025-05-03T03:15:32.673374+00:00Z", "free_bikes": 0, "empty_slots": null, "extra": {"uid": "248528795", "number": "4766", "bike_uids": [], "virtual": false}}, {"id": "e7d9f14beff252c96457ac66b6671764", "name": "Schanzenstra\u00dfe II", "latitude": 51.232365, "longitude": 6.741765, "timestamp": "2025-05-03T03:15:32.674478+00:00Z", "free_bikes": 0, "empty_slots": null, "extra": {"uid": "491231959", "number": "4878", "bike_uids": [], "virtual": false}}, {"id": "e9136a3c6c1ce1c74df3ebd26aba714b", "name": "Immermannstra\u00dfe VI", "latitude": 51.222999, "longitude": 6.789068, "timestamp": "2025-05-03T03:15:32.672911+00:00Z", "free_bikes": 3, "empty_slots": null, "extra": {"uid": "246329740", "number": "5071", "bike_uids": ["32137", "32128", "302682"], "virtual": false}}, {"id": "e9612cd10547126469870e0c42ff4aad", "name": "Kalkumer Stra\u00dfe - Auf den Geisten", "latitude": 51.270957, "longitude": 6.774101, "timestamp": "2025-05-03T03:15:32.674496+00:00Z", "free_bikes": 1, "empty_slots": null, "extra": {"uid": "498502789", "number": "4882", "bike_uids": ["303286"], "virtual": false}}, {"id": "ea82481ef657b8faea4c446194024957", "name": "K\u00d6 I ", "latitude": 51.226439, "longitude": 6.778436, "timestamp": "2025-05-03T03:15:32.673241+00:00Z", "free_bikes": 0, "empty_slots": null, "extra": {"uid": "248500906", "number": "4752", "bike_uids": [], "virtual": false}}, {"id": "eb1c970b81c3dc8c648dd4f083763f02", "name": "Messe Ost", "latitude": 51.259256, "longitude": 6.747322, "timestamp": "2025-05-03T03:15:32.673839+00:00Z", "free_bikes": 1, "empty_slots": null, "extra": {"uid": "390866346", "number": "4831", "bike_uids": ["303388"], "virtual": false}}, {"id": "ec0a0adb997e09bf832e26a9e587223d", "name": "M\u00fchlenstra\u00dfe I", "latitude": 51.227182, "longitude": 6.772637, "timestamp": "2025-05-03T03:15:32.672787+00:00Z", "free_bikes": 3, "empty_slots": null, "extra": {"uid": "246318158", "number": "5058", "bike_uids": ["31284", "32384", "302694"], "virtual": false}}, {"id": "ed5af7e065f265c6915506369c4cef1e", "name": "Karlstra\u00dfe I", "latitude": 51.223312, "longitude": 6.79344, "timestamp": "2025-05-03T03:15:32.673158+00:00Z", "free_bikes": 1, "empty_slots": null, "extra": {"uid": "246415818", "number": "5109", "bike_uids": ["32022"], "virtual": false}}, {"id": "ee272def0d75fc803d9ccc93693d1ab6", "name": "Hamm S I", "latitude": 51.210335, "longitude": 6.739125, "timestamp": "2025-05-03T03:15:32.674343+00:00Z", "free_bikes": 0, "empty_slots": null, "extra": {"uid": "477955697", "number": "4839", "bike_uids": [], "virtual": false}}, {"id": "eee2e3a394287ccc14bf7f7b6f8d7c98", "name": "Rheinufer III", "latitude": 51.240392, "longitude": 6.771001, "timestamp": "2025-05-03T03:15:32.672587+00:00Z", "free_bikes": 1, "empty_slots": null, "extra": {"uid": "219294890", "number": "5083", "bike_uids": ["32060"], "virtual": false}}, {"id": "ef932fd0106110ed1cf1a33ee734fc2d", "name": "Uni-S\u00fcd-Ost I", "latitude": 51.182645, "longitude": 6.802302, "timestamp": "2025-05-03T03:15:32.673687+00:00Z", "free_bikes": 1, "empty_slots": null, "extra": {"uid": "278990091", "number": "4803", "bike_uids": ["302994"], "virtual": false}}, {"id": "f0070ac2d71aba86c42aaef5675381e5", "name": "Kunstakademie ", "latitude": 51.230454, "longitude": 6.775287, "timestamp": "2025-05-03T03:15:32.672647+00:00Z", "free_bikes": 1, "empty_slots": null, "extra": {"uid": "246302273", "number": "5049", "bike_uids": ["302984"], "virtual": false}}, {"id": "f08b8ca7d5fcca2af011c9ccfad2ba72", "name": "Lohauser Deich I", "latitude": 51.258007, "longitude": 6.732699, "timestamp": "2025-05-03T03:15:32.673912+00:00Z", "free_bikes": 8, "empty_slots": null, "extra": {"uid": "390871558", "number": "4837", "bike_uids": ["31415", "31432", "32395", "303034", "302992", "302556", "302555", "302553"], "virtual": false}}, {"id": "f1263bd3f5f2a17418572196bdbef629", "name": "An der Piwipp - Ulmenstra\u00dfe", "latitude": 51.26258, "longitude": 6.776301, "timestamp": "2025-05-03T03:15:32.674533+00:00Z", "free_bikes": 2, "empty_slots": null, "extra": {"uid": "498503720", "number": "4885", "bike_uids": ["31935", "31485"], "virtual": false}}, {"id": "f17d78deb8bec575bb9880a9ef3fdc09", "name": "Uni-West I", "latitude": 51.190775, "longitude": 6.790302, "timestamp": "2025-05-03T03:15:32.673661+00:00Z", "free_bikes": 0, "empty_slots": null, "extra": {"uid": "278985512", "number": "4800", "bike_uids": [], "virtual": false}}, {"id": "f22f4deac60336b5cedf51a82825308d", "name": "ARAG Platz", "latitude": 51.250312, "longitude": 6.80058, "timestamp": "2025-05-03T03:15:32.672166+00:00Z", "free_bikes": 2, "empty_slots": null, "extra": {"uid": "2728", "number": "5032", "bike_uids": ["31280", "303174"], "virtual": false}}, {"id": "f23084e6a34fcaf186c4bbe65d962f1b", "name": "Carlsplatz", "latitude": 51.223174, "longitude": 6.774412, "timestamp": "2025-05-03T03:15:32.673001+00:00Z", "free_bikes": 2, "empty_slots": null, "extra": {"uid": "246337125", "number": "5093", "bike_uids": ["32165", "302581"], "virtual": false}}, {"id": "f283f3f8a7443b1e95e3be2a5236ca13", "name": "Immermannstra\u00dfe VIII", "latitude": 51.222408, "longitude": 6.791128, "timestamp": "2025-05-03T03:15:32.672934+00:00Z", "free_bikes": 1, "empty_slots": null, "extra": {"uid": "246331319", "number": "5078", "bike_uids": ["32152"], "virtual": false}}, {"id": "f3c6d438c05f15faf15732dbc1e1c97e", "name": "M\u00fcnsterplatz", "latitude": 51.24396, "longitude": 6.788441, "timestamp": "2025-05-03T03:15:32.674795+00:00Z", "free_bikes": 1, "empty_slots": null, "extra": {"uid": "524380982", "number": "55509", "bike_uids": ["303225"], "virtual": false}}, {"id": "f3f91652dee20382d9a31de51bc6353a", "name": "Prinz-Georg-Stra\u00dfe - Ludwig-Wolker-Stra\u00dfe", "latitude": 51.238005, "longitude": 6.787148, "timestamp": "2025-05-03T03:15:32.674398+00:00Z", "free_bikes": 0, "empty_slots": null, "extra": {"uid": "486545438", "number": "4746", "bike_uids": [], "virtual": false}}, {"id": "f4a72aba56d53057f365a59bd115ebec", "name": "VODAFONE CAMPUS", "latitude": 51.235734, "longitude": 6.73124, "timestamp": "2025-05-03T03:15:32.672547+00:00Z", "free_bikes": 0, "empty_slots": 7, "extra": {"uid": "134641302", "number": "5085", "slots": 7, "bike_uids": [], "virtual": false}}, {"id": "f57cbd9d2142cd2bbc39afca9b308fc9", "name": "Freiligrathplatz I", "latitude": 51.264295, "longitude": 6.752676, "timestamp": "2025-05-03T03:15:32.673877+00:00Z", "free_bikes": 1, "empty_slots": null, "extra": {"uid": "390869246", "number": "4834", "bike_uids": ["302648"], "virtual": false}}, {"id": "f5fad1ac8c8dffdf5ea0acb3ed341ade", "name": "Zurheide II", "latitude": 51.21977, "longitude": 6.782405, "timestamp": "2025-05-03T03:15:32.673466+00:00Z", "free_bikes": 2, "empty_slots": null, "extra": {"uid": "248536439", "number": "4776", "bike_uids": ["303343", "302531"], "virtual": false}}, {"id": "f66799736234e4df0af4b33c53fec434", "name": "Staufenplatz II", "latitude": 51.24171, "longitude": 6.826457, "timestamp": "2025-05-03T03:15:32.674626+00:00Z", "free_bikes": 1, "empty_slots": null, "extra": {"uid": "501443663", "number": "54503", "bike_uids": ["32116"], "virtual": false}}, {"id": "f6dd12d058b9a1ccf70b4dff38bc3a3b", "name": "Helmholtzstra\u00dfe", "latitude": 51.214787, "longitude": 6.787582, "timestamp": "2025-05-03T03:15:32.674203+00:00Z", "free_bikes": 1, "empty_slots": null, "extra": {"uid": "472309721", "number": "4848", "bike_uids": ["31916"], "virtual": false}}, {"id": "f769ad043e2e92da117377dc744b7e85", "name": "Worringerstra\u00dfe II", "latitude": 51.22695, "longitude": 6.796514, "timestamp": "2025-05-03T03:15:32.673576+00:00Z", "free_bikes": 1, "empty_slots": null, "extra": {"uid": "248561555", "number": "4790", "bike_uids": ["30873"], "virtual": false}}, {"id": "f8963b9c992e156eab9f6ccaab5e0264", "name": "Stresemannstra\u00dfe I", "latitude": 51.219492, "longitude": 6.787266, "timestamp": "2025-05-03T03:15:32.673401+00:00Z", "free_bikes": 0, "empty_slots": null, "extra": {"uid": "248531086", "number": "4770", "bike_uids": [], "virtual": false}}, {"id": "fad09d95c57a13f1bcf054678feaf44c", "name": "Poststra\u00dfe", "latitude": 51.222059, "longitude": 6.771473, "timestamp": "2025-05-03T03:15:32.673060+00:00Z", "free_bikes": 2, "empty_slots": null, "extra": {"uid": "246392750", "number": "5099", "bike_uids": ["32382", "303219"], "virtual": false}}, {"id": "fd50657cc3cfbfc1dd1111467bdd4291", "name": "D\u00fcsseldorf HBF IV", "latitude": 51.219875, "longitude": 6.791015, "timestamp": "2025-05-03T03:15:32.673350+00:00Z", "free_bikes": 0, "empty_slots": null, "extra": {"uid": "248523055", "number": "4763", "bike_uids": [], "virtual": false}}, {"id": "ffbe5a27ce1e0dcc28dafd448ede2ba3", "name": "Uni-Kliniken II", "latitude": 51.198359, "longitude": 6.784766, "timestamp": "2025-05-03T03:15:32.673640+00:00Z", "free_bikes": 1, "empty_slots": null, "extra": {"uid": "278978858", "number": "4797", "bike_uids": ["303440"], "virtual": false}}]}