{"id": "nextbike-ostrava-hlucin", "name": "nextbike Ostrava", "location": {"latitude": 49.898, "longitude": 18.1923, "city": "Hlu\u010d\u00edn", "country": "CZ"}, "href": "/v2/networks/nextbike-ostrava-hlucin", "company": ["Nextbike GmbH"], "system": "Nextbike", "stations": [{"id": "227067e5793398e3368dd608373e3423", "name": "HLU\u010c\u00cdN - Darkovi\u010dky - fotbalov\u00e9 h\u0159i\u0161t\u011b", "latitude": 49.91959, "longitude": 18.20918, "timestamp": "2025-05-03T03:15:38.443063+00:00Z", "free_bikes": 3, "empty_slots": null, "extra": {"uid": "375538582", "number": "46954", "bike_uids": ["48765", "487604", "490282"], "virtual": false}}, {"id": "2d3122b13ec07d77cb6c7261d2fae55d", "name": "Autobusov\u00e9 n\u00e1dra\u017e\u00ed Hlu\u010d\u00edn", "latitude": 49.89743, "longitude": 18.18572, "timestamp": "2025-05-03T03:15:38.443112+00:00Z", "free_bikes": 3, "empty_slots": null, "extra": {"uid": "521276945", "number": "45064", "bike_uids": ["490462", "490395", "491623"], "virtual": false}}, {"id": "2d80c7050b1dd6a922f33abc1eab4775", "name": "HLU\u010c\u00cdN-Hlu\u010d\u00ednsk\u00e9 jezero", "latitude": 49.891856, "longitude": 18.179031, "timestamp": "2025-05-03T03:15:38.442755+00:00Z", "free_bikes": 1, "empty_slots": null, "extra": {"uid": "27579634", "number": "45069", "bike_uids": ["490001"], "virtual": false}}, {"id": "6b4a98f0349e513a5bc9a0bc305bd8aa", "name": "HLU\u010c\u00cdN-Darkovi\u010dky u \u0161koly", "latitude": 49.920327, "longitude": 18.202487, "timestamp": "2025-05-03T03:15:38.442927+00:00Z", "free_bikes": 6, "empty_slots": null, "extra": {"uid": "42064506", "number": "46749", "bike_uids": ["488276", "490850", "490763", "490184", "491504", "491106"], "virtual": false}}, {"id": "91f863a98fd5d8eff0f40cc4ccd6d7fa", "name": "Hlu\u010d\u00edn - Bobrovn\u00edky To\u010dna", "latitude": 49.873, "longitude": 18.209944, "timestamp": "2025-05-03T03:15:38.442857+00:00Z", "free_bikes": 1, "empty_slots": null, "extra": {"uid": "42064102", "number": "46750", "bike_uids": ["491094"], "virtual": false}}, {"id": "b1e6a3f5ee9f07c1b1fbc11a797067de", "name": "Hlu\u010d\u00edn - Vlakov\u00e9 n\u00e1dra\u017e\u00ed", "latitude": 49.900833, "longitude": 18.1935, "timestamp": "2025-05-03T03:15:38.442595+00:00Z", "free_bikes": 3, "empty_slots": null, "extra": {"uid": "27579613", "number": "45066", "bike_uids": ["490945", "490177", "490022"], "virtual": false}}, {"id": "be9a40ca9586d08f3211728da5186993", "name": "HLU\u010c\u00cdN - Star\u00e9 Rovniny - u b\u00fdval\u00e9 \u0161kolky", "latitude": 49.88793, "longitude": 18.20883, "timestamp": "2025-05-03T03:15:38.443090+00:00Z", "free_bikes": 1, "empty_slots": null, "extra": {"uid": "375540400", "number": "46953", "bike_uids": ["491099"], "virtual": false}}, {"id": "d2d5c88187fbc1475dee44f10fe5163e", "name": "HLU\u010c\u00cdN\u2013 Rovniny", "latitude": 49.893778, "longitude": 18.194306, "timestamp": "2025-05-03T03:15:38.442733+00:00Z", "free_bikes": 0, "empty_slots": null, "extra": {"uid": "27579629", "number": "45068", "bike_uids": [], "virtual": false}}, {"id": "e1cc6baa5f2a235545bb51fcda545b76", "name": "HLU\u010c\u00cdN- M\u00edrov\u00e9 n\u00e1m\u011bst\u00ed", "latitude": 49.896444, "longitude": 18.187194, "timestamp": "2025-05-03T03:15:38.442503+00:00Z", "free_bikes": 8, "empty_slots": null, "extra": {"uid": "27579593", "number": "45065", "bike_uids": ["490961", "490906", "490764", "490677", "490206", "490172", "491164", "491044"], "virtual": false}}, {"id": "f1e4a46e1b65093364d85304695cd22b", "name": "HLU\u010c\u00cdN-To\u010dna 34", "latitude": 49.890076, "longitude": 18.193381, "timestamp": "2025-05-03T03:15:38.443026+00:00Z", "free_bikes": 4, "empty_slots": null, "extra": {"uid": "67261718", "number": "46955", "bike_uids": ["490856", "490518", "490336", "491544"], "virtual": false}}, {"id": "f30019d111a23d354bf244760104df7f", "name": "Hlu\u010d\u00edn - OKD", "latitude": 49.903639, "longitude": 18.191889, "timestamp": "2025-05-03T03:15:38.442667+00:00Z", "free_bikes": 2, "empty_slots": null, "extra": {"uid": "27579622", "number": "45067", "bike_uids": ["490761", "490617"], "virtual": false}}, {"id": "f9befcb8d2fd46ec7800d2142cc52440", "name": "HLU\u010c\u00cdN-Star\u00e9 rovniny - u vod\u00e1rny", "latitude": 49.892722, "longitude": 18.203646, "timestamp": "2025-05-03T03:15:38.442822+00:00Z", "free_bikes": 12, "empty_slots": null, "extra": {"uid": "42063925", "number": "46751", "bike_uids": ["490928", "490883", "490849", "490795", "490519", "490200", "490149", "490014", "491547", "491526", "491513", "491126"], "virtual": false}}]}