{"id": "nextbike-ostrava", "name": "nextbike Ostrava", "location": {"latitude": 49.8344, "longitude": 18.2823, "city": "Ostrava", "country": "CZ"}, "href": "/v2/networks/nextbike-ostrava", "company": ["Nextbike GmbH"], "system": "Nextbike", "stations": [{"id": "008718ae3b1d0a122e43996ea466301e", "name": "HOS-horn\u00ed zast\u00e1vka \u017dleby", "latitude": 49.855248, "longitude": 18.214439, "timestamp": "2025-05-03T03:15:38.409875+00:00Z", "free_bikes": 0, "empty_slots": null, "extra": {"uid": "13411662", "number": "45307", "bike_uids": [], "virtual": false}}, {"id": "0258b0f6454f4a2d28e959b84de86b57", "name": "VIT-Gong", "latitude": 49.819198, "longitude": 18.280323, "timestamp": "2025-05-03T03:15:38.408233+00:00Z", "free_bikes": 17, "empty_slots": null, "extra": {"uid": "13364055", "number": "45150", "bike_uids": ["48773", "487640", "490993", "490991", "490788", "490759", "490714", "490643", "490546", "490543", "490453", "490358", "490279", "490207", "490050", "491619", "491007"], "virtual": false}}, {"id": "03622a1075ee0ceac69b95086f49457d", "name": "TRE-5. kv\u011btna", "latitude": 49.839548, "longitude": 18.197832, "timestamp": "2025-05-03T03:15:38.409439+00:00Z", "free_bikes": 3, "empty_slots": null, "extra": {"uid": "13410760", "number": "45266", "bike_uids": ["490955", "490214", "491977"], "virtual": false}}, {"id": "03c4383e256f76c21648d04c7253a1cc", "name": "P-Po\u0161ta Porubsk\u00e1", "latitude": 49.829888, "longitude": 18.174782, "timestamp": "2025-05-03T03:15:38.409241+00:00Z", "free_bikes": 2, "empty_slots": null, "extra": {"uid": "13388277", "number": "45250", "bike_uids": ["490796", "490589"], "virtual": false}}, {"id": "0456a6d958fb6b769fe98aa53f8e2db0", "name": "P-Hlavn\u00ed t\u0159\u00edda - Bohuslava Martin\u016f", "latitude": 49.82928, "longitude": 18.170296, "timestamp": "2025-05-03T03:15:38.409077+00:00Z", "free_bikes": 0, "empty_slots": null, "extra": {"uid": "13387762", "number": "45235", "bike_uids": [], "virtual": false}}, {"id": "0475978b8fc28db3c85634c021b7ca1f", "name": "KP - tramvajov\u00e1 zast\u00e1vka", "latitude": 49.833863, "longitude": 18.113472, "timestamp": "2025-05-03T03:15:38.445825+00:00Z", "free_bikes": 0, "empty_slots": null, "extra": {"uid": "27579962", "number": "45099", "bike_uids": [], "virtual": false}}, {"id": "04a88183485e951e55fa806fa144cbac", "name": "P-OC Shopland", "latitude": 49.827128, "longitude": 18.201608, "timestamp": "2025-05-03T03:15:38.448629+00:00Z", "free_bikes": 0, "empty_slots": 2, "extra": {"uid": "529206336", "number": "49767", "slots": 2, "bike_uids": [], "virtual": false}}, {"id": "04b9b62c0ee5fea4099ebdf502aaa1eb", "name": "STB-U L\u00edpy", "latitude": 49.763444, "longitude": 18.217233, "timestamp": "2025-05-03T03:15:38.446364+00:00Z", "free_bikes": 7, "empty_slots": null, "extra": {"uid": "41111415", "number": "46790", "bike_uids": ["490892", "490822", "490700", "490626", "490555", "490513", "491586"], "virtual": false}}, {"id": "04c602c220b8683db220a05ea39e04d0", "name": "MOAP-radnice Moravsk\u00e1 Ostrava", "latitude": 49.83425, "longitude": 18.288674, "timestamp": "2025-05-03T03:15:38.408285+00:00Z", "free_bikes": 1, "empty_slots": null, "extra": {"uid": "13364186", "number": "45154", "bike_uids": ["491560"], "virtual": false}}, {"id": "05c3def30f242feaf19a0697132441de", "name": "JIH-Z\u00e1b\u0159eh, poliklinika", "latitude": 49.791991, "longitude": 18.238769, "timestamp": "2025-05-03T03:15:38.409804+00:00Z", "free_bikes": 2, "empty_slots": null, "extra": {"uid": "13411551", "number": "45301", "bike_uids": ["490799", "490701"], "virtual": false}}, {"id": "0947c7ee09bea489bddf868d2ddf6701", "name": "HR-CTPark \u017di\u017ekovsk\u00e1", "latitude": 49.774987, "longitude": 18.266898, "timestamp": "2025-05-03T03:15:38.409961+00:00Z", "free_bikes": 3, "empty_slots": null, "extra": {"uid": "14403168", "number": "45321", "bike_uids": ["490298", "491537", "491070"], "virtual": false}}, {"id": "095524e796412bd931b0c9f7bf2507ad", "name": "P-koleje V\u0160B", "latitude": 49.836662, "longitude": 18.158608, "timestamp": "2025-05-03T03:15:38.409427+00:00Z", "free_bikes": 1, "empty_slots": null, "extra": {"uid": "13410745", "number": "45265", "bike_uids": ["490730"], "virtual": false}}, {"id": "09b9d78ec1c69053ad6458080ce652b3", "name": "SL-\u0160v\u00e9dsk\u00e1, COOP", "latitude": 49.851638, "longitude": 18.302877, "timestamp": "2025-05-03T03:15:38.408475+00:00Z", "free_bikes": 0, "empty_slots": null, "extra": {"uid": "13364510", "number": "45172", "bike_uids": [], "virtual": false}}, {"id": "0a8c0cf633f471cdc6de2da5d490e343", "name": "P-Jana \u0160oupala", "latitude": 49.842279, "longitude": 18.173919, "timestamp": "2025-05-03T03:15:38.409228+00:00Z", "free_bikes": 6, "empty_slots": null, "extra": {"uid": "13388265", "number": "45249", "bike_uids": ["487592", "490541", "490348", "490158", "490147", "491502"], "virtual": false}}, {"id": "0b0584a9a390a6182b58e94f89c5cd43", "name": "JIH-Z\u0160 V\u00e1clava Ko\u0161a\u0159e", "latitude": 49.777196, "longitude": 18.25707, "timestamp": "2025-05-03T03:15:38.445436+00:00Z", "free_bikes": 3, "empty_slots": null, "extra": {"uid": "27579342", "number": "45056", "bike_uids": ["490370", "491565", "491168"], "virtual": false}}, {"id": "0bd761a106548a2f9e9d863cc10d6d78", "name": "SV - Sj\u00edzdn\u00e1, Lidl", "latitude": 49.82606, "longitude": 18.19798, "timestamp": "2025-05-03T03:15:38.448541+00:00Z", "free_bikes": 1, "empty_slots": 3, "extra": {"uid": "522520101", "number": "46808", "slots": 4, "bike_uids": ["490052"], "virtual": false}}, {"id": "0cfcef73913a21508a5e9b9e3cf2391c", "name": "JIH-OC Kotva", "latitude": 49.791539, "longitude": 18.22898, "timestamp": "2025-05-03T03:15:38.447351+00:00Z", "free_bikes": 1, "empty_slots": null, "extra": {"uid": "122695989", "number": "496007", "bike_uids": ["490753"], "virtual": false}}, {"id": "0d0de69f5ef9f5b8d06f248d2f895ec0", "name": "SL-Sionkova", "latitude": 49.850389, "longitude": 18.319983, "timestamp": "2025-05-03T03:15:38.448643+00:00Z", "free_bikes": 0, "empty_slots": 2, "extra": {"uid": "529206503", "number": "49768", "slots": 2, "bike_uids": [], "virtual": false}}, {"id": "0d2a0d868d9ae3c1c33e40b4a3542756", "name": "MOAP-OZO Ostrava", "latitude": 49.857124, "longitude": 18.261124, "timestamp": "2025-05-03T03:15:38.445840+00:00Z", "free_bikes": 0, "empty_slots": 10, "extra": {"uid": "27582509", "number": "46033", "slots": 10, "bike_uids": [], "virtual": false}}, {"id": "0d5d55edd8b4f63fd2b69e132fcd3fd4", "name": "VIT-\u0160alounova", "latitude": 49.811516, "longitude": 18.269051, "timestamp": "2025-05-03T03:15:38.408185+00:00Z", "free_bikes": 4, "empty_slots": null, "extra": {"uid": "13363996", "number": "45146", "bike_uids": ["48793", "491541", "491097", "491013"], "virtual": false}}, {"id": "0e07dfffe0f7ff367cf78dbe0a57022a", "name": "MOAP-Krajsk\u00fd \u00fa\u0159ad", "latitude": 49.829906, "longitude": 18.270436, "timestamp": "2025-05-03T03:15:38.444946+00:00Z", "free_bikes": 2, "empty_slots": null, "extra": {"uid": "27578952", "number": "45038", "bike_uids": ["490773", "491596"], "virtual": false}}, {"id": "0e5455bc52d73a55bc6526452a40503c", "name": "P-Gener\u00e1la Sochora, radnice Poruba C", "latitude": 49.834198, "longitude": 18.179551, "timestamp": "2025-05-03T03:15:38.409355+00:00Z", "free_bikes": 5, "empty_slots": null, "extra": {"uid": "13410669", "number": "45259", "bike_uids": ["490916", "490646", "490094", "491640", "491540"], "virtual": false}}, {"id": "0eaa512f91f5db8e80d27bf7f760b82e", "name": "JIH - Svaz\u00e1ck\u00e1 2", "latitude": 49.789763, "longitude": 18.234302, "timestamp": "2025-05-03T03:15:38.447725+00:00Z", "free_bikes": 0, "empty_slots": null, "extra": {"uid": "183173603", "number": "496024", "bike_uids": [], "virtual": false}}, {"id": "0ec4d0666c4b9c3a14bcd884a939b3cf", "name": "P-Ludv\u00edka Pode\u0161t\u011b", "latitude": 49.844635, "longitude": 18.155353, "timestamp": "2025-05-03T03:15:38.409168+00:00Z", "free_bikes": 5, "empty_slots": null, "extra": {"uid": "13388021", "number": "45243", "bike_uids": ["490960", "490937", "490898", "490504", "491563"], "virtual": false}}, {"id": "0f104d1afaf1ac3090bb3c252d2127c6", "name": "MOAP - Slav\u00ed\u010dkova", "latitude": 49.845802, "longitude": 18.284134, "timestamp": "2025-05-03T03:15:38.448394+00:00Z", "free_bikes": 9, "empty_slots": 0, "extra": {"uid": "404529764", "number": "49352", "slots": 2, "bike_uids": ["487578", "487556", "490939", "490826", "490734", "490289", "491941", "491559", "491122"], "virtual": false}}, {"id": "0f4edacda02a47c4ae5c49ebb02fc0bd", "name": "PNO-U Mach\u016f", "latitude": 49.779064, "longitude": 18.184324, "timestamp": "2025-05-03T03:15:38.446683+00:00Z", "free_bikes": 1, "empty_slots": null, "extra": {"uid": "41111688", "number": "46768", "bike_uids": ["490716"], "virtual": false}}, {"id": "104244d1ce03588b0c8ce7df5756bddf", "name": "JIH - Ji\u0159\u00edho Herolda", "latitude": 49.782589, "longitude": 18.25349, "timestamp": "2025-05-03T03:15:38.447654+00:00Z", "free_bikes": 1, "empty_slots": null, "extra": {"uid": "178991439", "number": "496020", "bike_uids": ["490040"], "virtual": false}}, {"id": "116062e5f48def5c37a0c20481cd0d41", "name": "P-Hlavn\u00ed t\u0159\u00edda - Havansk\u00e1", "latitude": 49.830192, "longitude": 18.166733, "timestamp": "2025-05-03T03:15:38.409056+00:00Z", "free_bikes": 0, "empty_slots": null, "extra": {"uid": "13385738", "number": "45233", "bike_uids": [], "virtual": false}}, {"id": "120f911650310e0166563fbc6572d0da", "name": "SL - T\u011b\u0161\u00ednsk\u00e1", "latitude": 49.831768, "longitude": 18.304081, "timestamp": "2025-05-03T03:15:38.447220+00:00Z", "free_bikes": 0, "empty_slots": null, "extra": {"uid": "94944321", "number": "495999", "bike_uids": [], "virtual": false}}, {"id": "156a0424d3d12ac140d168d347e287a9", "name": "RAD-Na Svahu", "latitude": 49.815197, "longitude": 18.363847, "timestamp": "2025-05-03T03:15:38.446646+00:00Z", "free_bikes": 0, "empty_slots": null, "extra": {"uid": "41111635", "number": "46771", "bike_uids": [], "virtual": false}}, {"id": "166679cb808deee1e03d0fe8a272656d", "name": "JIH - Z\u00e1vodn\u00ed", "latitude": 49.794027, "longitude": 18.265604, "timestamp": "2025-05-03T03:15:38.448172+00:00Z", "free_bikes": 2, "empty_slots": null, "extra": {"uid": "267246328", "number": "496053", "bike_uids": ["490632", "491103"], "virtual": false}}, {"id": "16dfac5abd988a9009b087214a6f2396", "name": "RAD-Vrchlick\u00e9ho", "latitude": 49.815571, "longitude": 18.335754, "timestamp": "2025-05-03T03:15:38.446658+00:00Z", "free_bikes": 0, "empty_slots": null, "extra": {"uid": "41111642", "number": "46770", "bike_uids": [], "virtual": false}}, {"id": "1705d8fd335fe52862abf866fa524ad1", "name": "MOAP-\u00da\u0159ad pr\u00e1ce", "latitude": 49.839425, "longitude": 18.283568, "timestamp": "2025-05-03T03:15:38.408100+00:00Z", "free_bikes": 12, "empty_slots": null, "extra": {"uid": "13363361", "number": "45138", "bike_uids": ["487842", "487651", "488204", "490782", "490676", "490469", "490398", "490384", "490119", "490116", "491914", "491052"], "virtual": false}}, {"id": "171fa9043e2dab649389809050eed655", "name": "JIH - Volgogradk\u00e1 - Kor\u00fdtko", "latitude": 49.792262, "longitude": 18.222967, "timestamp": "2025-05-03T03:15:38.447972+00:00Z", "free_bikes": 1, "empty_slots": null, "extra": {"uid": "208624999", "number": "496044", "bike_uids": ["490065"], "virtual": false}}, {"id": "17233766cef514115506fcf191f8a77a", "name": "P-Slovan", "latitude": 49.834546, "longitude": 18.166845, "timestamp": "2025-05-03T03:15:38.408897+00:00Z", "free_bikes": 2, "empty_slots": null, "extra": {"uid": "13385361", "number": "45220", "bike_uids": ["487804", "490840"], "virtual": false}}, {"id": "18305fa37b9e54da9f2640be026558ff", "name": "PROS\u2013v\u00edce\u00fa\u010delov\u00e9 h\u0159i\u0161t\u011b", "latitude": 49.754706, "longitude": 18.198031, "timestamp": "2025-05-03T03:15:38.445920+00:00Z", "free_bikes": 0, "empty_slots": 10, "extra": {"uid": "27582944", "number": "46084", "slots": 10, "bike_uids": [], "virtual": false}}, {"id": "184b247bdc3c81a1487975c432a99883", "name": "PROS-to\u010dna autobus\u016f", "latitude": 49.751214, "longitude": 18.199289, "timestamp": "2025-05-03T03:15:38.446906+00:00Z", "free_bikes": 0, "empty_slots": null, "extra": {"uid": "43459138", "number": "46739", "bike_uids": [], "virtual": false}}, {"id": "186161f5c460f1fc4e2f71105ba088db", "name": "MAR-Chemick\u00e1 - to\u010dna", "latitude": 49.833472, "longitude": 18.229962, "timestamp": "2025-05-03T03:15:38.445713+00:00Z", "free_bikes": 7, "empty_slots": null, "extra": {"uid": "27579895", "number": "45090", "bike_uids": ["490885", "490871", "490815", "490261", "490240", "490234", "491904"], "virtual": false}}, {"id": "18ac891ad8997bd10abfada931b68a16", "name": "RAD-Radvanick\u00e1, \u010capkova", "latitude": 49.817507, "longitude": 18.341119, "timestamp": "2025-05-03T03:15:38.446633+00:00Z", "free_bikes": 0, "empty_slots": null, "extra": {"uid": "41111625", "number": "46772", "bike_uids": [], "virtual": false}}, {"id": "1a270972d79765de222ab5e80b17817d", "name": "JIH-Svornosti (koliba)", "latitude": 49.780964, "longitude": 18.233441, "timestamp": "2025-05-03T03:15:38.409519+00:00Z", "free_bikes": 0, "empty_slots": null, "extra": {"uid": "13410835", "number": "45273", "bike_uids": [], "virtual": false}}, {"id": "1aea675aeb8e6339bb7999280ffbae5f", "name": "MOAP-Nov\u00e1 Karolina", "latitude": 49.831368, "longitude": 18.286777, "timestamp": "2025-05-03T03:15:38.407712+00:00Z", "free_bikes": 4, "empty_slots": null, "extra": {"uid": "13361546", "number": "45106", "bike_uids": ["490365", "491993", "491982", "491597"], "virtual": false}}, {"id": "1b073ef0b54faa3d487c663b6eca9f99", "name": "MOAP - DOCK", "latitude": 49.836664, "longitude": 18.296347, "timestamp": "2025-05-03T03:15:38.409660+00:00Z", "free_bikes": 7, "empty_slots": null, "extra": {"uid": "13411012", "number": "45287", "bike_uids": ["48759", "490905", "490842", "490679", "490173", "491901", "491082"], "virtual": false}}, {"id": "1b0c5e7fae3f089daf411be4288423ad", "name": "JIH-Dakota", "latitude": 49.782962, "longitude": 18.245443, "timestamp": "2025-05-03T03:15:38.445399+00:00Z", "free_bikes": 0, "empty_slots": null, "extra": {"uid": "27579244", "number": "45054", "bike_uids": [], "virtual": false}}, {"id": "1b5a6f800e6b1c0bd68444f1d20dd9d3", "name": "JIH-Jana Maluchy", "latitude": 49.77733, "longitude": 18.26214, "timestamp": "2025-05-03T03:15:38.448301+00:00Z", "free_bikes": 0, "empty_slots": 4, "extra": {"uid": "391524215", "number": "47271", "slots": 4, "bike_uids": [], "virtual": false}}, {"id": "1b8e8ce2d7287a22a77db15f91f4d7fb", "name": "PNO-1. kv\u011btna-kone\u010dn\u00e1 MHD", "latitude": 49.784071, "longitude": 18.14612, "timestamp": "2025-05-03T03:15:38.447318+00:00Z", "free_bikes": 3, "empty_slots": null, "extra": {"uid": "118098547", "number": "496005", "bike_uids": ["490347", "491523", "491104"], "virtual": false}}, {"id": "1b96efbb21e196f0b84e15165047540a", "name": "P-Opavsk\u00e1, \u00fa\u0159ad pr\u00e1ce", "latitude": 49.830853, "longitude": 18.18099, "timestamp": "2025-05-03T03:15:38.409368+00:00Z", "free_bikes": 1, "empty_slots": null, "extra": {"uid": "13410679", "number": "45260", "bike_uids": ["490474"], "virtual": false}}, {"id": "1d0652fa6cd9f4440c500c48b16175e7", "name": "VIT-Ostravar ar\u00e9na", "latitude": 49.803758, "longitude": 18.248557, "timestamp": "2025-05-03T03:15:38.409598+00:00Z", "free_bikes": 2, "empty_slots": null, "extra": {"uid": "13410944", "number": "45281", "bike_uids": ["487628", "490783"], "virtual": false}}, {"id": "1d1dbc5e49baf7b66031dea636ba5e98", "name": "SL-\u010cPP ar\u00e9na", "latitude": 49.85542, "longitude": 18.295383, "timestamp": "2025-05-03T03:15:38.444688+00:00Z", "free_bikes": 8, "empty_slots": null, "extra": {"uid": "14403347", "number": "45334", "bike_uids": ["487597", "490917", "490863", "490841", "490770", "490724", "490166", "491983"], "virtual": false}}, {"id": "1e3313ea847e5be78ca3e45157d00e63", "name": "MOAP-\u010ceskobratrsk\u00e1", "latitude": 49.839782, "longitude": 18.289812, "timestamp": "2025-05-03T03:15:38.446198+00:00Z", "free_bikes": 5, "empty_slots": null, "extra": {"uid": "34071102", "number": "46800", "bike_uids": ["490828", "490383", "490332", "491915", "491065"], "virtual": false}}, {"id": "1f0c778e6b9aa563690ed662f62966c5", "name": "NV-radnice Nov\u00e1 Ves", "latitude": 49.824762, "longitude": 18.228264, "timestamp": "2025-05-03T03:15:38.445776+00:00Z", "free_bikes": 0, "empty_slots": null, "extra": {"uid": "27579933", "number": "45095", "bike_uids": [], "virtual": false}}, {"id": "1fe4e3d99228af78ba32ee5966fb1a36", "name": "SB-Kostel", "latitude": 49.763001, "longitude": 18.236654, "timestamp": "2025-05-03T03:15:38.446415+00:00Z", "free_bikes": 0, "empty_slots": null, "extra": {"uid": "41111450", "number": "46787", "bike_uids": [], "virtual": false}}, {"id": "1ffa37ed9b3b24cae9e37771b92d79fa", "name": "VIT-DOV Vel\u00edn", "latitude": 49.819044, "longitude": 18.276513, "timestamp": "2025-05-03T03:15:38.407902+00:00Z", "free_bikes": 2, "empty_slots": null, "extra": {"uid": "13362004", "number": "45120", "bike_uids": ["490820", "490561"], "virtual": false}}, {"id": "20c9f12da4aa79bd9d21d59416c5d477", "name": "MOAP-Radni\u010dn\u00ed restaurace", "latitude": 49.841805, "longitude": 18.292199, "timestamp": "2025-05-03T03:15:38.447273+00:00Z", "free_bikes": 0, "empty_slots": null, "extra": {"uid": "108153541", "number": "496002", "bike_uids": [], "virtual": false}}, {"id": "21c75451cd596330ef385552feb59bfa", "name": "MOAP-Nedbalova, Hru\u0161ka", "latitude": 49.826426, "longitude": 18.269752, "timestamp": "2025-05-03T03:15:38.408392+00:00Z", "free_bikes": 2, "empty_slots": null, "extra": {"uid": "13364385", "number": "45164", "bike_uids": ["490470", "490007"], "virtual": false}}, {"id": "21c91e457bceeed11e9b726f54749b58", "name": "P-Duha - horn\u00ed n\u00e1m\u011bst\u00ed", "latitude": 49.843983, "longitude": 18.166695, "timestamp": "2025-05-03T03:15:38.409038+00:00Z", "free_bikes": 0, "empty_slots": null, "extra": {"uid": "13385706", "number": "45231", "bike_uids": [], "virtual": false}}, {"id": "23645b25efead93893d29e18cdc1d0e3", "name": "MAR-Ji\u0159\u00edho Trnky - knihovna", "latitude": 49.834182, "longitude": 18.259613, "timestamp": "2025-05-03T03:15:38.408871+00:00Z", "free_bikes": 0, "empty_slots": null, "extra": {"uid": "13367709", "number": "45218", "bike_uids": [], "virtual": false}}, {"id": "267c8b8a6bcee2521ab1305f51ed0b6c", "name": "HR-CTPark st\u0159ed", "latitude": 49.763811, "longitude": 18.268425, "timestamp": "2025-05-03T03:15:38.409985+00:00Z", "free_bikes": 0, "empty_slots": null, "extra": {"uid": "14403222", "number": "45323", "bike_uids": [], "virtual": false}}, {"id": "26a515f9cf5f4857094f9781ec273540", "name": "MOAP-Komensk\u00e9ho sady - vchod", "latitude": 49.848961, "longitude": 18.289475, "timestamp": "2025-05-03T03:15:38.407828+00:00Z", "free_bikes": 17, "empty_slots": null, "extra": {"uid": "13361908", "number": "45114", "bike_uids": ["487543", "490930", "490929", "490902", "490834", "490816", "490741", "490493", "490374", "490355", "490268", "490186", "490042", "491949", "491630", "491549", "491112"], "virtual": false}}, {"id": "27016fcbc80e55167bfcd42ec05658d5", "name": "VIT-SP\u0160 V\u00fdstavn\u00ed", "latitude": 49.809196, "longitude": 18.273887, "timestamp": "2025-05-03T03:15:38.408636+00:00Z", "free_bikes": 0, "empty_slots": null, "extra": {"uid": "13365779", "number": "45188", "bike_uids": [], "virtual": false}}, {"id": "2737c2e6143a3b3dab8e4471775618d4", "name": "JIH-Ji\u010d\u00ednsk\u00e1", "latitude": 49.773809, "longitude": 18.22479, "timestamp": "2025-05-03T03:15:38.409497+00:00Z", "free_bikes": 1, "empty_slots": null, "extra": {"uid": "13410820", "number": "45271", "bike_uids": ["490255"], "virtual": false}}, {"id": "278d8ac8b2da8a8ccc6e32609fd45ce5", "name": "MAR-radnice Mari\u00e1nsk\u00e9 hory", "latitude": 49.832255, "longitude": 18.25223, "timestamp": "2025-05-03T03:15:38.408695+00:00Z", "free_bikes": 1, "empty_slots": null, "extra": {"uid": "13366286", "number": "45197", "bike_uids": ["490333"], "virtual": false}}, {"id": "27a62c5c040d8bd57e8d7499d7750e2c", "name": "SL-HSF System", "latitude": 49.812794, "longitude": 18.31151, "timestamp": "2025-05-03T03:15:38.408613+00:00Z", "free_bikes": 4, "empty_slots": null, "extra": {"uid": "13364875", "number": "45184", "bike_uids": ["490483", "490436", "490394", "490280"], "virtual": false}}, {"id": "27c1c79b5dda016ed7ed430d86a046aa", "name": "MOAP-kino Vesm\u00edr", "latitude": 49.836851, "longitude": 18.286877, "timestamp": "2025-05-03T03:15:38.408144+00:00Z", "free_bikes": 12, "empty_slots": null, "extra": {"uid": "13363423", "number": "45142", "bike_uids": ["48780", "490853", "490727", "490402", "490356", "490236", "490178", "490090", "490018", "490004", "491945", "491114"], "virtual": false}}, {"id": "27c9b3a5d2cccccb21df115f90b029ef", "name": "MAR-28. \u0159\u00edjna - KB", "latitude": 49.827979, "longitude": 18.256198, "timestamp": "2025-05-03T03:15:38.408734+00:00Z", "free_bikes": 1, "empty_slots": null, "extra": {"uid": "13366425", "number": "45201", "bike_uids": ["490088"], "virtual": false}}, {"id": "285f550af2e5d9407910f00b5ce6350d", "name": "SL-Restaurace Star\u00e1 ku\u017eelna", "latitude": 49.837412, "longitude": 18.302087, "timestamp": "2025-05-03T03:15:38.445734+00:00Z", "free_bikes": 1, "empty_slots": null, "extra": {"uid": "27579909", "number": "45091", "bike_uids": ["490331"], "virtual": false}}, {"id": "28e93de005e303e778bc08c3083f1d0d", "name": "PLES-Plesn\u00e1 - h\u0159i\u0161t\u011b", "latitude": 49.852016, "longitude": 18.151506, "timestamp": "2025-05-03T03:15:38.445698+00:00Z", "free_bikes": 0, "empty_slots": null, "extra": {"uid": "27579803", "number": "45081", "bike_uids": [], "virtual": false}}, {"id": "295344cd003c391c05ae6e79f52e5690", "name": "JIH-F. Formana", "latitude": 49.770918, "longitude": 18.251941, "timestamp": "2025-05-03T03:15:38.445413+00:00Z", "free_bikes": 3, "empty_slots": null, "extra": {"uid": "27579334", "number": "45055", "bike_uids": ["490852", "491969", "491641"], "virtual": false}}, {"id": "2971d402ba0fdcdcc8675e0327ebdccd", "name": "SL-to\u010dna Koblov", "latitude": 49.873028, "longitude": 18.284101, "timestamp": "2025-05-03T03:15:38.408432+00:00Z", "free_bikes": 1, "empty_slots": null, "extra": {"uid": "13364464", "number": "45168", "bike_uids": ["491634"], "virtual": false}}, {"id": "298394a6ee8b550e08f260e16dff0ffd", "name": "SL-ZOO Ostrava", "latitude": 49.843512, "longitude": 18.319074, "timestamp": "2025-05-03T03:15:38.408496+00:00Z", "free_bikes": 0, "empty_slots": null, "extra": {"uid": "13364548", "number": "45174", "bike_uids": [], "virtual": false}}, {"id": "29d4a3a48d1ba38a1dc17444777ca11f", "name": "MO-Park \u010cS. Letc\u016f", "latitude": 49.840672, "longitude": 18.288007, "timestamp": "2025-05-03T03:15:38.447071+00:00Z", "free_bikes": 0, "empty_slots": null, "extra": {"uid": "55329579", "number": "49591", "bike_uids": [], "virtual": false}}, {"id": "2a2ada69f8440310edef3d80d493c047", "name": "HOS-Ho\u0161\u0165\u00e1lkovice to\u010dna autobus\u016f", "latitude": 49.849654, "longitude": 18.214436, "timestamp": "2025-05-03T03:15:38.409893+00:00Z", "free_bikes": 0, "empty_slots": null, "extra": {"uid": "13411678", "number": "45309", "bike_uids": [], "virtual": false}}, {"id": "2b6c9bd2fa40353f188246c70a2a7a84", "name": "P-Logistics Park", "latitude": 49.817134, "longitude": 18.156764, "timestamp": "2025-05-03T03:15:38.447150+00:00Z", "free_bikes": 0, "empty_slots": null, "extra": {"uid": "82371100", "number": "49595", "bike_uids": [], "virtual": false}}, {"id": "2b9a8d811f94df085e3b6019beefd60a", "name": "KP-Planet\u00e1rium *(+15min zdarma na p\u0159\u00edjezd i odjezd)", "latitude": 49.837538, "longitude": 18.144208, "timestamp": "2025-05-03T03:15:38.444713+00:00Z", "free_bikes": 0, "empty_slots": null, "extra": {"uid": "14403363", "number": "45335", "bike_uids": [], "virtual": false}}, {"id": "2da2b4c7a963f24afde9a0af152e8ca3", "name": "JIH-Hrab\u016fvka, P\u010cR", "latitude": 49.785188, "longitude": 18.2648, "timestamp": "2025-05-03T03:15:38.409778+00:00Z", "free_bikes": 2, "empty_slots": null, "extra": {"uid": "13411532", "number": "45299", "bike_uids": ["490444", "490437"], "virtual": false}}, {"id": "2dc87f9f506d766109c4549af9202133", "name": "JIH-AVION hlavn\u00ed vchod", "latitude": 49.801061, "longitude": 18.23119, "timestamp": "2025-05-03T03:15:38.446219+00:00Z", "free_bikes": 0, "empty_slots": null, "extra": {"uid": "34572433", "number": "46798", "bike_uids": [], "virtual": false}}, {"id": "2e4cfbd2458f7fd7c72df32acdafa020", "name": "MOAP- PAVILON", "latitude": 49.832751, "longitude": 18.294205, "timestamp": "2025-05-03T03:15:38.408272+00:00Z", "free_bikes": 9, "empty_slots": null, "extra": {"uid": "13364179", "number": "45153", "bike_uids": ["48785", "490833", "490663", "490062", "490061", "490011", "491922", "491081", "491041"], "virtual": false}}, {"id": "2e63335920c832d920130ca4518a853c", "name": "MOAP-Orchard Park Inn", "latitude": 49.841496, "longitude": 18.269518, "timestamp": "2025-05-03T03:15:38.408024+00:00Z", "free_bikes": 0, "empty_slots": null, "extra": {"uid": "13363184", "number": "45132", "bike_uids": [], "virtual": false}}, {"id": "2f8dba5eb4290b610001be70103d20c3", "name": "JIH - Horym\u00edrova", "latitude": 49.805356, "longitude": 18.235433, "timestamp": "2025-05-03T03:15:38.447844+00:00Z", "free_bikes": 2, "empty_slots": null, "extra": {"uid": "202413903", "number": "496039", "bike_uids": ["490890", "490475"], "virtual": false}}, {"id": "33a7d4ba02cd998558417455f0bb8047", "name": "JIH - M\u0160 Patrice Lumumby", "latitude": 49.786931, "longitude": 18.226061, "timestamp": "2025-05-03T03:15:38.447438+00:00Z", "free_bikes": 1, "empty_slots": null, "extra": {"uid": "168301491", "number": "496012", "bike_uids": ["490463"], "virtual": false}}, {"id": "33b5123804b1d44e2b749bbd200efece", "name": "P-Hangar Ostrava", "latitude": 49.82025, "longitude": 18.17951, "timestamp": "2025-05-03T03:15:38.448341+00:00Z", "free_bikes": 3, "empty_slots": 1, "extra": {"uid": "394367680", "number": "47269", "slots": 4, "bike_uids": ["490909", "490760", "490691"], "virtual": false}}, {"id": "34a4ab8d44e040e12f24ca8d340b7329", "name": "MOAP-K\u0159i\u017e\u00edkova", "latitude": 49.845202, "longitude": 18.280742, "timestamp": "2025-05-03T03:15:38.407914+00:00Z", "free_bikes": 11, "empty_slots": null, "extra": {"uid": "13362019", "number": "45121", "bike_uids": ["487554", "490790", "490659", "490297", "490285", "491967", "491948", "491616", "491600", "491056", "491050"], "virtual": false}}, {"id": "36ea2f186f40b332b0c816deb1e6cd6b", "name": "VIT-T\u0159ineck\u00e9 \u017eelez\u00e1rny - u z\u00e1mku", "latitude": 49.817992, "longitude": 18.272061, "timestamp": "2025-05-03T03:15:38.446951+00:00Z", "free_bikes": 0, "empty_slots": null, "extra": {"uid": "44802908", "number": "48010", "bike_uids": [], "virtual": false}}, {"id": "38425f5cc04d3865d616781bb28ec2ef", "name": "P-\u010cist\u00edrny *(nav\u00edc 15min na odjezd)", "latitude": 49.838944, "longitude": 18.187839, "timestamp": "2025-05-03T03:15:38.408973+00:00Z", "free_bikes": 16, "empty_slots": null, "extra": {"uid": "13385592", "number": "45226", "bike_uids": ["487653", "490806", "490778", "490752", "490669", "490442", "490409", "490408", "490114", "490102", "490074", "491916", "491900", "491636", "491569", "491119"], "virtual": false}}, {"id": "38a06534aad71b4f9cae897ff7bb4fc3", "name": "JIH-Ant. Poledn\u00edka", "latitude": 49.778795, "longitude": 18.25251, "timestamp": "2025-05-03T03:15:38.409733+00:00Z", "free_bikes": 2, "empty_slots": null, "extra": {"uid": "13411506", "number": "45296", "bike_uids": ["490502", "490307"], "virtual": false}}, {"id": "38a515ede17ad92c0da0e95a632e66ec", "name": "MOAP-Proke\u0161ovo n\u00e1m\u011bst\u00ed -Moravskoslezsk\u00e1 v\u011bdeck\u00e1 knihovna", "latitude": 49.841186, "longitude": 18.290965, "timestamp": "2025-05-03T03:15:38.407667+00:00Z", "free_bikes": 0, "empty_slots": null, "extra": {"uid": "13361487", "number": "45103", "bike_uids": [], "virtual": false}}, {"id": "3a872e8a6bc655f70251f69a1073d8d9", "name": "KP - sportovn\u00ed hala", "latitude": 49.840287, "longitude": 18.118921, "timestamp": "2025-05-03T03:15:38.446772+00:00Z", "free_bikes": 0, "empty_slots": null, "extra": {"uid": "41111761", "number": "46762", "bike_uids": [], "virtual": false}}, {"id": "3b35a4703fcc14acf95ab1a1794ec879", "name": "JIH - Horn\u00ed", "latitude": 49.792324, "longitude": 18.249734, "timestamp": "2025-05-03T03:15:38.447674+00:00Z", "free_bikes": 0, "empty_slots": null, "extra": {"uid": "180055071", "number": "496021", "bike_uids": [], "virtual": false}}, {"id": "3cb8da09455cebc6f41bdb6fe727d881", "name": "PNO-zast\u00e1vka Janov\u00e1", "latitude": 49.805678, "longitude": 18.168738, "timestamp": "2025-05-03T03:15:38.446746+00:00Z", "free_bikes": 0, "empty_slots": null, "extra": {"uid": "41111735", "number": "46764", "bike_uids": [], "virtual": false}}, {"id": "3d23a9159821c8960f1ae8af5df60309", "name": "SL-D\u016fl Cingr", "latitude": 49.836083, "longitude": 18.318058, "timestamp": "2025-05-03T03:15:38.448490+00:00Z", "free_bikes": 0, "empty_slots": 4, "extra": {"uid": "518280747", "number": "46648", "slots": 4, "bike_uids": [], "virtual": false}}, {"id": "3d4caaaa10dfaab80836886cab6fa528", "name": "P-Arrows baseball", "latitude": 49.847031, "longitude": 18.167611, "timestamp": "2025-05-03T03:15:38.409216+00:00Z", "free_bikes": 3, "empty_slots": null, "extra": {"uid": "13388251", "number": "45248", "bike_uids": ["490389", "490335", "491163"], "virtual": false}}, {"id": "3f8672e11493dd92e5636f8b00ef4b64", "name": "MAR-Sokola T\u016fmy", "latitude": 49.827287, "longitude": 18.246452, "timestamp": "2025-05-03T03:15:38.408757+00:00Z", "free_bikes": 0, "empty_slots": null, "extra": {"uid": "13366453", "number": "45203", "bike_uids": [], "virtual": false}}, {"id": "3f8b1ba28102525307504168dd525ef1", "name": "JIH-K-Trio", "latitude": 49.784346, "longitude": 18.261236, "timestamp": "2025-05-03T03:15:38.409763+00:00Z", "free_bikes": 1, "empty_slots": null, "extra": {"uid": "13411519", "number": "45298", "bike_uids": ["487531"], "virtual": false}}, {"id": "3fd19990b7f7c0819d625eeefb200ead", "name": "VIT-h\u0159i\u0161t\u011b u n\u00e1m. J. z Pod\u011bbrad", "latitude": 49.811804, "longitude": 18.272143, "timestamp": "2025-05-03T03:15:38.408198+00:00Z", "free_bikes": 1, "empty_slots": null, "extra": {"uid": "13364010", "number": "45147", "bike_uids": ["490334"], "virtual": false}}, {"id": "3ffd2fd466596e1a8e6383617adcae03", "name": "P-Sokolovsk\u00e1 - T\u0159ebovice", "latitude": 49.833596, "longitude": 18.188289, "timestamp": "2025-05-03T03:15:38.445574+00:00Z", "free_bikes": 16, "empty_slots": null, "extra": {"uid": "27579659", "number": "45072", "bike_uids": ["487669", "487530", "490947", "490780", "490738", "490526", "490452", "490422", "490340", "490258", "490230", "490139", "490125", "490093", "491612", "491607"], "virtual": false}}, {"id": "41ca65f7fb95c82a8dd57a11ad43abc6", "name": "SL-RBP zdravotn\u00ed poji\u0161\u0165ovna", "latitude": 49.843571, "longitude": 18.307342, "timestamp": "2025-05-03T03:15:38.445554+00:00Z", "free_bikes": 1, "empty_slots": null, "extra": {"uid": "27579642", "number": "45070", "bike_uids": ["490879"], "virtual": false}}, {"id": "422fcaa01192aaaed08a0c3dc8c2785c", "name": "HER-Na Str\u017ei", "latitude": 49.854005, "longitude": 18.331129, "timestamp": "2025-05-03T03:15:38.445090+00:00Z", "free_bikes": 0, "empty_slots": null, "extra": {"uid": "27579146", "number": "45046", "bike_uids": [], "virtual": false}}, {"id": "4332e384f42b7619ee79948aa89bd0f2", "name": "JIH-Slezsk\u00e1", "latitude": 49.791214, "longitude": 18.263723, "timestamp": "2025-05-03T03:15:38.409685+00:00Z", "free_bikes": 2, "empty_slots": null, "extra": {"uid": "13411230", "number": "45290", "bike_uids": ["490418", "491154"], "virtual": false}}, {"id": "43fe9d18846b64b924282b6099e335e4", "name": "MOAP-M\u00e1nesova", "latitude": 49.847892, "longitude": 18.275917, "timestamp": "2025-05-03T03:15:38.447286+00:00Z", "free_bikes": 8, "empty_slots": null, "extra": {"uid": "108876378", "number": "496003", "bike_uids": ["487636", "487509", "490907", "490848", "490656", "490612", "490105", "491581"], "virtual": false}}, {"id": "454b2600dee21beb06b31e5ace7c1958", "name": "SL-Na Bruni, halda Ema", "latitude": 49.839791, "longitude": 18.309119, "timestamp": "2025-05-03T03:15:38.408456+00:00Z", "free_bikes": 0, "empty_slots": null, "extra": {"uid": "13364494", "number": "45170", "bike_uids": [], "virtual": false}}, {"id": "4565c2ac881324655ae222ee34b73bb5", "name": "MOAP-Galerie Plato Bauhaus", "latitude": 49.836802, "longitude": 18.280836, "timestamp": "2025-05-03T03:15:38.407942+00:00Z", "free_bikes": 11, "empty_slots": null, "extra": {"uid": "13362052", "number": "45123", "bike_uids": ["490810", "490762", "490505", "490410", "490406", "490097", "490089", "490038", "490017", "491522", "491514"], "virtual": false}}, {"id": "45a8777e82a0fb7f24a95caae1686562", "name": "P-Hlavn\u00ed t\u0159\u00edda \u010d.p. 51", "latitude": 49.827528, "longitude": 18.175735, "timestamp": "2025-05-03T03:15:38.409097+00:00Z", "free_bikes": 0, "empty_slots": null, "extra": {"uid": "13387799", "number": "45237", "bike_uids": [], "virtual": false}}, {"id": "45f6ea50d86d1bbc857dd5fae9468382", "name": "SL-Mich\u00e1lkovick\u00e1, V\u0160 podnik\u00e1n\u00ed", "latitude": 49.843911, "longitude": 18.31556, "timestamp": "2025-05-03T03:15:38.408563+00:00Z", "free_bikes": 0, "empty_slots": null, "extra": {"uid": "13364642", "number": "45180", "bike_uids": [], "virtual": false}}, {"id": "47fa621d7c77995a03dabdb771e915fd", "name": "SL-Nejedl\u00e9ho, P\u0159\u00edr. fakulta OU", "latitude": 49.843239, "longitude": 18.303848, "timestamp": "2025-05-03T03:15:38.408514+00:00Z", "free_bikes": 1, "empty_slots": null, "extra": {"uid": "13364590", "number": "45176", "bike_uids": ["490785"], "virtual": false}}, {"id": "482cd9017b2b684d7908e5665a60251f", "name": "NV - PPL Depo", "latitude": 49.817978, "longitude": 18.212949, "timestamp": "2025-05-03T03:15:38.447630+00:00Z", "free_bikes": 1, "empty_slots": null, "extra": {"uid": "176888761", "number": "496019", "bike_uids": ["490152"], "virtual": false}}, {"id": "48c30a504ebdb9436f83728cc8586dc0", "name": "P-V\u0159esinsk\u00e1, Klimkovick\u00e1", "latitude": 49.82261, "longitude": 18.16606, "timestamp": "2025-05-03T03:15:38.409340+00:00Z", "free_bikes": 11, "empty_slots": null, "extra": {"uid": "13410656", "number": "45258", "bike_uids": ["487840", "487624", "490926", "490881", "490825", "490611", "490533", "490295", "490270", "490111", "491116"], "virtual": false}}, {"id": "4991f83e86762a21aa25a78e4378a666", "name": "MOAP-n\u00e1m. Msgre \u0160r\u00e1mka", "latitude": 49.836103, "longitude": 18.289059, "timestamp": "2025-05-03T03:15:38.407787+00:00Z", "free_bikes": 2, "empty_slots": null, "extra": {"uid": "13361820", "number": "45111", "bike_uids": ["487685", "490051"], "virtual": false}}, {"id": "49b7d135e1d1c4a185b2edb9bf9e8bdb", "name": "SL-Kranichova, koleje Jana Opletala", "latitude": 49.84542, "longitude": 18.306851, "timestamp": "2025-05-03T03:15:38.408572+00:00Z", "free_bikes": 7, "empty_slots": null, "extra": {"uid": "13364667", "number": "45181", "bike_uids": ["490671", "490368", "490308", "490303", "491919", "491646", "491109"], "virtual": false}}, {"id": "4a6444cd59a25ee164289adddca2b01e", "name": "JIH - V\u00fd\u0161kovick\u00e1", "latitude": 49.783018, "longitude": 18.223365, "timestamp": "2025-05-03T03:15:38.448361+00:00Z", "free_bikes": 0, "empty_slots": 4, "extra": {"uid": "401007087", "number": "47275", "slots": 4, "bike_uids": [], "virtual": false}}, {"id": "4bf078d12e82e5578858ae4611729bb2", "name": "MOAP-V\u00fdstavi\u0161t\u011b", "latitude": 49.833016, "longitude": 18.291248, "timestamp": "2025-05-03T03:15:38.407770+00:00Z", "free_bikes": 26, "empty_slots": null, "extra": {"uid": "13361804", "number": "45110", "bike_uids": ["48778", "490944", "490921", "490889", "490726", "490675", "490668", "490666", "490640", "490596", "490565", "490531", "490527", "490486", "490392", "490324", "490231", "490210", "490183", "490080", "491997", "491996", "491605", "491553", "491108", "491085"], "virtual": false}}, {"id": "4c5f517d1a7b36e26dccf17bfadaee45", "name": "MAR-Z\u00e1vi\u0161ova", "latitude": 49.83019, "longitude": 18.255813, "timestamp": "2025-05-03T03:15:38.408833+00:00Z", "free_bikes": 1, "empty_slots": null, "extra": {"uid": "13366598", "number": "45211", "bike_uids": ["490805"], "virtual": false}}, {"id": "4c9e517f8d2ba86e2dc2c157faddb316", "name": "JIH - Doln\u00ed", "latitude": 49.808734, "longitude": 18.239085, "timestamp": "2025-05-03T03:15:38.447757+00:00Z", "free_bikes": 3, "empty_slots": null, "extra": {"uid": "186561280", "number": "496027", "bike_uids": ["490208", "490086", "491902"], "virtual": false}}, {"id": "4e650bdbdf8d641f6ad2145ea6e8bfc5", "name": "MOAP-Hlavn\u00ed n\u00e1dra\u017e\u00ed", "latitude": 49.850876, "longitude": 18.267505, "timestamp": "2025-05-03T03:15:38.407681+00:00Z", "free_bikes": 1, "empty_slots": null, "extra": {"uid": "13361512", "number": "45104", "bike_uids": ["490976"], "virtual": false}}, {"id": "4f834d4afcc174fca1a78ad2856c3133", "name": "P-Kaufland", "latitude": 49.820893, "longitude": 18.19069, "timestamp": "2025-05-03T03:15:38.409155+00:00Z", "free_bikes": 6, "empty_slots": null, "extra": {"uid": "13388009", "number": "45242", "bike_uids": ["488284", "490428", "490421", "490251", "490171", "491589"], "virtual": false}}, {"id": "4fd54bf294a65ca693a7fa4d33364d97", "name": "P-Pr\u016fb\u011b\u017en\u00e1-Majerov\u00e9", "latitude": 49.847674, "longitude": 18.172971, "timestamp": "2025-05-03T03:15:38.409326+00:00Z", "free_bikes": 11, "empty_slots": null, "extra": {"uid": "13410627", "number": "45257", "bike_uids": ["487673", "487527", "490970", "490792", "490787", "490717", "490633", "490415", "490346", "490099", "491631"], "virtual": false}}, {"id": "51e8990b5f83b3ae28c12913e0004056", "name": "SV-Hru\u0161ka Svinov *(nav\u00edc 15min na odjezd)", "latitude": 49.814955, "longitude": 18.196559, "timestamp": "2025-05-03T03:15:38.409482+00:00Z", "free_bikes": 12, "empty_slots": null, "extra": {"uid": "13410800", "number": "45270", "bike_uids": ["487644", "487537", "490958", "490847", "490605", "490600", "490570", "490362", "490247", "491633", "491511", "491107"], "virtual": false}}, {"id": "5225c9a97efc084d1aae46e00a8160d8", "name": "MAR-\u0160vermova", "latitude": 49.83341, "longitude": 18.244932, "timestamp": "2025-05-03T03:15:38.447133+00:00Z", "free_bikes": 1, "empty_slots": null, "extra": {"uid": "65270825", "number": "49594", "bike_uids": ["48743"], "virtual": false}}, {"id": "545cbb13d8ae2310bca9f6c86f568b0b", "name": "MICH-U K\u0159\u00ed\u017ee", "latitude": 49.843242, "longitude": 18.350165, "timestamp": "2025-05-03T03:15:38.446533+00:00Z", "free_bikes": 1, "empty_slots": null, "extra": {"uid": "41111553", "number": "46779", "bike_uids": ["491131"], "virtual": false}}, {"id": "551148111766aab3bc8b441111a0634f", "name": "PLES-Plesn\u00e1 centrum", "latitude": 49.86224, "longitude": 18.14729, "timestamp": "2025-05-03T03:15:38.445806+00:00Z", "free_bikes": 1, "empty_slots": null, "extra": {"uid": "27579950", "number": "45097", "bike_uids": ["490344"], "virtual": false}}, {"id": "55487db463a4553754affab3117ba6f3", "name": "JIH - Alberta Ku\u010dery", "latitude": 49.780231, "longitude": 18.257326, "timestamp": "2025-05-03T03:15:38.448035+00:00Z", "free_bikes": 1, "empty_slots": 3, "extra": {"uid": "237156620", "number": "496047", "slots": 4, "bike_uids": ["491002"], "virtual": false}}, {"id": "560d13d4a13a4532bcbc485a33b5993f", "name": "MOAP-Na \u0160irok\u00e9", "latitude": 49.829077, "longitude": 18.273944, "timestamp": "2025-05-03T03:15:38.408374+00:00Z", "free_bikes": 0, "empty_slots": null, "extra": {"uid": "13364351", "number": "496056", "bike_uids": [], "virtual": false}}, {"id": "566c781bf44a362f154949bed7b62bfe", "name": "JIH-P\u0159ed\u0161koln\u00ed (U Racka)", "latitude": 49.780978, "longitude": 18.222758, "timestamp": "2025-05-03T03:15:38.445461+00:00Z", "free_bikes": 0, "empty_slots": null, "extra": {"uid": "27579378", "number": "45058", "bike_uids": [], "virtual": false}}, {"id": "5890c526fba87ee3fbaa83871b50ee91", "name": "MOAP-Havl\u00ed\u010dkovo n\u00e1b\u0159e\u017e\u00ed", "latitude": 49.839928, "longitude": 18.293708, "timestamp": "2025-05-03T03:15:38.407957+00:00Z", "free_bikes": 11, "empty_slots": null, "extra": {"uid": "13362063", "number": "45124", "bike_uids": ["487641", "487631", "490965", "490577", "490528", "490522", "490478", "490260", "490254", "490227", "491608"], "virtual": false}}, {"id": "58c2d50da6728e1603ebffc7bdc3fa8f", "name": "P-Nezvalovo n\u00e1m\u011bst\u00ed", "latitude": 49.828423, "longitude": 18.17804, "timestamp": "2025-05-03T03:15:38.447058+00:00Z", "free_bikes": 0, "empty_slots": null, "extra": {"uid": "51775970", "number": "49590", "bike_uids": [], "virtual": false}}, {"id": "5a6a470af9b17ebee269768d0b51f1f3", "name": "MTNV-Martinov - n\u00e1m\u011bst\u00ed", "latitude": 49.856242, "longitude": 18.17869, "timestamp": "2025-05-03T03:15:38.444755+00:00Z", "free_bikes": 0, "empty_slots": null, "extra": {"uid": "14403393", "number": "45338", "bike_uids": [], "virtual": false}}, {"id": "5b3082c080c1645b0285913abb3789a6", "name": "SL-s\u00eddli\u0161t\u011b Kamenec", "latitude": 49.843186, "longitude": 18.294918, "timestamp": "2025-05-03T03:15:38.408526+00:00Z", "free_bikes": 4, "empty_slots": null, "extra": {"uid": "13364602", "number": "45177", "bike_uids": ["490974", "490544", "490294", "490019"], "virtual": false}}, {"id": "5be38919d367285ba33cb237e2b079ec", "name": "MOAP-Novin\u00e1\u0159sk\u00e1", "latitude": 49.836726, "longitude": 18.262328, "timestamp": "2025-05-03T03:15:38.408033+00:00Z", "free_bikes": 6, "empty_slots": null, "extra": {"uid": "13363203", "number": "45133", "bike_uids": ["490963", "490910", "490895", "490768", "490142", "490057"], "virtual": false}}, {"id": "5c03d9b0cd314617b4a810f5441d8b85", "name": "TRE-Sladkovi\u010dovo n\u00e1m\u011bst\u00ed *(nav\u00edc 15min na odjezd)", "latitude": 49.835238, "longitude": 18.194404, "timestamp": "2025-05-03T03:15:38.409790+00:00Z", "free_bikes": 3, "empty_slots": null, "extra": {"uid": "13411540", "number": "45300", "bike_uids": ["488260", "490520", "490445"], "virtual": false}}, {"id": "5c465df793df08c112b2b4875a74528d", "name": "P-D\u00edlny DP *(nav\u00edc 15min na odjezd)", "latitude": 49.847444, "longitude": 18.181926, "timestamp": "2025-05-03T03:15:38.408948+00:00Z", "free_bikes": 7, "empty_slots": null, "extra": {"uid": "13385442", "number": "45224", "bike_uids": ["490784", "490696", "490636", "490568", "490450", "490179", "491613"], "virtual": false}}, {"id": "5cac8e0cb84bd44a2b46f0a6d9466423", "name": "PROS-Sokolovna", "latitude": 49.749507, "longitude": 18.202417, "timestamp": "2025-05-03T03:15:38.446938+00:00Z", "free_bikes": 0, "empty_slots": null, "extra": {"uid": "43459169", "number": "46737", "bike_uids": [], "virtual": false}}, {"id": "5d056041db4eb78c22689b1f1da984b1", "name": "PNO-Hru\u0161ka, 1. kv\u011btna", "latitude": 49.787507, "longitude": 18.162976, "timestamp": "2025-05-03T03:15:38.446714+00:00Z", "free_bikes": 0, "empty_slots": null, "extra": {"uid": "41111714", "number": "46766", "bike_uids": [], "virtual": false}}, {"id": "5dd5a04abc593c71e33b2c5cf2021340", "name": "MOAP-N\u00e1m\u011bst\u00ed Republiky (to\u010dna trolejbus\u016f)", "latitude": 49.831563, "longitude": 18.278048, "timestamp": "2025-05-03T03:15:38.447233+00:00Z", "free_bikes": 1, "empty_slots": null, "extra": {"uid": "102151652", "number": "496000", "bike_uids": ["490153"], "virtual": false}}, {"id": "5e4eae596eea48ba9eb2b1cb74556cc0", "name": "NB-Mitrovice", "latitude": 49.746269, "longitude": 18.271412, "timestamp": "2025-05-03T03:15:38.446465+00:00Z", "free_bikes": 3, "empty_slots": null, "extra": {"uid": "41111486", "number": "46784", "bike_uids": ["490468", "491517", "491095"], "virtual": false}}, {"id": "606f5ee92dac59c24818c32783e62088", "name": "MOAP-City Campus", "latitude": 49.831052, "longitude": 18.292348, "timestamp": "2025-05-03T03:15:38.447387+00:00Z", "free_bikes": 4, "empty_slots": null, "extra": {"uid": "147547004", "number": "496009", "bike_uids": ["490922", "490293", "490283", "491080"], "virtual": false}}, {"id": "615927d512c0abce030e5c32a929d662", "name": "P-FAST, V\u0160B-TUO", "latitude": 49.845683, "longitude": 18.153577, "timestamp": "2025-05-03T03:15:38.409395+00:00Z", "free_bikes": 0, "empty_slots": null, "extra": {"uid": "13410707", "number": "45262", "bike_uids": [], "virtual": false}}, {"id": "615fd6281ac076470c79495985c49165", "name": "SL- Z\u0160 Chrustova", "latitude": 49.849628, "longitude": 18.319365, "timestamp": "2025-05-03T03:15:38.447369+00:00Z", "free_bikes": 3, "empty_slots": null, "extra": {"uid": "133204106", "number": "496008", "bike_uids": ["490242", "490060", "491617"], "virtual": false}}, {"id": "617228c55aad09990f01ccf8ff78127a", "name": "MAR-Mari\u00e1nsk\u00e9 n\u00e1m\u011bst\u00ed", "latitude": 49.828405, "longitude": 18.2577, "timestamp": "2025-05-03T03:15:38.408813+00:00Z", "free_bikes": 0, "empty_slots": null, "extra": {"uid": "13366543", "number": "45209", "bike_uids": [], "virtual": false}}, {"id": "620bfe8784d159eb36f0a92f2d35134d", "name": "MOAP-Sportovn\u00ed", "latitude": 49.824686, "longitude": 18.270589, "timestamp": "2025-05-03T03:15:38.408363+00:00Z", "free_bikes": 1, "empty_slots": null, "extra": {"uid": "13364341", "number": "45161", "bike_uids": ["490535"], "virtual": false}}, {"id": "62e63fbaa97ace4ebc307651f2bac5c7", "name": "P-Bed\u0159icha Nikod\u00e9ma - Martinovsk\u00e1 *(nav\u00edc 15min na odjezd)", "latitude": 49.841578, "longitude": 18.182599, "timestamp": "2025-05-03T03:15:38.408961+00:00Z", "free_bikes": 6, "empty_slots": null, "extra": {"uid": "13385563", "number": "45225", "bike_uids": ["490830", "490652", "490507", "490317", "490082", "491575"], "virtual": false}}, {"id": "64636783d1306694f1d216cda22f24ae", "name": "VIT-\u010cesk\u00e1 x Chalupn\u00edkova", "latitude": 49.799209, "longitude": 18.259714, "timestamp": "2025-05-03T03:15:38.409638+00:00Z", "free_bikes": 0, "empty_slots": null, "extra": {"uid": "13410992", "number": "45285", "bike_uids": [], "virtual": false}}, {"id": "648c135d55fd5879b9d9f5b2702ed27b", "name": "P-Letn\u00ed koupali\u0161t\u011b \"V\u0159esina\" ", "latitude": 49.82491, "longitude": 18.1453, "timestamp": "2025-05-03T03:15:38.409203+00:00Z", "free_bikes": 2, "empty_slots": null, "extra": {"uid": "13388231", "number": "45246", "bike_uids": ["490844", "491917"], "virtual": false}}, {"id": "650abc0393050d31e9656857092a1f09", "name": "SL - Anto\u0161ovick\u00e1 - U \u0161t\u011brkovny", "latitude": 49.899196, "longitude": 18.313852, "timestamp": "2025-05-03T03:15:38.445028+00:00Z", "free_bikes": 5, "empty_slots": null, "extra": {"uid": "27579108", "number": "45043", "bike_uids": ["490683", "490614", "490215", "491599", "491533"], "virtual": false}}, {"id": "661e7527fdde9352d1b95fa151c00c29", "name": "JIH-D\u0159evoprodej", "latitude": 49.79175, "longitude": 18.27118, "timestamp": "2025-05-03T03:15:38.448270+00:00Z", "free_bikes": 0, "empty_slots": 4, "extra": {"uid": "391522877", "number": "47273", "slots": 4, "bike_uids": [], "virtual": false}}, {"id": "67392ca10fcce89c47d29084623e6d94", "name": "P-Koleje V\u0160B - vstup do lesoparku", "latitude": 49.835953, "longitude": 18.157593, "timestamp": "2025-05-03T03:15:38.409181+00:00Z", "free_bikes": 0, "empty_slots": null, "extra": {"uid": "13388035", "number": "45244", "bike_uids": [], "virtual": false}}, {"id": "67394031ce74ade686a054d2da5519ad", "name": "P - S\u00eddli\u0161t\u011b Oty Synka", "latitude": 49.84432, "longitude": 18.161503, "timestamp": "2025-05-03T03:15:38.445897+00:00Z", "free_bikes": 1, "empty_slots": 4, "extra": {"uid": "27582938", "number": "46083", "slots": 5, "bike_uids": ["490250"], "virtual": false}}, {"id": "67923fa5634a8cd5b1951897ad73e0d7", "name": "P-U Soudu, Francouzsk\u00e1", "latitude": 49.827704, "longitude": 18.185454, "timestamp": "2025-05-03T03:15:38.409381+00:00Z", "free_bikes": 11, "empty_slots": null, "extra": {"uid": "13410699", "number": "45261", "bike_uids": ["490880", "490618", "490563", "490537", "490454", "490438", "490411", "491979", "491624", "491127", "491075"], "virtual": false}}, {"id": "688520d51a4f0af9e41c4c866f9312c7", "name": "P-U Oblouku", "latitude": 49.822369, "longitude": 18.174045, "timestamp": "2025-05-03T03:15:38.444664+00:00Z", "free_bikes": 7, "empty_slots": null, "extra": {"uid": "14403325", "number": "45333", "bike_uids": ["490999", "490919", "490530", "490515", "490396", "490204", "490115"], "virtual": false}}, {"id": "68bf6896b2770743d3813278cb332478", "name": "MOAP-zast\u00e1vka Futurum", "latitude": 49.832802, "longitude": 18.262184, "timestamp": "2025-05-03T03:15:38.407893+00:00Z", "free_bikes": 0, "empty_slots": null, "extra": {"uid": "13361988", "number": "45119", "bike_uids": [], "virtual": false}}, {"id": "694b2d69df689145691854035c772def", "name": "MOAP-Minikino kav\u00e1rna", "latitude": 49.835626, "longitude": 18.29384, "timestamp": "2025-05-03T03:15:38.408220+00:00Z", "free_bikes": 3, "empty_slots": null, "extra": {"uid": "13364039", "number": "45149", "bike_uids": ["490262", "490229", "490035"], "virtual": false}}, {"id": "69daea59dac185cdf57c4d81ccffb235", "name": "PLE-Globus - Ostrava", "latitude": 49.848036, "longitude": 18.146427, "timestamp": "2025-05-03T03:15:38.445311+00:00Z", "free_bikes": 0, "empty_slots": null, "extra": {"uid": "27579168", "number": "45048", "bike_uids": [], "virtual": false}}, {"id": "69e0c3aa1d7db41f541bfc3c10100477", "name": "JIH-U Z\u00e1mku", "latitude": 49.805637, "longitude": 18.240589, "timestamp": "2025-05-03T03:15:38.409612+00:00Z", "free_bikes": 2, "empty_slots": null, "extra": {"uid": "13410953", "number": "45282", "bike_uids": ["490725", "491055"], "virtual": false}}, {"id": "69f5f32f8825190e1cbc775c24434109", "name": "P-Wichterlovo gymn\u00e1zium", "latitude": 49.825748, "longitude": 18.168229, "timestamp": "2025-05-03T03:15:38.409264+00:00Z", "free_bikes": 10, "empty_slots": null, "extra": {"uid": "13388303", "number": "45252", "bike_uids": ["490857", "490766", "490509", "490276", "490182", "490154", "491925", "491649", "491648", "491014"], "virtual": false}}, {"id": "6b2b0bc3dda3ff2c44fd7bc305e53f2d", "name": "SL-Kun\u010dice - po\u0161ta", "latitude": 49.791951, "longitude": 18.28815, "timestamp": "2025-05-03T03:15:38.445325+00:00Z", "free_bikes": 2, "empty_slots": null, "extra": {"uid": "27579199", "number": "45050", "bike_uids": ["490813", "490678"], "virtual": false}}, {"id": "6b3847307600803632e018d1bd08c41b", "name": "P-Gymn\u00e1zium P. Tigrida", "latitude": 49.824511, "longitude": 18.171856, "timestamp": "2025-05-03T03:15:38.447103+00:00Z", "free_bikes": 4, "empty_slots": null, "extra": {"uid": "57431076", "number": "49592", "bike_uids": ["490927", "490861", "490314", "490016"], "virtual": false}}, {"id": "6dc516305efdc81c06f4390cbf77941a", "name": "MOAP-Masarykovo n\u00e1m\u011bst\u00ed", "latitude": 49.835196, "longitude": 18.291869, "timestamp": "2025-05-03T03:15:38.407756+00:00Z", "free_bikes": 6, "empty_slots": null, "extra": {"uid": "13361783", "number": "45109", "bike_uids": ["487839", "490964", "490786", "490271", "490228", "491643"], "virtual": false}}, {"id": "6f1871d67238dba44e558bd578dad913", "name": "MOAP-Filozofick\u00e1 fakulta OU", "latitude": 49.836506, "longitude": 18.290508, "timestamp": "2025-05-03T03:15:38.448452+00:00Z", "free_bikes": 1, "empty_slots": 1, "extra": {"uid": "506004829", "number": "46799", "slots": 2, "bike_uids": ["490732"], "virtual": false}}, {"id": "6f448114a88921d6153a2538de6dd997", "name": "P-St\u0159edisko Zuzana", "latitude": 49.840524, "longitude": 18.177828, "timestamp": "2025-05-03T03:15:38.409313+00:00Z", "free_bikes": 4, "empty_slots": null, "extra": {"uid": "13410601", "number": "45256", "bike_uids": ["487645", "490987", "490959", "490312"], "virtual": false}}, {"id": "7008cd061f7a9fbf8d4ba92355faadf4", "name": "MAR-Novovesk\u00e1", "latitude": 49.834659, "longitude": 18.251951, "timestamp": "2025-05-03T03:15:38.408706+00:00Z", "free_bikes": 0, "empty_slots": null, "extra": {"uid": "13366303", "number": "45198", "bike_uids": [], "virtual": false}}, {"id": "711171be70209909fec5cadd36794491", "name": "P-Sokolovsk\u00e1", "latitude": 49.83575, "longitude": 18.177438, "timestamp": "2025-05-03T03:15:38.446804+00:00Z", "free_bikes": 7, "empty_slots": null, "extra": {"uid": "41208888", "number": "46760", "bike_uids": ["490995", "490620", "490590", "490562", "490434", "490083", "491096"], "virtual": false}}, {"id": "71a61f4f0171e04e94bf38a9e166c8bb", "name": "JIH-Volgogradsk\u00e1", "latitude": 49.793591, "longitude": 18.227954, "timestamp": "2025-05-03T03:15:38.409565+00:00Z", "free_bikes": 1, "empty_slots": null, "extra": {"uid": "13410885", "number": "45277", "bike_uids": ["487635"], "virtual": false}}, {"id": "7354a273cd902a92c9556c8983d46d36", "name": "P-Kub\u00e1nsk\u00e1", "latitude": 49.822942, "longitude": 18.186668, "timestamp": "2025-05-03T03:15:38.446785+00:00Z", "free_bikes": 1, "empty_slots": null, "extra": {"uid": "41208801", "number": "46761", "bike_uids": ["490845"], "virtual": false}}, {"id": "73aad59394006d37b04add60e3852a5a", "name": "JIH - B\u0159enkova", "latitude": 49.806738, "longitude": 18.235976, "timestamp": "2025-05-03T03:15:38.448156+00:00Z", "free_bikes": 0, "empty_slots": 2, "extra": {"uid": "260333870", "number": "496052", "slots": 2, "bike_uids": [], "virtual": false}}, {"id": "74e2548dc94ebc073219cdb256a0d78b", "name": "MOAP-Most Milo\u0161e S\u00fdkory, knihovna", "latitude": 49.837353, "longitude": 18.295727, "timestamp": "2025-05-03T03:15:38.407842+00:00Z", "free_bikes": 6, "empty_slots": null, "extra": {"uid": "13361926", "number": "45115", "bike_uids": ["490946", "490900", "490381", "490098", "491647", "491062"], "virtual": false}}, {"id": "750399931d18733983c3a5090c56a32a", "name": "HR-CTPark jih", "latitude": 49.759137, "longitude": 18.268998, "timestamp": "2025-05-03T03:15:38.409995+00:00Z", "free_bikes": 1, "empty_slots": null, "extra": {"uid": "14403231", "number": "45324", "bike_uids": ["490673"], "virtual": false}}, {"id": "765b65bd066d9cd387600a95385c68f6", "name": "MOAP-zast\u00e1vka Elektra", "latitude": 49.835122, "longitude": 18.287611, "timestamp": "2025-05-03T03:15:38.407726+00:00Z", "free_bikes": 3, "empty_slots": null, "extra": {"uid": "13361556", "number": "45107", "bike_uids": ["487696", "490608", "491621"], "virtual": false}}, {"id": "76cb3f235b71e0f8a5ef37ba9a9967c3", "name": "SV-radnice Svinov *(nav\u00edc 15min na odjezd)", "latitude": 49.81589, "longitude": 18.19794, "timestamp": "2025-05-03T03:15:38.409469+00:00Z", "free_bikes": 5, "empty_slots": null, "extra": {"uid": "13410788", "number": "45269", "bike_uids": ["490979", "490587", "490439", "490209", "490092"], "virtual": false}}, {"id": "77bdc8f89a4e134e866a274032f56454", "name": "SL-Hladnovsk\u00e1, gymn\u00e1zium", "latitude": 49.846336, "longitude": 18.30533, "timestamp": "2025-05-03T03:15:38.408504+00:00Z", "free_bikes": 0, "empty_slots": null, "extra": {"uid": "13364568", "number": "45175", "bike_uids": [], "virtual": false}}, {"id": "784f963ebb245587e91b59cd6a59393c", "name": "JIH-Fr. Hajdy", "latitude": 49.78018, "longitude": 18.26028, "timestamp": "2025-05-03T03:15:38.448286+00:00Z", "free_bikes": 0, "empty_slots": 4, "extra": {"uid": "391523607", "number": "47272", "slots": 4, "bike_uids": [], "virtual": false}}, {"id": "78d8ae7a982872e5e9030bb703bb0e1c", "name": "SV-Svinov \u2013 mosty", "latitude": 49.823789, "longitude": 18.210516, "timestamp": "2025-05-03T03:15:38.447022+00:00Z", "free_bikes": 3, "empty_slots": null, "extra": {"uid": "49120793", "number": "48777", "bike_uids": ["490789", "490219", "491162"], "virtual": false}}, {"id": "7926fcd5b1dee0a9d916ca24f1acdc02", "name": "MOAP-sad B. N\u011bmcov\u00e9", "latitude": 49.850951, "longitude": 18.277742, "timestamp": "2025-05-03T03:15:38.407576+00:00Z", "free_bikes": 12, "empty_slots": null, "extra": {"uid": "13361440", "number": "45100", "bike_uids": ["487605", "490876", "490654", "490549", "490516", "490494", "490274", "490135", "491954", "491588", "491557", "491512"], "virtual": false}}, {"id": "7ab017e69930da93ff33afb1067a1656", "name": "MOAP-\u010cesk\u00e1 televize", "latitude": 49.83811, "longitude": 18.291408, "timestamp": "2025-05-03T03:15:38.408085+00:00Z", "free_bikes": 8, "empty_slots": null, "extra": {"uid": "13363349", "number": "45137", "bike_uids": ["487512", "488296", "490645", "490503", "490447", "490364", "490146", "491546"], "virtual": false}}, {"id": "7be138b182a4a5cceadfa17bc759a0bb", "name": "LHOT-Golf Park Lhotka", "latitude": 49.853984, "longitude": 18.23024, "timestamp": "2025-05-03T03:15:38.409935+00:00Z", "free_bikes": 7, "empty_slots": null, "extra": {"uid": "14403073", "number": "45318", "bike_uids": ["490934", "490705", "490693", "490218", "490167", "491554", "491068"], "virtual": false}}, {"id": "7c0fce748a63f2dce7cd1929c686b9ab", "name": "JIH-Hrab\u016fvka, poliklinika", "latitude": 49.78558, "longitude": 18.258968, "timestamp": "2025-05-03T03:15:38.409715+00:00Z", "free_bikes": 1, "empty_slots": null, "extra": {"uid": "13411267", "number": "45293", "bike_uids": ["490427"], "virtual": false}}, {"id": "7c32fed35c522b468b1a04c720be089f", "name": "MAR-Fr\u00e1ni \u0160r\u00e1mka", "latitude": 49.827439, "longitude": 18.262232, "timestamp": "2025-05-03T03:15:38.408802+00:00Z", "free_bikes": 0, "empty_slots": null, "extra": {"uid": "13366529", "number": "45208", "bike_uids": [], "virtual": false}}, {"id": "7d24de5ccd69d80eb45cd0f389cb25d0", "name": "JIH-Dubina, pumptrack", "latitude": 49.777538, "longitude": 18.246917, "timestamp": "2025-05-03T03:15:38.409837+00:00Z", "free_bikes": 1, "empty_slots": null, "extra": {"uid": "13411599", "number": "45304", "bike_uids": ["490441"], "virtual": false}}, {"id": "7d5d4a8d752a79adfd0c7eccb8308af8", "name": "HR-Mostn\u00ed x Fr\u00fddeck\u00e1", "latitude": 49.771884, "longitude": 18.297075, "timestamp": "2025-05-03T03:15:38.445877+00:00Z", "free_bikes": 3, "empty_slots": null, "extra": {"uid": "27582569", "number": "46042", "bike_uids": ["487528", "490982", "490066"], "virtual": false}}, {"id": "7dd069bdd64553f51476638b3ddfeb9a", "name": "MOAP - Sad B. N\u011bmcov\u00e9, stanovi\u0161t\u011b 4", "latitude": 49.850217, "longitude": 18.279838, "timestamp": "2025-05-03T03:15:38.447306+00:00Z", "free_bikes": 0, "empty_slots": null, "extra": {"uid": "110159155", "number": "496004", "bike_uids": [], "virtual": false}}, {"id": "7debb0969d31aa483df432e37d17d3fa", "name": "SV-E. Ro\u0161ick\u00e9ho", "latitude": 49.819457, "longitude": 18.188495, "timestamp": "2025-05-03T03:15:38.446877+00:00Z", "free_bikes": 4, "empty_slots": null, "extra": {"uid": "42906317", "number": "46741", "bike_uids": ["490655", "490582", "490508", "491000"], "virtual": false}}, {"id": "7ea54cacdbcabf84e7f91bfa4f319f25", "name": "VIT-In-line are\u00e1l (jih)", "latitude": 49.81174, "longitude": 18.24497, "timestamp": "2025-05-03T03:15:38.408670+00:00Z", "free_bikes": 3, "empty_slots": null, "extra": {"uid": "13366250", "number": "45195", "bike_uids": ["490351", "491528", "491098"], "virtual": false}}, {"id": "7fa6324f19ab38ae00b83dbbd0e1eca7", "name": "P-rektor\u00e1t, V\u0160B-TUO(+15min zdarma na p\u0159\u00edjezd i odjezd)", "latitude": 49.834027, "longitude": 18.164356, "timestamp": "2025-05-03T03:15:38.409413+00:00Z", "free_bikes": 1, "empty_slots": null, "extra": {"uid": "13410727", "number": "45264", "bike_uids": ["490873"], "virtual": false}}, {"id": "805ba0678a3430f6fa64fb3adb493864", "name": "MOAP-\u0160p\u00e1lova", "latitude": 49.851703, "longitude": 18.27305, "timestamp": "2025-05-03T03:15:38.408424+00:00Z", "free_bikes": 0, "empty_slots": null, "extra": {"uid": "13364442", "number": "45167", "bike_uids": [], "virtual": false}}, {"id": "80bbc63e34125eed6976b5b0c2054d22", "name": "MAR-Stanice Port\u00e1\u0161", "latitude": 49.82738, "longitude": 18.252519, "timestamp": "2025-05-03T03:15:38.445955+00:00Z", "free_bikes": 0, "empty_slots": null, "extra": {"uid": "27604130", "number": "46188", "bike_uids": [], "virtual": false}}, {"id": "84016a37ddfaa97f85c3323cc5aa1a68", "name": "MOAP-Vozovna trolejbus\u016f", "latitude": 49.848754, "longitude": 18.282614, "timestamp": "2025-05-03T03:15:38.446176+00:00Z", "free_bikes": 1, "empty_slots": null, "extra": {"uid": "30920811", "number": "46688", "bike_uids": ["487510"], "virtual": false}}, {"id": "849069a4df844a83c3403cba0b8940e6", "name": "VIT-SS technick\u00e1 dopravn\u00ed", "latitude": 49.799114, "longitude": 18.268944, "timestamp": "2025-05-03T03:15:38.408603+00:00Z", "free_bikes": 0, "empty_slots": null, "extra": {"uid": "13364859", "number": "45183", "bike_uids": [], "virtual": false}}, {"id": "84b8a601e6f12c09254ad67ab5ca8179", "name": "MOAP-Zelen\u00e1, VO\u0160 soci\u00e1ln\u00ed", "latitude": 49.828574, "longitude": 18.271435, "timestamp": "2025-05-03T03:15:38.408329+00:00Z", "free_bikes": 1, "empty_slots": null, "extra": {"uid": "13364243", "number": "45158", "bike_uids": ["490012"], "virtual": false}}, {"id": "84d451619fc71c1c1dec5ef7c3bbc14b", "name": "MOAP-Outlet Arena Moravia", "latitude": 49.859431, "longitude": 18.254996, "timestamp": "2025-05-03T03:15:38.409948+00:00Z", "free_bikes": 5, "empty_slots": null, "extra": {"uid": "14403130", "number": "45319", "bike_uids": ["490623", "490603", "490241", "490169", "491595"], "virtual": false}}, {"id": "85427aa88e40bdfd5ed5a6eea16f6954", "name": "V\u00edtkovice Steel 2 (+30 min zdarma na p\u0159\u00edjezd i odjezd)", "latitude": 49.816324, "longitude": 18.258285, "timestamp": "2025-05-03T03:15:38.448419+00:00Z", "free_bikes": 1, "empty_slots": null, "extra": {"uid": "448747666", "number": "496058", "bike_uids": ["490354"], "virtual": false}}, {"id": "85e0765b0ef33721db08747fdf2fc326", "name": "MOAP - Muglinovsk\u00e1", "latitude": 49.849364, "longitude": 18.277774, "timestamp": "2025-05-03T03:15:38.447527+00:00Z", "free_bikes": 5, "empty_slots": null, "extra": {"uid": "176882402", "number": "496018", "bike_uids": ["490935", "490275", "490252", "491995", "491568"], "virtual": false}}, {"id": "873559ca576216a983d2b9a138502860", "name": "SL-Kun\u010dice - n\u00e1dra\u017e\u00ed", "latitude": 49.790797, "longitude": 18.290352, "timestamp": "2025-05-03T03:15:38.445345+00:00Z", "free_bikes": 0, "empty_slots": null, "extra": {"uid": "27579213", "number": "45051", "bike_uids": [], "virtual": false}}, {"id": "8769486cd8d5c82d3da89e8d875dcba5", "name": "JIH - knihovna V\u00fd\u0161kovice", "latitude": 49.77867, "longitude": 18.22686, "timestamp": "2025-05-03T03:15:38.448114+00:00Z", "free_bikes": 0, "empty_slots": 2, "extra": {"uid": "254726408", "number": "496050", "slots": 2, "bike_uids": [], "virtual": false}}, {"id": "87850c97388c4590e6a23e5d41e35116", "name": "P-T\u0159ebovick\u00e1", "latitude": 49.828061, "longitude": 18.192601, "timestamp": "2025-05-03T03:15:38.408936+00:00Z", "free_bikes": 4, "empty_slots": null, "extra": {"uid": "13385426", "number": "45223", "bike_uids": ["490996", "490551", "490055", "491501"], "virtual": false}}, {"id": "87b0edaee98b9dbad0f9b22acd279ca7", "name": "MAR-Mojm\u00edrovc\u016f \u2013 PRIGO", "latitude": 49.828021, "longitude": 18.249199, "timestamp": "2025-05-03T03:15:38.408725+00:00Z", "free_bikes": 0, "empty_slots": null, "extra": {"uid": "13366344", "number": "45200", "bike_uids": [], "virtual": false}}, {"id": "87e7af41b92f81e9a43b457a069b722a", "name": "RAD-Koupark", "latitude": 49.819028, "longitude": 18.338694, "timestamp": "2025-05-03T03:15:38.446671+00:00Z", "free_bikes": 0, "empty_slots": null, "extra": {"uid": "41111664", "number": "46769", "bike_uids": [], "virtual": false}}, {"id": "88739372790b77baf2c5919509802221", "name": "VIT-V\u00edtkovice n\u00e1dra\u017e\u00ed", "latitude": 49.800851, "longitude": 18.262787, "timestamp": "2025-05-03T03:15:38.408587+00:00Z", "free_bikes": 1, "empty_slots": null, "extra": {"uid": "13364679", "number": "45182", "bike_uids": ["491989"], "virtual": false}}, {"id": "89bce5e4412b94dcb27a7d23a472fc5a", "name": "KP - h\u0159bitov", "latitude": 49.84889, "longitude": 18.12511, "timestamp": "2025-05-03T03:15:38.444907+00:00Z", "free_bikes": 0, "empty_slots": null, "extra": {"uid": "27578912", "number": "45035", "bike_uids": [], "virtual": false}}, {"id": "89c8da46786b9c4cecf883150970627b", "name": "P-Duha", "latitude": 49.844516, "longitude": 18.16905, "timestamp": "2025-05-03T03:15:38.408989+00:00Z", "free_bikes": 3, "empty_slots": null, "extra": {"uid": "13385600", "number": "45227", "bike_uids": ["490607", "490341", "491602"], "virtual": false}}, {"id": "89f75a253e73222119aea1a991204c07", "name": "SL-Anto\u0161ovick\u00e1 - hasi\u010di", "latitude": 49.905206, "longitude": 18.314506, "timestamp": "2025-05-03T03:15:38.445007+00:00Z", "free_bikes": 4, "empty_slots": null, "extra": {"uid": "27579078", "number": "45042", "bike_uids": ["490932", "490140", "491905", "491142"], "virtual": false}}, {"id": "8aeb75a1f41373b523d1aa3eefab8d63", "name": "NB - Nov\u00e1 B\u011bl\u00e1 \u2013 M\u0160", "latitude": 49.749111, "longitude": 18.261496, "timestamp": "2025-05-03T03:15:38.408790+00:00Z", "free_bikes": 1, "empty_slots": null, "extra": {"uid": "13366520", "number": "45207", "bike_uids": ["490246"], "virtual": false}}, {"id": "8b8be14215d14586e2d0f288304ab569", "name": "RAD-Ozdravn\u00e9 centrum Je\u0161t\u011brka", "latitude": 49.796671, "longitude": 18.358384, "timestamp": "2025-05-03T03:15:38.446583+00:00Z", "free_bikes": 0, "empty_slots": null, "extra": {"uid": "41111571", "number": "46776", "bike_uids": [], "virtual": false}}, {"id": "8d36ede71f909578001c63d00d35ec27", "name": "JIH - Emanuela Podgorn\u00e9ho", "latitude": 49.775403, "longitude": 18.251703, "timestamp": "2025-05-03T03:15:38.447889+00:00Z", "free_bikes": 0, "empty_slots": null, "extra": {"uid": "206332437", "number": "496041", "bike_uids": [], "virtual": false}}, {"id": "8f8993bf574e3044c92eb34219473b98", "name": "VIT-radnice V\u00edtkovice", "latitude": 49.815344, "longitude": 18.266447, "timestamp": "2025-05-03T03:15:38.408248+00:00Z", "free_bikes": 10, "empty_slots": null, "extra": {"uid": "13364128", "number": "45151", "bike_uids": ["487593", "490899", "490868", "490697", "490651", "490464", "490096", "491951", "491551", "491161"], "virtual": false}}, {"id": "91146077fdea89c7d959ca01b935d885", "name": "PNO-K Vydralin\u00e1m (u kontejnerov\u00e9ho st\u00e1n\u00ed)", "latitude": 49.783238, "longitude": 18.15871, "timestamp": "2025-05-03T03:15:38.447337+00:00Z", "free_bikes": 0, "empty_slots": null, "extra": {"uid": "118099106", "number": "496006", "bike_uids": [], "virtual": false}}, {"id": "9233dad4ac441de49a854e6381782af8", "name": "JIH-Termin\u00e1l Dubina", "latitude": 49.770094, "longitude": 18.246274, "timestamp": "2025-05-03T03:15:38.445515+00:00Z", "free_bikes": 4, "empty_slots": null, "extra": {"uid": "27579539", "number": "45062", "bike_uids": ["490414", "490400", "490160", "490027"], "virtual": false}}, {"id": "92ca2deb47bf8b9a46bd6869241af477", "name": "MTNV-Martinov - smy\u010dka", "latitude": 49.853428, "longitude": 18.182908, "timestamp": "2025-05-03T03:15:38.444730+00:00Z", "free_bikes": 7, "empty_slots": null, "extra": {"uid": "14403377", "number": "45337", "bike_uids": ["48768", "487807", "490769", "490699", "490657", "490232", "490044"], "virtual": false}}, {"id": "93c420902296c89ade8462b3cfea76bd", "name": "JIH-Charv\u00e1tsk\u00e1, CDU", "latitude": 49.779307, "longitude": 18.216219, "timestamp": "2025-05-03T03:15:38.445360+00:00Z", "free_bikes": 2, "empty_slots": null, "extra": {"uid": "27579218", "number": "45052", "bike_uids": ["490893", "491639"], "virtual": false}}, {"id": "9464d60d884e014fba4133220382ab2f", "name": "MAR-Mojm\u00edrovc\u016f \u2013 parkovi\u0161t\u011b", "latitude": 49.82854, "longitude": 18.25063, "timestamp": "2025-05-03T03:15:38.408822+00:00Z", "free_bikes": 0, "empty_slots": null, "extra": {"uid": "13366583", "number": "45210", "bike_uids": [], "virtual": false}}, {"id": "94e6f89ce3e5c1b21b35a5307b3636df", "name": "JIH - Odbor\u00e1\u0159sk\u00e1", "latitude": 49.791319, "longitude": 18.253154, "timestamp": "2025-05-03T03:15:38.447495+00:00Z", "free_bikes": 3, "empty_slots": null, "extra": {"uid": "176071655", "number": "496016", "bike_uids": ["487660", "490924", "490744"], "virtual": false}}, {"id": "96434174b6f6959c841e0091a976bd6c", "name": "P-MSIC - Viva", "latitude": 49.838789, "longitude": 18.154571, "timestamp": "2025-05-03T03:15:38.409460+00:00Z", "free_bikes": 0, "empty_slots": null, "extra": {"uid": "13410779", "number": "45268", "bike_uids": [], "virtual": false}}, {"id": "973e41de311ba44a9f333e4d8d8f0ddd", "name": "P-Hlavn\u00ed t\u0159\u00edda - horn\u00ed \u010d\u00e1st", "latitude": 49.831107, "longitude": 18.16464, "timestamp": "2025-05-03T03:15:38.409046+00:00Z", "free_bikes": 0, "empty_slots": null, "extra": {"uid": "13385720", "number": "45232", "bike_uids": [], "virtual": false}}, {"id": "982f17c0442e51d0999ad57b005ee25c", "name": "P-Slav\u00edkova - L\u00eddl", "latitude": 49.837808, "longitude": 18.168774, "timestamp": "2025-05-03T03:15:38.444828+00:00Z", "free_bikes": 5, "empty_slots": null, "extra": {"uid": "14403570", "number": "45348", "bike_uids": ["490532", "490459", "490431", "491578", "491124"], "virtual": false}}, {"id": "98a88ccf53daeaa5767126de032d51f9", "name": "MOAP-Stodoln\u00ed \u017eelezni\u010dn\u00ed zast\u00e1vka", "latitude": 49.834605, "longitude": 18.281192, "timestamp": "2025-05-03T03:15:38.407880+00:00Z", "free_bikes": 4, "empty_slots": null, "extra": {"uid": "13361974", "number": "45118", "bike_uids": ["490986", "490793", "491579", "491084"], "virtual": false}}, {"id": "98acfeafc5d78c44cf65995316a9783c", "name": "VIT-n\u00e1m J. z Pod\u011bbrad", "latitude": 49.812664, "longitude": 18.27087, "timestamp": "2025-05-03T03:15:38.408172+00:00Z", "free_bikes": 7, "empty_slots": null, "extra": {"uid": "13363955", "number": "45144", "bike_uids": ["490936", "490875", "490719", "490584", "490521", "490377", "490068"], "virtual": false}}, {"id": "98c0b3cce33271af2664cf8e71ba565e", "name": "MOAP-Zelen\u00e1, s\u00eddli\u0161t\u011b", "latitude": 49.827822, "longitude": 18.269795, "timestamp": "2025-05-03T03:15:38.408341+00:00Z", "free_bikes": 0, "empty_slots": null, "extra": {"uid": "13364302", "number": "45159", "bike_uids": [], "virtual": false}}, {"id": "9acb59c18d0a3971ae1bfec5a8a2dd7b", "name": "MOAP-Proke\u0161ovo n\u00e1m\u011bst\u00ed u kav\u00e1rny", "latitude": 49.84103, "longitude": 18.29015, "timestamp": "2025-05-03T03:15:38.447003+00:00Z", "free_bikes": 1, "empty_slots": null, "extra": {"uid": "47320754", "number": "46394", "bike_uids": ["490973"], "virtual": false}}, {"id": "9ad2b75e2777f1c87e7f4a7852d0e0a5", "name": "KP - z\u00e1kladn\u00ed \u0161kola", "latitude": 49.84091, "longitude": 18.12143, "timestamp": "2025-05-03T03:15:38.444871+00:00Z", "free_bikes": 1, "empty_slots": null, "extra": {"uid": "27578888", "number": "45033", "bike_uids": ["490084"], "virtual": false}}, {"id": "9c0fe8430097ceeb30629bcb8a39302f", "name": "P-FEI, V\u0160B-TUO (nav\u00edc 15min na p\u0159\u00edjezd i odjezd)", "latitude": 49.831907, "longitude": 18.161756, "timestamp": "2025-05-03T03:15:38.409404+00:00Z", "free_bikes": 0, "empty_slots": null, "extra": {"uid": "13410718", "number": "45263", "bike_uids": [], "virtual": false}}, {"id": "9cb59223f6cd59bf8e2068e898b0bacf", "name": "SL-radnice Slezsk\u00e1 Ostrava", "latitude": 49.837194, "longitude": 18.298428, "timestamp": "2025-05-03T03:15:38.408136+00:00Z", "free_bikes": 0, "empty_slots": null, "extra": {"uid": "13363404", "number": "45141", "bike_uids": [], "virtual": false}}, {"id": "9cea1973d047a2fb06ba7a5c4aedca1a", "name": "MAR-Hospod\u00e1\u0159sk\u00e1 komora", "latitude": 49.827185, "longitude": 18.264626, "timestamp": "2025-05-03T03:15:38.408846+00:00Z", "free_bikes": 1, "empty_slots": null, "extra": {"uid": "13366613", "number": "45212", "bike_uids": ["490327"], "virtual": false}}, {"id": "9d1b589d7f45fed47ff4176855df06c5", "name": "JIH - K Od\u0159e", "latitude": 49.783706, "longitude": 18.213168, "timestamp": "2025-05-03T03:15:38.447940+00:00Z", "free_bikes": 8, "empty_slots": null, "extra": {"uid": "208608441", "number": "496043", "bike_uids": ["490915", "490758", "490372", "490117", "490071", "490006", "491635", "491583"], "virtual": false}}, {"id": "9e328d0e9115f28408a283cfae9505af", "name": "SL-termin\u00e1l Hrane\u010dn\u00edk", "latitude": 49.824323, "longitude": 18.317599, "timestamp": "2025-05-03T03:15:38.445105+00:00Z", "free_bikes": 7, "empty_slots": null, "extra": {"uid": "27579156", "number": "45047", "bike_uids": ["487694", "490804", "490698", "490440", "490069", "491566", "491136"], "virtual": false}}, {"id": "9fead52cbc2c2902350b04d971f71944", "name": "P-Myslivna", "latitude": 49.830777, "longitude": 18.150127, "timestamp": "2025-05-03T03:15:38.445938+00:00Z", "free_bikes": 0, "empty_slots": null, "extra": {"uid": "27583397", "number": "46132", "bike_uids": [], "virtual": false}}, {"id": "a02ca706ae82fb94d8c94521463828ba", "name": "P-Hlavn\u00ed t\u0159\u00edda - Rondl - st\u0159edov\u00fd p\u00e1s", "latitude": 49.828463, "longitude": 18.174173, "timestamp": "2025-05-03T03:15:38.409085+00:00Z", "free_bikes": 5, "empty_slots": null, "extra": {"uid": "13387788", "number": "45236", "bike_uids": ["490803", "490401", "490233", "490122", "490095"], "virtual": false}}, {"id": "a137a7b745c8f5bf0ed9f67df51b4e8c", "name": "SL - Contera", "latitude": 49.867501, "longitude": 18.289898, "timestamp": "2025-05-03T03:15:38.447202+00:00Z", "free_bikes": 5, "empty_slots": null, "extra": {"uid": "93552941", "number": "49598", "bike_uids": ["487550", "490564", "490085", "491637", "491535"], "virtual": false}}, {"id": "a1aaf849e5fd3bd05d0d09e421815140", "name": "HR-Domovsk\u00e1, kostel\u00edk", "latitude": 49.774278, "longitude": 18.279195, "timestamp": "2025-05-03T03:15:38.444808+00:00Z", "free_bikes": 1, "empty_slots": null, "extra": {"uid": "14403537", "number": "45347", "bike_uids": ["491556"], "virtual": false}}, {"id": "a243ff63fc31f4d0c7adfbb9a6e90fd7", "name": "SV-Svinov n\u00e1dra\u017e\u00ed *(nav\u00edc 15min na odjezd)", "latitude": 49.822109, "longitude": 18.20981, "timestamp": "2025-05-03T03:15:38.409910+00:00Z", "free_bikes": 19, "empty_slots": null, "extra": {"uid": "13411701", "number": "45311", "bike_uids": ["490992", "490859", "490851", "490839", "490621", "490499", "490492", "490363", "490259", "490235", "490041", "490008", "491958", "491950", "491585", "491584", "491580", "491110", "491012"], "virtual": false}}, {"id": "a255c2fc8ea16d8a9ebd2d77633028da", "name": "P-Telekomunika\u010dn\u00ed \u0161kola", "latitude": 49.829589, "longitude": 18.18661, "timestamp": "2025-05-03T03:15:38.408922+00:00Z", "free_bikes": 12, "empty_slots": null, "extra": {"uid": "13385412", "number": "45222", "bike_uids": ["490978", "490888", "490797", "490708", "490548", "490455", "490413", "490224", "490201", "490072", "491620", "491113"], "virtual": false}}, {"id": "a2bdd82dea4b40908f8adb8df362c7a3", "name": "JIH - Markova", "latitude": 49.80555, "longitude": 18.228491, "timestamp": "2025-05-03T03:15:38.447867+00:00Z", "free_bikes": 3, "empty_slots": null, "extra": {"uid": "202414259", "number": "496040", "bike_uids": ["490951", "490202", "491019"], "virtual": false}}, {"id": "a2ca3e1713aec1595992abaa628853f3", "name": "SL-Anto\u0161ovick\u00e1, gymn\u00e1zium", "latitude": 49.878445, "longitude": 18.285271, "timestamp": "2025-05-03T03:15:38.408443+00:00Z", "free_bikes": 2, "empty_slots": null, "extra": {"uid": "13364479", "number": "45169", "bike_uids": ["487626", "490684"], "virtual": false}}, {"id": "a35dc6a5870bb49ce2a775ee1f13b9ad", "name": "PROS-Ku\u0148kali\u0161t\u011b", "latitude": 49.748763, "longitude": 18.192918, "timestamp": "2025-05-03T03:15:38.446918+00:00Z", "free_bikes": 3, "empty_slots": null, "extra": {"uid": "43459155", "number": "46738", "bike_uids": ["490994", "490601", "491500"], "virtual": false}}, {"id": "a3be8b5655409a2ffc91bd1a399fd98e", "name": "JIH-Svaz\u00e1ck\u00e1", "latitude": 49.790121, "longitude": 18.238381, "timestamp": "2025-05-03T03:15:38.409555+00:00Z", "free_bikes": 0, "empty_slots": null, "extra": {"uid": "13410871", "number": "45276", "bike_uids": [], "virtual": false}}, {"id": "a3e818073cffd545d18943d33de27872", "name": "VIT-Zem\u011bd\u011blsk\u00e9 muzeum", "latitude": 49.821349, "longitude": 18.281093, "timestamp": "2025-05-03T03:15:38.446963+00:00Z", "free_bikes": 1, "empty_slots": null, "extra": {"uid": "45120932", "number": "48776", "bike_uids": ["490809"], "virtual": false}}, {"id": "a45ca4db18384fbc00a3f88b3e4992da", "name": "JIH- Jugosl\u00e1vsk\u00e1 LIDL", "latitude": 49.8035, "longitude": 18.2433, "timestamp": "2025-05-03T03:15:38.448317+00:00Z", "free_bikes": 3, "empty_slots": 1, "extra": {"uid": "391524741", "number": "47270", "slots": 4, "bike_uids": ["487598", "490592", "490539"], "virtual": false}}, {"id": "a4f0b4c9c339ccc3ed6670165d3c26eb", "name": "P-Hlavn\u00ed t\u0159\u00edda - N\u00e1lepkova", "latitude": 49.826941, "longitude": 18.179576, "timestamp": "2025-05-03T03:15:38.409119+00:00Z", "free_bikes": 5, "empty_slots": null, "extra": {"uid": "13387831", "number": "45239", "bike_uids": ["48767", "490686", "490433", "491111", "491004"], "virtual": false}}, {"id": "a5683d66506d60bcb6a393868996f87a", "name": "MOAP-Most Pion\u00fdr\u016f (rapzzz)", "latitude": 49.840167, "longitude": 18.291586, "timestamp": "2025-05-03T03:15:38.408113+00:00Z", "free_bikes": 4, "empty_slots": null, "extra": {"uid": "13363378", "number": "45139", "bike_uids": ["487545", "490695", "490457", "490243"], "virtual": false}}, {"id": "a5dda6597aab080ce4cd4bbb46317fda", "name": "Hrab\u016fvka, Z\u0160 Provaznick\u00e1", "latitude": 49.790366, "longitude": 18.259013, "timestamp": "2025-05-03T03:15:38.409849+00:00Z", "free_bikes": 5, "empty_slots": null, "extra": {"uid": "13411645", "number": "45305", "bike_uids": ["490583", "490567", "490419", "490387", "490100"], "virtual": false}}, {"id": "a5ec8a39aa581347456576d781748f7e", "name": "MOAP-k\u0159i\u017eovatka u pivovaru", "latitude": 49.836406, "longitude": 18.274943, "timestamp": "2025-05-03T03:15:38.407985+00:00Z", "free_bikes": 0, "empty_slots": null, "extra": {"uid": "13362159", "number": "45126", "bike_uids": [], "virtual": false}}, {"id": "a6a00e99811ff0da73f0f34efe6e1f5c", "name": "MOAP-Hornopoln\u00ed - pivovar", "latitude": 49.840291, "longitude": 18.271562, "timestamp": "2025-05-03T03:15:38.444923+00:00Z", "free_bikes": 4, "empty_slots": null, "extra": {"uid": "27578940", "number": "46038", "bike_uids": ["490772", "490704", "490034", "491920"], "virtual": false}}, {"id": "a7307f48588929c563a199889eced6e7", "name": "VIT-\u0158editelstv\u00ed V\u00edtkovic", "latitude": 49.807816, "longitude": 18.251669, "timestamp": "2025-05-03T03:15:38.448377+00:00Z", "free_bikes": 0, "empty_slots": 20, "extra": {"uid": "402739616", "number": "46689", "slots": 20, "bike_uids": [], "virtual": false}}, {"id": "a7e70df857515ef7138afd7eefad7288", "name": "HR-CTPark sever", "latitude": 49.769835, "longitude": 18.26803, "timestamp": "2025-05-03T03:15:38.409973+00:00Z", "free_bikes": 1, "empty_slots": null, "extra": {"uid": "14403211", "number": "45322", "bike_uids": ["490257"], "virtual": false}}, {"id": "a82c31c9d0ba8f7337a2a9835540b652", "name": "JIH - AVION, vstup od d\u011btsk\u00e9ho h\u0159i\u0161t\u011b", "latitude": 49.80304, "longitude": 18.22786, "timestamp": "2025-05-03T03:15:38.448560+00:00Z", "free_bikes": 0, "empty_slots": 5, "extra": {"uid": "524484661", "number": "46809", "slots": 5, "bike_uids": [], "virtual": false}}, {"id": "a8fa572fdf1575c7cd9520bc35a80957", "name": "MOAP-SC Varensk\u00e1", "latitude": 49.833657, "longitude": 18.270251, "timestamp": "2025-05-03T03:15:38.408404+00:00Z", "free_bikes": 0, "empty_slots": null, "extra": {"uid": "13364397", "number": "45165", "bike_uids": [], "virtual": false}}, {"id": "a928cbf5874c13cb57d9a7aa1bb8971d", "name": "JIH - Sta\u0148kova - Restaurace", "latitude": 49.783376, "longitude": 18.226249, "timestamp": "2025-05-03T03:15:38.447904+00:00Z", "free_bikes": 5, "empty_slots": null, "extra": {"uid": "208607121", "number": "496042", "bike_uids": ["490694", "490281", "490020", "491590", "491525"], "virtual": false}}, {"id": "a954d5bd2e78b21126980e73ebbb2a78", "name": "P-CV\u010c Vietnamsk\u00e1", "latitude": 49.822445, "longitude": 18.191206, "timestamp": "2025-05-03T03:15:38.409278+00:00Z", "free_bikes": 1, "empty_slots": null, "extra": {"uid": "13410565", "number": "45253", "bike_uids": ["490005"], "virtual": false}}, {"id": "a9c4cab33bb4e152079b9bfea205db27", "name": "VIT-M\u011bstsk\u00fd stadion", "latitude": 49.802857, "longitude": 18.255796, "timestamp": "2025-05-03T03:15:38.408644+00:00Z", "free_bikes": 7, "empty_slots": null, "extra": {"uid": "13365793", "number": "45189", "bike_uids": ["490846", "490662", "490649", "490588", "490319", "491628", "491077"], "virtual": false}}, {"id": "aa0253b29cc6440f05878f459431cf7e", "name": "RAD-U Statku", "latitude": 49.79, "longitude": 18.347278, "timestamp": "2025-05-03T03:15:38.446607+00:00Z", "free_bikes": 0, "empty_slots": null, "extra": {"uid": "41111598", "number": "46775", "bike_uids": [], "virtual": false}}, {"id": "aaa416129c9a18be2df9035a775fbee7", "name": "MAR-Novovesk\u00e1 - Ostravsk\u00e9 komunikace", "latitude": 49.836986, "longitude": 18.254626, "timestamp": "2025-05-03T03:15:38.408310+00:00Z", "free_bikes": 0, "empty_slots": null, "extra": {"uid": "13364215", "number": "45156", "bike_uids": [], "virtual": false}}, {"id": "aac16a32e98476f08c9da0ee22fd368e", "name": "P-Ukrajinsk\u00e1", "latitude": 49.82411, "longitude": 18.190987, "timestamp": "2025-05-03T03:15:38.444850+00:00Z", "free_bikes": 6, "empty_slots": null, "extra": {"uid": "27578638", "number": "45030", "bike_uids": ["490891", "490685", "490629", "490473", "490300", "491622"], "virtual": false}}, {"id": "aacce00528fde403fdc0c19a08e7bb88", "name": "JIH-Jubilejn\u00ed sever", "latitude": 49.794333, "longitude": 18.261436, "timestamp": "2025-05-03T03:15:38.445535+00:00Z", "free_bikes": 4, "empty_slots": null, "extra": {"uid": "27579548", "number": "45063", "bike_uids": ["490712", "490132", "491903", "491555"], "virtual": false}}, {"id": "abb2dd3304da2afb9ae437974745ef1e", "name": "JIH-Vlasty Vlas\u00e1kov\u00e9", "latitude": 49.78205, "longitude": 18.25124, "timestamp": "2025-05-03T03:15:38.448229+00:00Z", "free_bikes": 4, "empty_slots": 0, "extra": {"uid": "320919074", "number": "47274", "slots": 4, "bike_uids": ["490819", "490550", "490205", "491971"], "virtual": false}}, {"id": "ac556b48b10ef07e379cabf3e76fa73f", "name": "SV-Z\u0160 B\u00edloveck\u00e1 10", "latitude": 49.818073, "longitude": 18.201678, "timestamp": "2025-05-03T03:15:38.446856+00:00Z", "free_bikes": 13, "empty_slots": null, "extra": {"uid": "42906290", "number": "46742", "bike_uids": ["488253", "488200", "490977", "490824", "490622", "490545", "490328", "490253", "490163", "490030", "490025", "491527", "491088"], "virtual": false}}, {"id": "ac565d884a1e1598a6d50aad15237fc8", "name": "MOAP-koupali\u0161t\u011b \u010capk\u00e1rna", "latitude": 49.844789, "longitude": 18.289307, "timestamp": "2025-05-03T03:15:38.407814+00:00Z", "free_bikes": 4, "empty_slots": null, "extra": {"uid": "13361894", "number": "45113", "bike_uids": ["487571", "490823", "490403", "490087"], "virtual": false}}, {"id": "ad0c3fe81a3a5676cbfe33e93cca85b1", "name": "STB-Potoky", "latitude": 49.761527, "longitude": 18.226557, "timestamp": "2025-05-03T03:15:38.446397+00:00Z", "free_bikes": 1, "empty_slots": null, "extra": {"uid": "41111439", "number": "46788", "bike_uids": ["487552"], "virtual": false}}, {"id": "ad150046c5e3c1e0b707642079c23985", "name": "SL-Gagarinovo n\u00e1m\u011bst\u00ed", "latitude": 49.839974, "longitude": 18.296655, "timestamp": "2025-05-03T03:15:38.408072+00:00Z", "free_bikes": 6, "empty_slots": null, "extra": {"uid": "13363326", "number": "45136", "bike_uids": ["490950", "490781", "490566", "490467", "491520", "491115"], "virtual": false}}, {"id": "ad61d520ba22589e1d3a8e8ecbfd3e67", "name": "JIH - Josefa Kotase", "latitude": 49.78338, "longitude": 18.25665, "timestamp": "2025-05-03T03:15:38.447478+00:00Z", "free_bikes": 1, "empty_slots": null, "extra": {"uid": "171037827", "number": "496015", "bike_uids": ["490720"], "virtual": false}}, {"id": "aebf3c3280b527f74366ac78da61f04c", "name": "MICH-Michalsk\u00e9 n\u00e1m\u011bst\u00ed", "latitude": 49.841937, "longitude": 18.345079, "timestamp": "2025-05-03T03:15:38.446519+00:00Z", "free_bikes": 0, "empty_slots": null, "extra": {"uid": "41111546", "number": "46780", "bike_uids": [], "virtual": false}}, {"id": "b01e6dfada723b26cd4931f062ed8bc0", "name": "PUS-radnice Pustkovec", "latitude": 49.841417, "longitude": 18.163, "timestamp": "2025-05-03T03:15:38.409107+00:00Z", "free_bikes": 1, "empty_slots": null, "extra": {"uid": "13387812", "number": "45238", "bike_uids": ["490380"], "virtual": false}}, {"id": "b07de28649c73051646bbf38addf8394", "name": "MOAP-D\u016fm vodohospod\u00e1\u0159\u016f", "latitude": 49.831389, "longitude": 18.265162, "timestamp": "2025-05-03T03:15:38.407995+00:00Z", "free_bikes": 0, "empty_slots": null, "extra": {"uid": "13362167", "number": "45127", "bike_uids": [], "virtual": false}}, {"id": "b19c62387f9e382675f22fe6ca224e2a", "name": "MOAP-sportovn\u00ed hala Sareza", "latitude": 49.851439, "longitude": 18.283739, "timestamp": "2025-05-03T03:15:38.407857+00:00Z", "free_bikes": 7, "empty_slots": null, "extra": {"uid": "13361945", "number": "45116", "bike_uids": ["487523", "490266", "490151", "490009", "490003", "491911", "491606"], "virtual": false}}, {"id": "b1a97f33d39f7af00d4c111d2834805a", "name": "MOAP - OC Koksovna", "latitude": 49.855217, "longitude": 18.275961, "timestamp": "2025-05-03T03:15:38.447405+00:00Z", "free_bikes": 7, "empty_slots": null, "extra": {"uid": "150512151", "number": "496010", "bike_uids": ["490748", "490713", "490692", "490523", "490426", "490196", "491061"], "virtual": false}}, {"id": "b24f737a13592e89793cb1512faeb8d5", "name": "SL-Lechova", "latitude": 49.834465, "longitude": 18.337402, "timestamp": "2025-05-03T03:15:38.446502+00:00Z", "free_bikes": 1, "empty_slots": null, "extra": {"uid": "41111538", "number": "46781", "bike_uids": ["490077"], "virtual": false}}, {"id": "b310c6f00d19952d2a96e9ebf7d55288", "name": "NV-U Bo\u0159\u00edka", "latitude": 49.822202, "longitude": 18.223286, "timestamp": "2025-05-03T03:15:38.445617+00:00Z", "free_bikes": 11, "empty_slots": null, "extra": {"uid": "27579706", "number": "45075", "bike_uids": ["490802", "490667", "490559", "490471", "490194", "490162", "491966", "491604", "491582", "491571", "491059"], "virtual": false}}, {"id": "b359fa89499745258f05203068075010", "name": "MAR-Stojanovo n\u00e1m\u011bst\u00ed", "latitude": 49.831474, "longitude": 18.255627, "timestamp": "2025-05-03T03:15:38.408682+00:00Z", "free_bikes": 1, "empty_slots": null, "extra": {"uid": "13366271", "number": "45196", "bike_uids": ["490751"], "virtual": false}}, {"id": "b4048d6da0bad4d3b978f9856f8dc3b2", "name": "VIT-DOV ET\u00c1\u017d", "latitude": 49.822057, "longitude": 18.278301, "timestamp": "2025-05-03T03:15:38.407870+00:00Z", "free_bikes": 0, "empty_slots": null, "extra": {"uid": "13361960", "number": "45117", "bike_uids": [], "virtual": false}}, {"id": "b545e60e18af9a97cd327dadf878c5d4", "name": "P-St\u0159edisko Pavlouskova", "latitude": 49.838462, "longitude": 18.162921, "timestamp": "2025-05-03T03:15:38.409252+00:00Z", "free_bikes": 1, "empty_slots": null, "extra": {"uid": "13388288", "number": "45031", "bike_uids": ["490743"], "virtual": false}}, {"id": "b568e4b36fb704acedc588d600b407d7", "name": "HOS-radnice Ho\u0161\u0165\u00e1lkovice", "latitude": 49.847132, "longitude": 18.214976, "timestamp": "2025-05-03T03:15:38.409146+00:00Z", "free_bikes": 0, "empty_slots": null, "extra": {"uid": "13387935", "number": "45241", "bike_uids": [], "virtual": false}}, {"id": "b5f1643fb1f83cc391bb9c7dd6f8e670", "name": "JIH-\u00damob Ostrava - Jih", "latitude": 49.79367, "longitude": 18.250865, "timestamp": "2025-05-03T03:15:38.409647+00:00Z", "free_bikes": 1, "empty_slots": null, "extra": {"uid": "13411002", "number": "45286", "bike_uids": ["490952"], "virtual": false}}, {"id": "b63e78894ccead5f30dcdc6f9f1a7c17", "name": "MAR-Fitpark", "latitude": 49.819396, "longitude": 18.263818, "timestamp": "2025-05-03T03:15:38.445972+00:00Z", "free_bikes": 1, "empty_slots": null, "extra": {"uid": "27604638", "number": "46259", "bike_uids": ["490164"], "virtual": false}}, {"id": "b69b6c2d6e0fb3c983841a047b1d2a2a", "name": "JIH-Klegova - Hru\u0161ka", "latitude": 49.7875, "longitude": 18.26528, "timestamp": "2025-05-03T03:15:38.446271+00:00Z", "free_bikes": 9, "empty_slots": null, "extra": {"uid": "36876021", "number": "46795", "bike_uids": ["487549", "488206", "490897", "490644", "490630", "490574", "490245", "490112", "491009"], "virtual": false}}, {"id": "b6b348f8d36d7bafbb88992e0540a9bb", "name": "JIH-IKEA", "latitude": 49.799194, "longitude": 18.227067, "timestamp": "2025-05-03T03:15:38.446234+00:00Z", "free_bikes": 3, "empty_slots": null, "extra": {"uid": "34572586", "number": "46797", "bike_uids": ["487831", "490775", "490524"], "virtual": false}}, {"id": "b73e6445d6c11a58ae1cf851f4fbd131", "name": "HOS-sportovn\u00ed are\u00e1l u Z\u0160", "latitude": 49.847373, "longitude": 18.211026, "timestamp": "2025-05-03T03:15:38.409885+00:00Z", "free_bikes": 0, "empty_slots": null, "extra": {"uid": "13411670", "number": "45308", "bike_uids": [], "virtual": false}}, {"id": "b77f9be073723e559969c3eb5d0d8cf9", "name": "MOAP-p\u011b\u0161\u00ed z\u00f3na 28. \u0159\u00edjna", "latitude": 49.83459, "longitude": 18.29094, "timestamp": "2025-05-03T03:15:38.408297+00:00Z", "free_bikes": 3, "empty_slots": null, "extra": {"uid": "13364192", "number": "45155", "bike_uids": ["490552", "491550", "491548"], "virtual": false}}, {"id": "b7afa96b8667c6d8f364078d485c3e78", "name": "P-Opavsk\u00e1", "latitude": 49.833621, "longitude": 18.173543, "timestamp": "2025-05-03T03:15:38.446822+00:00Z", "free_bikes": 4, "empty_slots": null, "extra": {"uid": "41208889", "number": "46759", "bike_uids": ["487574", "490189", "491975", "491536"], "virtual": false}}, {"id": "b969ab4daa2f07f35b6bbca899171043", "name": "MOAP-n\u00e1dra\u017e\u00ed Ostrava st\u0159ed", "latitude": 49.82943, "longitude": 18.28254, "timestamp": "2025-05-03T03:15:38.447251+00:00Z", "free_bikes": 13, "empty_slots": null, "extra": {"uid": "103880791", "number": "496001", "bike_uids": ["488210", "490981", "490609", "490446", "490386", "490265", "490191", "490168", "490043", "491910", "491156", "491047", "491046"], "virtual": false}}, {"id": "ba3a1755537f76c988377a92ed44a506", "name": "MOAP-Parkovi\u0161t\u011b P+R u tramvajov\u00e9 smy\u010dky Hlu\u010d\u00ednsk\u00e1", "latitude": 49.860516, "longitude": 18.265777, "timestamp": "2025-05-03T03:15:38.447162+00:00Z", "free_bikes": 8, "empty_slots": null, "extra": {"uid": "82374110", "number": "49596", "bike_uids": ["488232", "490477", "490375", "490175", "490045", "491601", "491505", "491042"], "virtual": false}}, {"id": "ba7fcd9d6a9d3306f964a78ee333d55c", "name": "MAR-parkovi\u0161t\u011b Ji\u0159\u00edho Trnky", "latitude": 49.836191, "longitude": 18.260529, "timestamp": "2025-05-03T03:15:38.408859+00:00Z", "free_bikes": 1, "empty_slots": null, "extra": {"uid": "13367618", "number": "45217", "bike_uids": ["490624"], "virtual": false}}, {"id": "bb9084acb28baca4027fb335303eab48", "name": "MAR-OA a VO\u0160 soci\u00e1ln\u00ed", "latitude": 49.829529, "longitude": 18.250106, "timestamp": "2025-05-03T03:15:38.408717+00:00Z", "free_bikes": 0, "empty_slots": null, "extra": {"uid": "13366317", "number": "45199", "bike_uids": [], "virtual": false}}, {"id": "bc74cbe0035410f060b5a4e18177296c", "name": "SL-Kelti\u010dkova, h\u0159i\u0161t\u011b", "latitude": 49.839535, "longitude": 18.302135, "timestamp": "2025-05-03T03:15:38.408484+00:00Z", "free_bikes": 4, "empty_slots": null, "extra": {"uid": "13364534", "number": "45173", "bike_uids": ["490975", "490604", "490221", "491960"], "virtual": false}}, {"id": "bc9227bf80e7e778d7a2568194e6d893", "name": "JIH-Z\u00e1b\u0159eh vod\u00e1rna", "latitude": 49.794466, "longitude": 18.232917, "timestamp": "2025-05-03T03:15:38.445475+00:00Z", "free_bikes": 2, "empty_slots": null, "extra": {"uid": "27579394", "number": "45059", "bike_uids": ["490476", "490091"], "virtual": false}}, {"id": "bd4b4d978d2ca1e63321ea6fddf614fe", "name": "NV-\u0160koln\u00ed statek", "latitude": 49.812502, "longitude": 18.227683, "timestamp": "2025-05-03T03:15:38.445677+00:00Z", "free_bikes": 5, "empty_slots": null, "extra": {"uid": "27579726", "number": "45078", "bike_uids": ["487558", "490399", "490272", "490239", "491576"], "virtual": false}}, {"id": "bdcbdd93799455bf9c2c7cc605c78577", "name": "HR-P\u0159\u00edborsk\u00e1", "latitude": 49.781117, "longitude": 18.275247, "timestamp": "2025-05-03T03:15:38.444629+00:00Z", "free_bikes": 0, "empty_slots": null, "extra": {"uid": "14403255", "number": "45328", "bike_uids": [], "virtual": false}}, {"id": "bed51a2b9aad4364e347779ce0a1fe34", "name": "JIH-U Hr\u016fbk\u016f *(nav\u00edc 15min na odjezd)", "latitude": 49.809537, "longitude": 18.229952, "timestamp": "2025-05-03T03:15:38.409624+00:00Z", "free_bikes": 6, "empty_slots": null, "extra": {"uid": "13410972", "number": "45283", "bike_uids": ["490682", "490641", "490569", "490277", "491083", "491072"], "virtual": false}}, {"id": "beea4662bfc203d37f8e333e3e1ba059", "name": "PET-Pet\u0159kovice n\u00e1m\u011bst\u00ed", "latitude": 49.875392, "longitude": 18.259231, "timestamp": "2025-05-03T03:15:38.446294+00:00Z", "free_bikes": 5, "empty_slots": null, "extra": {"uid": "41111358", "number": "46794", "bike_uids": ["490821", "490575", "490448", "490429", "491123"], "virtual": false}}, {"id": "bf2134b0f4841cea016fcced1d4ea6c1", "name": "HR-Tesco Hrabov\u00e1", "latitude": 49.773738, "longitude": 18.265141, "timestamp": "2025-05-03T03:15:38.445856+00:00Z", "free_bikes": 3, "empty_slots": null, "extra": {"uid": "27582554", "number": "46041", "bike_uids": ["490794", "490313", "491543"], "virtual": false}}, {"id": "bf346e243ddb3ed1314892caa8249756", "name": "PNO-d\u011btsk\u00e9 h\u0159i\u0161t\u011b, Janov\u00e1", "latitude": 49.803118, "longitude": 18.161794, "timestamp": "2025-05-03T03:15:38.446759+00:00Z", "free_bikes": 0, "empty_slots": null, "extra": {"uid": "41111744", "number": "46763", "bike_uids": [], "virtual": false}}, {"id": "c00b0e9281828e66894f98b189a4c033", "name": "MOAP-Trojhal\u00ed", "latitude": 49.828513, "longitude": 18.287504, "timestamp": "2025-05-03T03:15:38.407697+00:00Z", "free_bikes": 3, "empty_slots": null, "extra": {"uid": "13361525", "number": "45105", "bike_uids": ["490593", "490581", "490326"], "virtual": false}}, {"id": "c073f7f8b76b40a7e2014fce84ebf181", "name": "SL-Slezskoostravsk\u00fd hrad", "latitude": 49.830886, "longitude": 18.300911, "timestamp": "2025-05-03T03:15:38.407648+00:00Z", "free_bikes": 5, "empty_slots": null, "extra": {"uid": "13361473", "number": "45102", "bike_uids": ["490517", "490484", "491976", "491593", "491092"], "virtual": false}}, {"id": "c142bf087f3c4fe6bf64b1663423abdb", "name": "MTNV-Martinov - U H\u016fry", "latitude": 49.858876, "longitude": 18.169237, "timestamp": "2025-05-03T03:15:38.444770+00:00Z", "free_bikes": 0, "empty_slots": null, "extra": {"uid": "14403409", "number": "45340", "bike_uids": [], "virtual": false}}, {"id": "c15488ffa403dc8324aeac5bcdd901ed", "name": "MOAP-Tieto towers", "latitude": 49.830771, "longitude": 18.278529, "timestamp": "2025-05-03T03:15:38.408004+00:00Z", "free_bikes": 0, "empty_slots": null, "extra": {"uid": "13362189", "number": "45129", "bike_uids": [], "virtual": false}}, {"id": "c16594b2a7b41c8bec6d6d571a32c5f1", "name": "JIH - Bohum\u00edra Dvorsk\u00e9ho", "latitude": 49.780964, "longitude": 18.248573, "timestamp": "2025-05-03T03:15:38.447799+00:00Z", "free_bikes": 5, "empty_slots": null, "extra": {"uid": "196736653", "number": "496029", "bike_uids": ["487617", "490862", "490723", "491105", "491087"], "virtual": false}}, {"id": "c179ac5b2ce5f9140e9f8efad5f4813b", "name": "MOAP-Partyz\u00e1nsk\u00e9 n\u00e1m\u011bst\u00ed", "latitude": 49.846717, "longitude": 18.285678, "timestamp": "2025-05-03T03:15:38.407928+00:00Z", "free_bikes": 9, "empty_slots": null, "extra": {"uid": "13362033", "number": "45122", "bike_uids": ["490886", "490715", "490482", "490311", "490309", "490273", "490195", "490137", "490113"], "virtual": false}}, {"id": "c201d35b675ba384037b9a00d56c9f35", "name": "P-Sj\u00edzdn\u00e1 x Opavsk\u00e1 (+15 minut na odjezd)", "latitude": 49.826756, "longitude": 18.197824, "timestamp": "2025-05-03T03:15:38.445754+00:00Z", "free_bikes": 13, "empty_slots": null, "extra": {"uid": "27579914", "number": "45092", "bike_uids": ["490913", "490858", "490557", "490553", "490540", "490456", "490350", "490316", "490010", "491567", "491532", "491141", "491140"], "virtual": false}}, {"id": "c25ccbb404074b70b35b479ceb4e4ccd", "name": "JIH-n\u00e1m\u011bst\u00ed Horn\u00ed - Ostrava Jih", "latitude": 49.787069, "longitude": 18.25704, "timestamp": "2025-05-03T03:15:38.445792+00:00Z", "free_bikes": 0, "empty_slots": null, "extra": {"uid": "27579943", "number": "45096", "bike_uids": [], "virtual": false}}, {"id": "c33d9d0295af4bee34330438d0003a06", "name": "JIH - Volgogradsk\u00e1 (Hru\u0161ka)", "latitude": 49.787648, "longitude": 18.222557, "timestamp": "2025-05-03T03:15:38.447707+00:00Z", "free_bikes": 1, "empty_slots": null, "extra": {"uid": "180715445", "number": "496023", "bike_uids": ["488280"], "virtual": false}}, {"id": "c3937c5c6b711dded96c00a2a993dc61", "name": "P-MSIC - Piano", "latitude": 49.837865, "longitude": 18.154809, "timestamp": "2025-05-03T03:15:38.409451+00:00Z", "free_bikes": 0, "empty_slots": null, "extra": {"uid": "13410769", "number": "45267", "bike_uids": [], "virtual": false}}, {"id": "c4190187acefe94e633899ac33fd016d", "name": "P-Nikod\u00e9ma - Jeremi\u00e1\u0161e", "latitude": 49.842628, "longitude": 18.157565, "timestamp": "2025-05-03T03:15:38.409001+00:00Z", "free_bikes": 0, "empty_slots": null, "extra": {"uid": "13385611", "number": "45228", "bike_uids": [], "virtual": false}}, {"id": "c47d18eccb91b582a9b92dae08ae7b0a", "name": "PET-Landek", "latitude": 49.866755, "longitude": 18.264121, "timestamp": "2025-05-03T03:15:38.407800+00:00Z", "free_bikes": 15, "empty_slots": null, "extra": {"uid": "13361881", "number": "45112", "bike_uids": ["487634", "487541", "490990", "490925", "490812", "490791", "490771", "490573", "490465", "490361", "490353", "490211", "491644", "491509", "491010"], "virtual": false}}, {"id": "c4a2bb987adc210183e509d4f117f687", "name": "NV-Na L\u00e1nech", "latitude": 49.827388, "longitude": 18.22706, "timestamp": "2025-05-03T03:15:38.445658+00:00Z", "free_bikes": 1, "empty_slots": null, "extra": {"uid": "27579719", "number": "45077", "bike_uids": ["490320"], "virtual": false}}, {"id": "c4bb48e27e4dc3b4b63c8c2fd202c00e", "name": "MOAP-Tyr\u0161ova", "latitude": 49.835981, "longitude": 18.287345, "timestamp": "2025-05-03T03:15:38.407741+00:00Z", "free_bikes": 8, "empty_slots": null, "extra": {"uid": "13361767", "number": "45108", "bike_uids": ["490969", "490943", "490800", "490594", "490525", "490342", "491521", "491011"], "virtual": false}},