{"id": "nextbike-novy-jicin", "name": "nextbike Nov\u00fd Ji\u010d\u00edn", "location": {"latitude": 49.5976, "longitude": 18.008, "city": "Nov\u00fd Ji\u010d\u00edn", "country": "CZ"}, "href": "/v2/networks/nextbike-novy-jicin", "company": ["Nextbike GmbH"], "stations": [{"id": "03cfcabd2840f1cc0983559c30603775", "name": "Skalky", "latitude": 49.57902, "longitude": 18.00845, "timestamp": "2024-06-20T20:41:36.269Z", "free_bikes": 0, "empty_slots": null, "extra": {"uid": "386157588", "bike_uids": [""], "number": "45977"}}, {"id": "06983bbf48bbc6a1f6717c53c1f9ecd1", "name": "Vlakov\u00e9 n\u00e1dra\u017e\u00ed Nov\u00fd Ji\u010d\u00edn", "latitude": 49.59872, "longitude": 18.0087, "timestamp": "2024-06-20T20:41:36.194Z", "free_bikes": 2, "empty_slots": null, "extra": {"uid": "386136364", "bike_uids": ["488816", "488756"], "number": "45964"}}, {"id": "0ca2bf655e9d7eed45c26a699b87d89f", "name": "Lou\u010dka, Na Lani", "latitude": 49.59154, "longitude": 17.98771, "timestamp": "2024-06-20T20:41:36.316Z", "free_bikes": 4, "empty_slots": null, "extra": {"uid": "386160395", "bike_uids": ["488819", "488795", "488778", "488754"], "number": "45987"}}, {"id": "22df41fb800697b39775ab3892af89d4", "name": "Lamberk, Prach\u00e1rna", "latitude": 49.59733, "longitude": 18.02575, "timestamp": "2024-06-20T20:41:36.249Z", "free_bikes": 1, "empty_slots": null, "extra": {"uid": "386155148", "bike_uids": ["488779"], "number": "45972"}}, {"id": "286ea2a8b7dfed8e78ffa8d03e34ebdb", "name": "Suvorovova, potraviny", "latitude": 49.60147, "longitude": 18.01278, "timestamp": "2024-06-20T20:41:36.310Z", "free_bikes": 8, "empty_slots": null, "extra": {"uid": "386160125", "bike_uids": ["488890", "488833", "488820", "488813", "488793", "488774", "488771", "488759"], "number": "45986"}}, {"id": "2abdc126f8f5f0d50f0653268ff01a84", "name": "Kaufland, B. Martin\u016f", "latitude": 49.58627, "longitude": 18.00185, "timestamp": "2024-06-20T20:41:36.364Z", "free_bikes": 8, "empty_slots": null, "extra": {"uid": "398732520", "bike_uids": ["488817", "488814", "488799", "488783", "488765", "488755", "488752", "488750"], "number": "45979"}}, {"id": "3168fbea727a6e91feaf3d8edd712236", "name": "Lou\u010dka, Za Korunou", "latitude": 49.58837, "longitude": 17.98393, "timestamp": "2024-06-20T20:41:36.222Z", "free_bikes": 2, "empty_slots": null, "extra": {"uid": "386153473", "bike_uids": ["488787", "488757"], "number": "45968"}}, {"id": "3a580523a7c9bae42c90c0928fa79030", "name": "Sv. \u010cecha, OSSZ", "latitude": 49.60109, "longitude": 18.01792, "timestamp": "2024-06-20T20:41:36.282Z", "free_bikes": 2, "empty_slots": null, "extra": {"uid": "386159098", "bike_uids": ["488854", "488794"], "number": "45983"}}, {"id": "4b95336da22b24efb3dde1bb5d230750", "name": "Gen. Hla\u010fo", "latitude": 49.59385, "longitude": 18.0124, "timestamp": "2024-06-20T20:41:36.256Z", "free_bikes": 4, "empty_slots": null, "extra": {"uid": "386157101", "bike_uids": ["488818", "488815", "488777", "488768"], "number": "45975"}}, {"id": "561e19704c6ddb48678732ca94d12bed", "name": "Masarykovo n\u00e1m\u011bst\u00ed ", "latitude": 49.59465, "longitude": 18.0101, "timestamp": "2024-06-20T20:41:36.162Z", "free_bikes": 1, "empty_slots": null, "extra": {"uid": "386136172", "bike_uids": ["488767"], "number": "45963"}}, {"id": "569db6df84bb60647f88b5ad87cf2513", "name": "Baz\u00e9n Nov\u00fd Ji\u010d\u00edn", "latitude": 49.59824, "longitude": 18.01241, "timestamp": "2024-06-20T20:41:36.200Z", "free_bikes": 0, "empty_slots": null, "extra": {"uid": "386152262", "bike_uids": [""], "number": "45965"}}, {"id": "590b57ce0da5e4bf40a93991d6b1f67d", "name": "Sportovn\u00ed, Hru\u0161ka", "latitude": 49.59288, "longitude": 17.99752, "timestamp": "2024-06-20T20:41:36.320Z", "free_bikes": 4, "empty_slots": null, "extra": {"uid": "386160571", "bike_uids": ["488811", "488801", "488800", "488780"], "number": "45988"}}, {"id": "5e6936579adbcecb0020a196bd7c7e85", "name": "Rybn\u00ed\u010dky, u cyklostezky", "latitude": 49.58837, "longitude": 18.02193, "timestamp": "2024-06-20T20:41:36.323Z", "free_bikes": 5, "empty_slots": null, "extra": {"uid": "386160693", "bike_uids": ["488796", "488788", "488772", "488763", "488761"], "number": "45989"}}, {"id": "656b43827b4c4a0f84a6cee511243daa", "name": "H\u0159bitovn\u00ed, b\u00fdval\u00e1 to\u010dna MHD", "latitude": 49.60371, "longitude": 18.03244, "timestamp": "2024-06-20T20:41:36.347Z", "free_bikes": 0, "empty_slots": null, "extra": {"uid": "386162878", "bike_uids": [""], "number": "45991"}}, {"id": "6712c142086e386bb1e15795b749114a", "name": "M\u011bstsk\u00fd \u00fa\u0159ad, Divadeln\u00ed", "latitude": 49.59317, "longitude": 18.00878, "timestamp": "2024-06-20T20:41:36.276Z", "free_bikes": 2, "empty_slots": null, "extra": {"uid": "386157852", "bike_uids": ["488822", "488797"], "number": "45978"}}, {"id": "774263b93bf9a4de3b769f0e4181f062", "name": "Nerudova - do\u010dasn\u00e9 um\u00edst\u011bn\u00ed", "latitude": 49.59119, "longitude": 18.01357, "timestamp": "2024-06-20T20:41:36.352Z", "free_bikes": 4, "empty_slots": null, "extra": {"uid": "386163145", "bike_uids": ["488790", "488786", "488782", "488760"], "number": "45992"}}, {"id": "86f403377ea0774d7f3f6008cecc9ba6", "name": "B. Martin\u016f, Educa", "latitude": 49.5893, "longitude": 17.99844, "timestamp": "2024-06-20T20:41:36.388Z", "free_bikes": 0, "empty_slots": null, "extra": {"uid": "400499607", "bike_uids": [""], "number": "45994"}}, {"id": "8d376cbd98e912962c11aa2afd726f53", "name": "Bludovice - Fojtstv\u00ed", "latitude": 49.57362, "longitude": 18.02108, "timestamp": "2024-06-20T20:41:36.289Z", "free_bikes": 0, "empty_slots": null, "extra": {"uid": "386159724", "bike_uids": [""], "number": "45984"}}, {"id": "8e10b73cef2c3d78b364b9649577ca72", "name": "Bezru\u010dova, parkovi\u0161t\u011b", "latitude": 49.59528, "longitude": 18.01684, "timestamp": "2024-06-20T20:41:36.224Z", "free_bikes": 4, "empty_slots": null, "extra": {"uid": "386153841", "bike_uids": ["488792", "488785", "488753", "488751"], "number": "45970"}}, {"id": "8e5d34bbcea6fcbe4a08a1c350cf9c0e", "name": "H\u0159bitovn\u00ed", "latitude": 49.59989, "longitude": 18.02171, "timestamp": "2024-06-20T20:41:36.253Z", "free_bikes": 0, "empty_slots": null, "extra": {"uid": "386156665", "bike_uids": [""], "number": "45974"}}, {"id": "9587359f867e4d6dcab3a7053f7836c3", "name": "\u017dilina - U Hru\u0161ky", "latitude": 49.58746, "longitude": 18.02962, "timestamp": "2024-06-20T20:41:36.304Z", "free_bikes": 1, "empty_slots": null, "extra": {"uid": "386159945", "bike_uids": ["488807"], "number": "45985"}}, {"id": "9ab00b9ca6b42826c3f683f3d3e0587b", "name": "Lou\u010dka, Orlovna", "latitude": 49.58444, "longitude": 17.98391, "timestamp": "2024-06-20T20:41:36.384Z", "free_bikes": 0, "empty_slots": null, "extra": {"uid": "400499389", "bike_uids": [""], "number": "45993"}}, {"id": "a616176bd79e6c246734cf3c5f90c4b9", "name": "OC Taba\u010dka", "latitude": 49.59982, "longitude": 18.01142, "timestamp": "2024-06-20T20:41:36.277Z", "free_bikes": 0, "empty_slots": null, "extra": {"uid": "386158803", "bike_uids": [""], "number": "45980"}}, {"id": "a743fca6d34e8fca0d2b28384feebf81", "name": "Zimn\u00ed stadion Nov\u00fd Ji\u010d\u00edn", "latitude": 49.590144, "longitude": 18.001644, "timestamp": "2024-06-20T20:41:36.212Z", "free_bikes": 0, "empty_slots": null, "extra": {"uid": "386152571", "bike_uids": [""], "number": "45966"}}, {"id": "a81f5556df41a9f76af6867341054f15", "name": "Smetanovy sady, u Fokusu", "latitude": 49.5903, "longitude": 18.0097, "timestamp": "2024-06-20T20:41:36.344Z", "free_bikes": 0, "empty_slots": null, "extra": {"uid": "386162555", "bike_uids": [""], "number": "45990"}}, {"id": "c4ab87b7b0882e70798758d67453c0bb", "name": "\u0160tef\u00e1nikova/Doln\u00ed br\u00e1na", "latitude": 49.59662, "longitude": 18.00891, "timestamp": "2024-06-20T20:41:36.372Z", "free_bikes": 10, "empty_slots": null, "extra": {"uid": "398732989", "bike_uids": ["488898", "488863", "488824", "488821", "488808", "488806", "488789", "488776", "488770", "488769"], "number": "45981"}}, {"id": "d1a103ca55fd71971db95759253b3078", "name": "Smetanovy sady, letn\u00ed kino", "latitude": 49.58727, "longitude": 18.00839, "timestamp": "2024-06-20T20:41:36.221Z", "free_bikes": 1, "empty_slots": null, "extra": {"uid": "386153295", "bike_uids": ["488850"], "number": "45967"}}, {"id": "d4414bdc05ae0d8c6dabb19c92494bf6", "name": "Palack\u00e9ho, park", "latitude": 49.59329, "longitude": 18.00246, "timestamp": "2024-06-20T20:41:36.244Z", "free_bikes": 0, "empty_slots": null, "extra": {"uid": "386154160", "bike_uids": [""], "number": "45971"}}, {"id": "eb0035b4cf3d41e530b416855f2cb72b", "name": "\u010cer\u0165\u00e1k", "latitude": 49.56771, "longitude": 17.9997, "timestamp": "2024-06-20T20:41:36.260Z", "free_bikes": 0, "empty_slots": null, "extra": {"uid": "386157400", "bike_uids": [""], "number": "45976"}}, {"id": "f4e9dfefe48585cd7dd807ca00244b9d", "name": "M\u00e1j, Hru\u0161ka", "latitude": 49.59718, "longitude": 18.00321, "timestamp": "2024-06-20T20:41:36.283Z", "free_bikes": 2, "empty_slots": null, "extra": {"uid": "386159525", "bike_uids": ["488802", "488791"], "number": "45982"}}, {"id": "f6447dbc063cf9decffef31e9bdbc367", "name": "Dvo\u0159\u00e1kova, U Med\u016fzy", "latitude": 49.59353, "longitude": 18.01788, "timestamp": "2024-06-20T20:41:36.249Z", "free_bikes": 1, "empty_slots": null, "extra": {"uid": "386155975", "bike_uids": ["488764"], "number": "45973"}}, {"id": "fb5ec058eaa544a78e6507f0c55b8bcd", "name": "Jubilejn\u00ed, Z\u0160", "latitude": 49.59551, "longitude": 17.99983, "timestamp": "2024-06-20T20:41:36.223Z", "free_bikes": 4, "empty_slots": null, "extra": {"uid": "386153632", "bike_uids": ["488804", "488775", "488766", "488762"], "number": "45969"}}]}