{"id": "nextbike-sursee", "name": "Nextbike", "location": {"latitude": 47.1713, "longitude": 8.10877, "city": "Sursee", "country": "CH"}, "href": "/v2/networks/nextbike-sursee", "company": ["Nextbike GmbH"], "system": "Nextbike", "stations": [{"id": "031814803ee2361c229291a31bdefbc2", "name": "Oberkirch / Haselmatte 2C", "latitude": 47.16956, "longitude": 8.095969, "timestamp": "2025-05-03T03:15:32.522247+00:00Z", "free_bikes": 2, "empty_slots": null, "extra": {"uid": "348305", "number": "9008", "bike_uids": ["400239", "401131"], "virtual": false}}, {"id": "082e0ce4364eed1913baf658ee7150c7", "name": "Schulhaus Georgette", "latitude": 47.173502, "longitude": 8.10452, "timestamp": "2025-05-03T03:15:32.522514+00:00Z", "free_bikes": 0, "empty_slots": null, "extra": {"uid": "41964925", "number": "9017", "bike_uids": [], "virtual": false}}, {"id": "16e08f97488ffbbdd700c300c91a7820", "name": "Kantonsspital", "latitude": 47.168696, "longitude": 8.11807, "timestamp": "2025-05-03T03:15:32.522288+00:00Z", "free_bikes": 5, "empty_slots": null, "extra": {"uid": "6201611", "number": "9012", "bike_uids": ["42559", "400480", "400281", "401327", "401148"], "virtual": false}}, {"id": "283d58ac1e1e15ea1a55c50025f1aad7", "name": "LEHNER VERSAND /Zellgut 8", "latitude": 47.177794, "longitude": 8.123767, "timestamp": "2025-05-03T03:15:32.522621+00:00Z", "free_bikes": 3, "empty_slots": null, "extra": {"uid": "422146356", "number": "80228", "bike_uids": ["400195", "400183", "400410"], "virtual": false}}, {"id": "2a0412fa9c3b5a50d59e6ed85562b56f", "name": "Mauensee / Einfahrt Sonnenrain", "latitude": 47.184014, "longitude": 8.057989, "timestamp": "2025-05-03T03:15:32.522485+00:00Z", "free_bikes": 3, "empty_slots": null, "extra": {"uid": "41957713", "number": "9044", "bike_uids": ["42556", "400514", "401299"], "virtual": false}}, {"id": "33b62b024855d4b07a9983aad92959bd", "name": "Schulhaus St. Martin / St. Martinsweg", "latitude": 47.174297, "longitude": 8.113575, "timestamp": "2025-05-03T03:15:32.522449+00:00Z", "free_bikes": 4, "empty_slots": null, "extra": {"uid": "32816620", "number": "9014", "bike_uids": ["400199", "400111", "401558", "401494"], "virtual": false}}, {"id": "3820de76e7e6698e17f489844ce0002e", "name": "Geuensee / Altes Schulhaus", "latitude": 47.197659, "longitude": 8.108532, "timestamp": "2025-05-03T03:15:32.522345+00:00Z", "free_bikes": 3, "empty_slots": null, "extra": {"uid": "17927811", "number": "9033", "bike_uids": ["400116", "400244", "400559"], "virtual": false}}, {"id": "3b300ad6c2c818c57bc0df5ce40a906c", "name": "Metro / Moosgasse 1", "latitude": 47.175712, "longitude": 8.108355, "timestamp": "2025-05-03T03:15:32.522263+00:00Z", "free_bikes": 0, "empty_slots": null, "extra": {"uid": "355154", "number": "9010", "bike_uids": [], "virtual": false}}, {"id": "3b7560a10d8569a87633192cbaad85b6", "name": "Schenkon / Zellfeld", "latitude": 47.178399, "longitude": 8.128746, "timestamp": "2025-05-03T03:15:32.522307+00:00Z", "free_bikes": 2, "empty_slots": null, "extra": {"uid": "17927463", "number": "9030", "bike_uids": ["400249", "401509"], "virtual": false}}, {"id": "3e7f27c4e2bedefea423d1f7c5986c2c", "name": "AWB Br\u00e4ndi / M\u00fcnsterstrasse 20", "latitude": 47.173323, "longitude": 8.115785, "timestamp": "2025-05-03T03:15:32.522436+00:00Z", "free_bikes": 3, "empty_slots": null, "extra": {"uid": "28448844", "number": "9013", "bike_uids": ["400161", "401581", "401352"], "virtual": false}}, {"id": "4a2456c61cf7fcd4eb765548c03cbce1", "name": "Oberkirch / CALIDA", "latitude": 47.162929, "longitude": 8.106306, "timestamp": "2025-05-03T03:15:32.522523+00:00Z", "free_bikes": 8, "empty_slots": null, "extra": {"uid": "44749977", "number": "9019", "bike_uids": ["400117", "400076", "400063", "400458", "400317", "401274", "401136", "401042"], "virtual": false}}, {"id": "4dd9e7de0a7e1a93b5a761734c804a8b", "name": "Mauensee / Holzacherstrasse", "latitude": 47.170092, "longitude": 8.091103, "timestamp": "2025-05-03T03:15:32.522422+00:00Z", "free_bikes": 3, "empty_slots": null, "extra": {"uid": "18046938", "number": "9042", "bike_uids": ["42550", "400573", "401188"], "virtual": false}}, {"id": "5142111264d9232e69e77fac04d54dab", "name": "Oberkirch / Dorf", "latitude": 47.15551, "longitude": 8.115388, "timestamp": "2025-05-03T03:15:32.522410+00:00Z", "free_bikes": 3, "empty_slots": null, "extra": {"uid": "18046850", "number": "9041", "bike_uids": ["400245", "401159", "401013"], "virtual": false}}, {"id": "51f8ba0b1dd9f03956ad44e61d7d75b3", "name": "M\u00fcnsterplatz", "latitude": 47.171585, "longitude": 8.111415, "timestamp": "2025-05-03T03:15:32.522177+00:00Z", "free_bikes": 5, "empty_slots": null, "extra": {"uid": "286236", "number": "9004", "bike_uids": ["400071", "400055", "400231", "401330", "401096"], "virtual": false}}, {"id": "5e151177c79a0ce97822fc64a3228061", "name": "Sandgruebestrasse", "latitude": 47.177706, "longitude": 8.110657, "timestamp": "2025-05-03T03:15:32.522276+00:00Z", "free_bikes": 0, "empty_slots": null, "extra": {"uid": "3025174", "number": "9011", "bike_uids": [], "virtual": false}}, {"id": "61a0cf54fe47f2ee6935d01095b2ce2b", "name": "Stadtverwaltung", "latitude": 47.171659, "longitude": 8.106709, "timestamp": "2025-05-03T03:15:32.522154+00:00Z", "free_bikes": 2, "empty_slots": null, "extra": {"uid": "286235", "number": "9003", "bike_uids": ["400589", "401460"], "virtual": false}}, {"id": "628dd7f7c19efce5b1012140210c0977", "name": "Mariazell", "latitude": 47.173861, "longitude": 8.121092, "timestamp": "2025-05-03T03:15:32.522231+00:00Z", "free_bikes": 2, "empty_slots": null, "extra": {"uid": "348292", "number": "9007", "bike_uids": ["400113", "400101"], "virtual": false}}, {"id": "65c9069112c0c7bf5a92372382b4a0a9", "name": "Sappeurstrasse / Werkhof", "latitude": 47.179661, "longitude": 8.107583, "timestamp": "2025-05-03T03:15:32.522500+00:00Z", "free_bikes": 3, "empty_slots": null, "extra": {"uid": "41964837", "number": "9016", "bike_uids": ["400196", "400181", "400366"], "virtual": false}}, {"id": "6f73e558a207d2cb9c4e862c677918e0", "name": "Mauensee / Camping Sursee, Waldheim", "latitude": 47.175081, "longitude": 8.087102, "timestamp": "2025-05-03T03:15:32.522536+00:00Z", "free_bikes": 3, "empty_slots": null, "extra": {"uid": "44857703", "number": "9045", "bike_uids": ["400125", "400588", "401470"], "virtual": false}}, {"id": "903f7aa789174e011d56f89cea395ffe", "name": "Oberkirch / Schulhaus Zentrum", "latitude": 47.158319, "longitude": 8.114535, "timestamp": "2025-05-03T03:15:32.522561+00:00Z", "free_bikes": 4, "empty_slots": null, "extra": {"uid": "61142544", "number": "9061", "bike_uids": ["400119", "400066", "401599", "401167"], "virtual": false}}, {"id": "ae8de041b63bbc155e1b75f19b65ddde", "name": "Granol / Zeughausstrasse", "latitude": 47.178735, "longitude": 8.106558, "timestamp": "2025-05-03T03:15:32.522612+00:00Z", "free_bikes": 0, "empty_slots": null, "extra": {"uid": "175016292", "number": "80203", "bike_uids": [], "virtual": false}}, {"id": "b2f0329238670217b77f048c8c8cb553", "name": "Pfarreizentrum / St.-Urban-Strasse", "latitude": 47.173801, "longitude": 8.107588, "timestamp": "2025-05-03T03:15:32.522549+00:00Z", "free_bikes": 5, "empty_slots": null, "extra": {"uid": "46008714", "number": "9046", "bike_uids": ["400118", "400062", "401368", "401292", "401180"], "virtual": false}}, {"id": "b3200d2a5e3f1b88e93548e9364e446a", "name": "Alterszentrum St. Martin", "latitude": 47.173874, "longitude": 8.11218, "timestamp": "2025-05-03T03:15:32.522574+00:00Z", "free_bikes": 3, "empty_slots": null, "extra": {"uid": "136065517", "number": "80200", "bike_uids": ["400054", "400434", "401427"], "virtual": false}}, {"id": "b97b933f67fb504e1ad5b6fc97ea5e55", "name": "Mauensee / Schulhaus", "latitude": 47.166434, "longitude": 8.073578, "timestamp": "2025-05-03T03:15:32.522475+00:00Z", "free_bikes": 0, "empty_slots": null, "extra": {"uid": "41957628", "number": "9043", "bike_uids": [], "virtual": false}}, {"id": "be2c813c1655d9382894f42031fce281", "name": "Schenkon / Restaurant OX'n", "latitude": 47.172036, "longitude": 8.138815, "timestamp": "2025-05-03T03:15:32.522332+00:00Z", "free_bikes": 3, "empty_slots": null, "extra": {"uid": "17927738", "number": "9032", "bike_uids": ["400098", "400089", "400078"], "virtual": false}}, {"id": "be84f561dfd18f88f58e7b8f75aacd11", "name": "Kost + Partner/ Industriestrasse 14", "latitude": 47.174574, "longitude": 8.097095, "timestamp": "2025-05-03T03:15:32.522635+00:00Z", "free_bikes": 4, "empty_slots": null, "extra": {"uid": "519507576", "number": "80227", "bike_uids": ["400154", "400077", "400227", "401106"], "virtual": false}}, {"id": "d0ae55fcc4c7d8755966991d4fd5a765", "name": "Schenkon / Gemeindehaus", "latitude": 47.177123, "longitude": 8.132501, "timestamp": "2025-05-03T03:15:32.522320+00:00Z", "free_bikes": 6, "empty_slots": null, "extra": {"uid": "17927565", "number": "9031", "bike_uids": ["400200", "400097", "400086", "401591", "401217", "401043"], "virtual": false}}, {"id": "d2fb72379d76b96f9a2e9b50c8eda602", "name": "Schulhaus Kotten / Kottenmatte 2", "latitude": 47.172703, "longitude": 8.094649, "timestamp": "2025-05-03T03:15:32.522214+00:00Z", "free_bikes": 5, "empty_slots": null, "extra": {"uid": "286240", "number": "9006", "bike_uids": ["400133", "400072", "401541", "401414", "401119"], "virtual": false}}, {"id": "db63ae70123cb8104933186e683ac182", "name": "Bahnhof Sursee / Bahnhofplatz", "latitude": 47.169753, "longitude": 8.099563, "timestamp": "2025-05-03T03:15:32.522111+00:00Z", "free_bikes": 2, "empty_slots": null, "extra": {"uid": "286234", "number": "9002", "bike_uids": ["400103", "401498"], "virtual": false}}, {"id": "deeab3b5e8c547537f216a432d6631c7", "name": "Schenkon / Lumen Park", "latitude": 47.183435, "longitude": 8.110984, "timestamp": "2025-05-03T03:15:32.522599+00:00Z", "free_bikes": 2, "empty_slots": null, "extra": {"uid": "167324018", "number": "80202", "bike_uids": ["400061", "400591"], "virtual": false}}, {"id": "e5374fad8ece9875e5f5b53263e9b0c3", "name": "Arena Sursee / Wassergrabe 5", "latitude": 47.184062, "longitude": 8.109155, "timestamp": "2025-05-03T03:15:32.522587+00:00Z", "free_bikes": 1, "empty_slots": null, "extra": {"uid": "165356236", "number": "80201", "bike_uids": ["401254"], "virtual": false}}, {"id": "f1d38a9efef7f6d8572d63fc9478889d", "name": "Oberkirch / Restaurant goldener Wagen", "latitude": 47.160672, "longitude": 8.115329, "timestamp": "2025-05-03T03:15:32.522384+00:00Z", "free_bikes": 5, "empty_slots": null, "extra": {"uid": "17928411", "number": "9039", "bike_uids": ["42554", "400541", "401358", "401152", "401041"], "virtual": false}}, {"id": "f45b794218b1b24d60c4a5a054fa8ad5", "name": "Oberkirch / Campus Sursee", "latitude": 47.162663, "longitude": 8.091543, "timestamp": "2025-05-03T03:15:32.522397+00:00Z", "free_bikes": 6, "empty_slots": null, "extra": {"uid": "17928490", "number": "9040", "bike_uids": ["400212", "400437", "401492", "401263", "401246", "401179"], "virtual": false}}, {"id": "f6646d0935689461c35a161aa724a759", "name": "Schulhaus Neufeld 1 / Badstrasse 19", "latitude": 47.168878, "longitude": 8.107792, "timestamp": "2025-05-03T03:15:32.522461+00:00Z", "free_bikes": 6, "empty_slots": null, "extra": {"uid": "32816739", "number": "9015", "bike_uids": ["400137", "400112", "400064", "400321", "400267", "401121"], "virtual": false}}, {"id": "fd7e90faf50ef9cccae0753eeb970443", "name": "Geuensee / Weinerei Sch\u00e4racher 5", "latitude": 47.192439, "longitude": 8.111306, "timestamp": "2025-05-03T03:15:32.522357+00:00Z", "free_bikes": 3, "empty_slots": null, "extra": {"uid": "17927892", "number": "9034", "bike_uids": ["400102", "400253", "401505"], "virtual": false}}, {"id": "fde93152bd192a7ca2cb0d2f0e056d9f", "name": "M\u00e4rtplatz", "latitude": 47.17295, "longitude": 8.110643, "timestamp": "2025-05-03T03:15:32.522196+00:00Z", "free_bikes": 6, "empty_slots": null, "extra": {"uid": "286239", "number": "9005", "bike_uids": ["400175", "401208", "401202", "401133", "401034", "401022"], "virtual": false}}, {"id": "ff5dbc69b4845e0ed93c2987aff291de", "name": "Geuensee / Gasthaus St. Niklaus", "latitude": 47.199503, "longitude": 8.107594, "timestamp": "2025-05-03T03:15:32.522370+00:00Z", "free_bikes": 7, "empty_slots": null, "extra": {"uid": "17928039", "number": "9035", "bike_uids": ["400184", "400429", "401523", "401455", "401387", "401270", "401265"], "virtual": false}}]}