{"id": "nextbike-sarajevo", "name": "Nextbike", "location": {"latitude": 43.85, "longitude": 18.39, "city": "Sarajevo", "country": "BA"}, "href": "/v2/networks/nextbike-sarajevo", "company": ["Nextbike GmbH"], "system": "Nextbike", "stations": [{"id": "02421596144cf2d142cb1fb7ada259b2", "name": "Centar Safet Zajko", "latitude": 43.847317, "longitude": 18.336997, "timestamp": "2025-05-03T03:15:35.582848+00:00Z", "free_bikes": 2, "empty_slots": null, "extra": {"uid": "956961", "number": "2399", "bike_uids": ["88087", "89960"], "virtual": false}}, {"id": "029591c6235ef426f1d67fad311023b2", "name": "Veterinarski fakultet", "latitude": 43.85197, "longitude": 18.37947, "timestamp": "2025-05-03T03:15:35.583208+00:00Z", "free_bikes": 2, "empty_slots": null, "extra": {"uid": "223729610", "number": "2400", "bike_uids": ["89956", "89942"], "virtual": false}}, {"id": "0a27da749de2f3168d00661dc72afbb1", "name": "Ciglane", "latitude": 43.86641, "longitude": 18.409628, "timestamp": "2025-05-03T03:15:35.582968+00:00Z", "free_bikes": 7, "empty_slots": null, "extra": {"uid": "3549346", "number": "2460", "bike_uids": ["80606", "85192", "85187", "85158", "89964", "89950", "89949"], "virtual": false}}, {"id": "426edb134f69d881fd4dd77cc15837ec", "name": "Vogosca-Nova industrijska zona", "latitude": 43.896925, "longitude": 18.360865, "timestamp": "2025-05-03T03:15:35.583145+00:00Z", "free_bikes": 1, "empty_slots": null, "extra": {"uid": "38121149", "number": "2478", "bike_uids": ["85167"], "virtual": false}}, {"id": "50316e6fa5339e56132fc5bf848c0a6f", "name": "Trg Oslobo\u0111enja", "latitude": 43.858248, "longitude": 18.423963, "timestamp": "2025-05-03T03:15:35.582933+00:00Z", "free_bikes": 3, "empty_slots": null, "extra": {"uid": "2610324", "number": "2403", "bike_uids": ["80587", "88091", "85173"], "virtual": false}}, {"id": "522395d378343cf79081d4c122f7b5bd", "name": "Zmaja od Bosne", "latitude": 43.852928, "longitude": 18.388238, "timestamp": "2025-05-03T03:15:35.582787+00:00Z", "free_bikes": 8, "empty_slots": null, "extra": {"uid": "956926", "number": "2397", "bike_uids": ["80582", "80629", "80620", "80618", "88080", "85165", "85156", "89955"], "virtual": false}}, {"id": "58a3bb5a7060e2d1ca36b03d51aaab96", "name": "Op\u0107ina Novi Grad", "latitude": 43.846912, "longitude": 18.354095, "timestamp": "2025-05-03T03:15:35.582813+00:00Z", "free_bikes": 3, "empty_slots": null, "extra": {"uid": "956935", "number": "2398", "bike_uids": ["80581", "80612", "80609"], "virtual": false}}, {"id": "58af0a3b2a9642d99164a63ad1afd3da", "name": "Importanne Centar", "latitude": 43.855316, "longitude": 18.399482, "timestamp": "2025-05-03T03:15:35.582761+00:00Z", "free_bikes": 4, "empty_slots": null, "extra": {"uid": "956910", "number": "2396", "bike_uids": ["80627", "88093", "85166", "89957"], "virtual": false}}, {"id": "6f9eef11d8f7fc3d6fc4ebd119838f42", "name": "Vogosca-Rosulje", "latitude": 43.90229, "longitude": 18.350937, "timestamp": "2025-05-03T03:15:35.583179+00:00Z", "free_bikes": 0, "empty_slots": null, "extra": {"uid": "38121294", "number": "2480", "bike_uids": [], "virtual": false}}, {"id": "73aef024732c3cf39464cbac75b34776", "name": "BTC Merkur Otoka", "latitude": 43.84829, "longitude": 18.368376, "timestamp": "2025-05-03T03:15:35.583061+00:00Z", "free_bikes": 5, "empty_slots": null, "extra": {"uid": "8684957", "number": "2394", "bike_uids": ["80625", "80614", "88097", "89965", "89952"], "virtual": false}}, {"id": "89d02ec58d3fc9458e7fe34db021006e", "name": "Vijecnica", "latitude": 43.858975, "longitude": 18.434234, "timestamp": "2025-05-03T03:15:35.583005+00:00Z", "free_bikes": 1, "empty_slots": null, "extra": {"uid": "3549391", "number": "2461", "bike_uids": ["89959"], "virtual": false}}, {"id": "905866b0e42ec94405ffb91f1a2bdf84", "name": "ALTA Shopping Centar", "latitude": 43.856309, "longitude": 18.406112, "timestamp": "2025-05-03T03:15:35.582716+00:00Z", "free_bikes": 5, "empty_slots": null, "extra": {"uid": "886655", "number": "2395", "bike_uids": ["80623", "80615", "80600", "88083", "89961"], "virtual": false}}, {"id": "9e39306b59364d302402074019cd4749", "name": "Dobrinja", "latitude": 43.828923, "longitude": 18.345839, "timestamp": "2025-05-03T03:15:35.582906+00:00Z", "free_bikes": 1, "empty_slots": null, "extra": {"uid": "2610316", "number": "2402", "bike_uids": ["85161"], "virtual": false}}, {"id": "a255db7e411a923fa09759ca95e527c3", "name": "Avaz Twist Tower", "latitude": 43.861296, "longitude": 18.402002, "timestamp": "2025-05-03T03:15:35.583046+00:00Z", "free_bikes": 0, "empty_slots": null, "extra": {"uid": "5014069", "number": "2404", "bike_uids": [], "virtual": false}}, {"id": "aceae9f1eccbae41f48f2c331d0d2919", "name": "BKC", "latitude": 43.85777, "longitude": 18.422518, "timestamp": "2025-05-03T03:15:35.583225+00:00Z", "free_bikes": 1, "empty_slots": null, "extra": {"uid": "357346164", "bike_uids": ["88096"], "virtual": false}}, {"id": "aea86d779a4fe9e0f9fdee139c17961d", "name": "Spazio Gourmet", "latitude": 43.855797, "longitude": 18.410982, "timestamp": "2025-05-03T03:15:35.583030+00:00Z", "free_bikes": 0, "empty_slots": null, "extra": {"uid": "3549401", "number": "2462", "bike_uids": [], "virtual": false}}, {"id": "b3e3b11ec8d733edde870578b3220003", "name": "BBI centar", "latitude": 43.857905, "longitude": 18.416361, "timestamp": "2025-05-03T03:15:35.582874+00:00Z", "free_bikes": 4, "empty_slots": null, "extra": {"uid": "1319798", "number": "2401", "bike_uids": ["88081", "85155", "85152", "89963"], "virtual": false}}, {"id": "bd5745127e16fd832afb6b89d3248040", "name": "Vogosca-Vogoscanskih odreda", "latitude": 43.904114, "longitude": 18.344022, "timestamp": "2025-05-03T03:15:35.583190+00:00Z", "free_bikes": 4, "empty_slots": null, "extra": {"uid": "38121398", "number": "2481", "bike_uids": ["85190", "85183", "85182", "85181"], "virtual": false}}, {"id": "d1a52be5772395a2d680d01f4c3130d8", "name": "Vogosca-Trg Branilaca Vogosce", "latitude": 43.900372, "longitude": 18.344525, "timestamp": "2025-05-03T03:15:35.583106+00:00Z", "free_bikes": 4, "empty_slots": null, "extra": {"uid": "38120925", "number": "2476", "bike_uids": ["85194", "85176", "85172", "85170"], "virtual": false}}, {"id": "d90dd12f2f24d9584beb0b2399491763", "name": "Vogosca-Trg \u017drtava genocida u Srebrenici", "latitude": 43.898676, "longitude": 18.348045, "timestamp": "2025-05-03T03:15:35.583124+00:00Z", "free_bikes": 2, "empty_slots": null, "extra": {"uid": "38121024", "number": "2477", "bike_uids": ["85174", "85169"], "virtual": false}}, {"id": "d9b9e2ad07194856c518b0eab66444c0", "name": "Hotel Marriott", "latitude": 43.855728, "longitude": 18.41506, "timestamp": "2025-05-03T03:15:35.583242+00:00Z", "free_bikes": 2, "empty_slots": null, "extra": {"uid": "440044996", "bike_uids": ["80624", "85154"], "virtual": false}}, {"id": "d9bf6757841621c5f8455bc942c4f2f8", "name": "Vogosca-Stara industrijska zona", "latitude": 43.90333, "longitude": 18.364865, "timestamp": "2025-05-03T03:15:35.583165+00:00Z", "free_bikes": 0, "empty_slots": null, "extra": {"uid": "38121225", "number": "2479", "bike_uids": [], "virtual": false}}, {"id": "f86f936ce2317053690a3adc11862f82", "name": "Vogosca - Bus terminal", "latitude": 43.900415, "longitude": 18.337621, "timestamp": "2025-05-03T03:15:35.583086+00:00Z", "free_bikes": 3, "empty_slots": null, "extra": {"uid": "38112141", "number": "2475", "bike_uids": ["85184", "85180", "85175"], "virtual": false}}]}