{"id": "nextbike-tuzla", "name": "Nextbike", "location": {"latitude": 44.5392, "longitude": 18.675, "city": "Tuzla", "country": "BA"}, "href": "/v2/networks/nextbike-tuzla", "company": ["Nextbike GmbH"], "system": "Nextbike", "stations": [{"id": "1712726bc01724b5532a4efc46c229d6", "name": "Lamela", "latitude": 44.203676, "longitude": 17.907346, "timestamp": "2025-05-03T03:15:36.156800+00:00Z", "free_bikes": 4, "empty_slots": 0, "extra": {"uid": "23050944", "number": "2467", "slots": 4, "bike_uids": ["80518", "80511", "85054", "85050"], "virtual": false}}, {"id": "1f8d5466d58c756179f14ae7dc3d6877", "name": "Prve zeni\u010dke brigade", "latitude": 44.198991, "longitude": 17.925507, "timestamp": "2025-05-03T03:15:36.157149+00:00Z", "free_bikes": 3, "empty_slots": 1, "extra": {"uid": "38998984", "number": "2437", "slots": 4, "bike_uids": ["80516", "85053", "85051"], "virtual": false}}, {"id": "20d499bb47d47a2cc6aa8dc93fe794c7", "name": "Travni\u010dka", "latitude": 44.201251, "longitude": 17.902071, "timestamp": "2025-05-03T03:15:36.157130+00:00Z", "free_bikes": 1, "empty_slots": 3, "extra": {"uid": "38998797", "number": "2436", "slots": 4, "bike_uids": ["80508"], "virtual": false}}, {"id": "211015bbc92e7cba353e0c1002026d1e", "name": "ZEDA", "latitude": 44.210677, "longitude": 17.899786, "timestamp": "2025-05-03T03:15:36.157173+00:00Z", "free_bikes": 0, "empty_slots": null, "extra": {"uid": "344563146", "bike_uids": [], "virtual": false}}, {"id": "3842ef8b527f986553067d59d35049b0", "name": "Odmut", "latitude": 44.194926, "longitude": 17.918763, "timestamp": "2025-05-03T03:15:36.156837+00:00Z", "free_bikes": 3, "empty_slots": 1, "extra": {"uid": "38968548", "number": "2430", "slots": 4, "bike_uids": ["80529", "85061", "85055"], "virtual": false}}, {"id": "5d3fd84be158d52c24622c54d23d09c4", "name": "Uglovnica", "latitude": 44.198524, "longitude": 17.913082, "timestamp": "2025-05-03T03:15:36.156782+00:00Z", "free_bikes": 3, "empty_slots": 3, "extra": {"uid": "23050930", "number": "2465", "slots": 6, "bike_uids": ["80519", "80517", "80506"], "virtual": false}}, {"id": "9d43e226d5cd5ff8c80e54221d771751", "name": "Radakovo", "latitude": 44.195605, "longitude": 17.92586, "timestamp": "2025-05-03T03:15:36.156697+00:00Z", "free_bikes": 2, "empty_slots": 2, "extra": {"uid": "13366492", "number": "2463", "slots": 4, "bike_uids": ["85060", "85041"], "virtual": false}}, {"id": "a3a7f5bea738952c395d4af1015a8303", "name": "Boris Kidri\u010d", "latitude": 44.207763, "longitude": 17.907607, "timestamp": "2025-05-03T03:15:36.156855+00:00Z", "free_bikes": 2, "empty_slots": 2, "extra": {"uid": "38968607", "number": "2431", "slots": 4, "bike_uids": ["80515", "80512"], "virtual": false}}, {"id": "a987ca8de4923cece9bf4653ffa70fb7", "name": "Blatu\u0161a", "latitude": 44.208289, "longitude": 17.914724, "timestamp": "2025-05-03T03:15:36.157059+00:00Z", "free_bikes": 4, "empty_slots": 0, "extra": {"uid": "38968851", "number": "2432", "slots": 4, "bike_uids": ["80509", "80501", "85063", "85048"], "virtual": false}}, {"id": "b7280ca04c73b313992e069e08a6356b", "name": "Crkvice", "latitude": 44.200288, "longitude": 17.920042, "timestamp": "2025-05-03T03:15:36.156740+00:00Z", "free_bikes": 4, "empty_slots": 2, "extra": {"uid": "23050906", "number": "2464", "slots": 6, "bike_uids": ["80527", "80525", "85042", "85039"], "virtual": false}}, {"id": "b728e9a8493ab6f275cdd13eca6bb81b", "name": "Autobusna stanica", "latitude": 44.209608, "longitude": 17.91189, "timestamp": "2025-05-03T03:15:36.157077+00:00Z", "free_bikes": 1, "empty_slots": 3, "extra": {"uid": "38968932", "number": "2434", "slots": 4, "bike_uids": ["80513"], "virtual": false}}, {"id": "c2b9dc6442826a9f4df4febadd9f6970", "name": "Studentski centar", "latitude": 44.204898, "longitude": 17.922958, "timestamp": "2025-05-03T03:15:36.157112+00:00Z", "free_bikes": 4, "empty_slots": 0, "extra": {"uid": "38998359", "number": "2435", "slots": 4, "bike_uids": ["85049", "85044", "85040", "85033"], "virtual": false}}, {"id": "eb9a07a8c87fbd76454aa66c962b2b2e", "name": "Trg Bosne i Hercegovine", "latitude": 44.201346, "longitude": 17.905525, "timestamp": "2025-05-03T03:15:36.157095+00:00Z", "free_bikes": 3, "empty_slots": 2, "extra": {"uid": "38981067", "number": "2433", "slots": 5, "bike_uids": ["80522", "80505", "85036"], "virtual": false}}, {"id": "fb5bc4346cfb3d1bd8c4d08495c393ad", "name": "Moku\u0161nice", "latitude": 44.1961, "longitude": 17.910648, "timestamp": "2025-05-03T03:15:36.156818+00:00Z", "free_bikes": 2, "empty_slots": 2, "extra": {"uid": "23051293", "number": "2468", "slots": 4, "bike_uids": ["85038", "85037"], "virtual": false}}, {"id": "fc86fb4ed9d758ebd85931f2c9ff8b36", "name": "Kamberovi\u0107a polje", "latitude": 44.203389, "longitude": 17.911076, "timestamp": "2025-05-03T03:15:36.156761+00:00Z", "free_bikes": 8, "empty_slots": 0, "extra": {"uid": "23050913", "number": "2466", "slots": 6, "bike_uids": ["80526", "80524", "80521", "85031", "85059", "85047", "85034", "85032"], "virtual": false}}]}