{"id": "nextbike-wiesbaden", "name": "Nextbike", "location": {"latitude": 50.0709, "longitude": 8.24322, "city": "Wiesbaden", "country": "DE"}, "href": "/v2/networks/nextbike-wiesbaden", "company": ["Nextbike GmbH"], "system": "Nextbike", "stations": [{"id": "0adf52edcbc2e0e76f85aada94f1130b", "name": "Unter den Eichen (Campus) ", "latitude": 50.0957, "longitude": 8.21618, "timestamp": "2025-05-03T03:15:33.789379+00:00Z", "free_bikes": 19, "empty_slots": 0, "extra": {"uid": "4775153", "number": "5192", "slots": 8, "bike_uids": ["382020", "382080", "382066", "382138", "382107", "382091", "382298", "382162", "382195", "382299", "382185", "382197", "382174", "382160", "382246", "382237", "382220", "382208", "382205"], "virtual": false}}, {"id": "1a9095f5b6e0a72fa626671743c52774", "name": "Albrecht-D\u00fcrer-Anlagen", "latitude": 50.089468, "longitude": 8.220322, "timestamp": "2025-05-03T03:15:33.789567+00:00Z", "free_bikes": 1, "empty_slots": null, "extra": {"uid": "54069261", "number": "51804", "bike_uids": ["382238"], "virtual": false}}, {"id": "1c66cff02acc57a65f9d114034efd0ea", "name": "Friedrich-Ebert-Allee", "latitude": 50.076204, "longitude": 8.24563, "timestamp": "2025-05-03T03:15:33.789539+00:00Z", "free_bikes": 0, "empty_slots": null, "extra": {"uid": "53699259", "number": "51802", "bike_uids": [], "virtual": false}}, {"id": "27cb4510ff7ed8a9addc1d3902bb64d5", "name": "Mainzer Stra\u00dfe", "latitude": 50.058507, "longitude": 8.255213, "timestamp": "2025-05-03T03:15:33.789521+00:00Z", "free_bikes": 5, "empty_slots": null, "extra": {"uid": "53697507", "number": "51801", "bike_uids": ["382124", "382011", "382296", "382233", "382157"], "virtual": false}}, {"id": "29609a991ea6e946a76bd733c3cabe55", "name": "Sedanplatz", "latitude": 50.08258, "longitude": 8.22872, "timestamp": "2025-05-03T03:15:33.789361+00:00Z", "free_bikes": 4, "empty_slots": null, "extra": {"uid": "4775141", "number": "5191", "bike_uids": ["382065", "382103", "382189", "382228"], "virtual": false}}, {"id": "2d66a6ff7136e968ba4c7b046430fdc3", "name": "Frankfurter Stra\u00dfe/ Humboldtstra\u00dfe", "latitude": 50.07816, "longitude": 8.249343, "timestamp": "2025-05-03T03:15:33.789710+00:00Z", "free_bikes": 5, "empty_slots": null, "extra": {"uid": "87796883", "number": "51814", "bike_uids": ["382083", "382118", "382126", "382262", "382264"], "virtual": false}}, {"id": "2dd2c8fc39a4c3f9a091d3c7eaa406ee", "name": "SOKA Bau", "latitude": 50.069332, "longitude": 8.253932, "timestamp": "2025-05-03T03:15:33.789744+00:00Z", "free_bikes": 3, "empty_slots": null, "extra": {"uid": "126084480", "number": "51813", "bike_uids": ["382121", "382279", "382202"], "virtual": false}}, {"id": "31c7def2f8ffd6c7b6ceea9163c77132", "name": "Kurt-Schumacher-Ring (Campus Mitte)", "latitude": 50.080501, "longitude": 8.216786, "timestamp": "2025-05-03T03:15:33.789298+00:00Z", "free_bikes": 9, "empty_slots": 0, "extra": {"uid": "4775117", "number": "5188", "slots": 4, "bike_uids": ["382109", "382071", "382026", "382049", "382076", "382070", "382263", "382161", "382231"], "virtual": false}}, {"id": "34fa48b441ccce76fcd698ba9b2a61bd", "name": "Dern\u2019sches Gel\u00e4nde", "latitude": 50.080666, "longitude": 8.24349, "timestamp": "2025-05-03T03:15:33.789190+00:00Z", "free_bikes": 4, "empty_slots": null, "extra": {"uid": "4775074", "number": "5182", "bike_uids": ["382016", "382176", "382244", "382209"], "virtual": false}}, {"id": "3f6958c879c6122191be1ae5a04b5b86", "name": "Abraham-Lincoln-Park", "latitude": 50.06291, "longitude": 8.27154, "timestamp": "2025-05-03T03:15:33.789453+00:00Z", "free_bikes": 2, "empty_slots": null, "extra": {"uid": "5029742", "number": "5196", "bike_uids": ["382054", "382232"], "virtual": false}}, {"id": "40798fa93f9528b9d4d83b08e54306f5", "name": "Konrad-Adenauer-Stra\u00dfe/ Schiersteiner Stra\u00dfe", "latitude": 50.071167, "longitude": 8.226985, "timestamp": "2025-05-03T03:15:33.789679+00:00Z", "free_bikes": 2, "empty_slots": null, "extra": {"uid": "87796596", "number": "51810", "bike_uids": ["382291", "382212"], "virtual": false}}, {"id": "443cc1aed4fb96a08e33c2ce0fdc0311", "name": "Frankfurter Stra\u00dfe", "latitude": 50.073805, "longitude": 8.255228, "timestamp": "2025-05-03T03:15:33.789471+00:00Z", "free_bikes": 0, "empty_slots": null, "extra": {"uid": "5301942", "number": "5198", "bike_uids": [], "virtual": false}}, {"id": "462ad6f70b3be491fd6a2f6e0191c1dc", "name": "Karlsbader Platz", "latitude": 50.074863, "longitude": 8.223887, "timestamp": "2025-05-03T03:15:33.789694+00:00Z", "free_bikes": 3, "empty_slots": null, "extra": {"uid": "87796717", "number": "51811", "bike_uids": ["382017", "382224", "382201"], "virtual": false}}, {"id": "5166f13ca06bb5822126c0c290ec3557", "name": "Kurt-Schumacher-Ring (Campus Ost)", "latitude": 50.080828, "longitude": 8.21809, "timestamp": "2025-05-03T03:15:33.789112+00:00Z", "free_bikes": 13, "empty_slots": 0, "extra": {"uid": "4728239", "number": "5180", "slots": 12, "bike_uids": ["382110", "382004", "382154", "382097", "382089", "382046", "382013", "382031", "382165", "382260", "382169", "382194", "382190"], "virtual": false}}, {"id": "561e0c193ce39ad0664be7fd3c39be5c", "name": "Webergasse", "latitude": 50.08464, "longitude": 8.2426, "timestamp": "2025-05-03T03:15:33.789402+00:00Z", "free_bikes": 8, "empty_slots": null, "extra": {"uid": "4775162", "number": "5193", "bike_uids": ["382045", "382074", "382096", "382177", "382248", "382261", "382243", "382242"], "virtual": false}}, {"id": "5dd8a7484dbf8812449e0bef4fef8835", "name": "Luisenplatz", "latitude": 50.079147, "longitude": 8.240044, "timestamp": "2025-05-03T03:15:33.789621+00:00Z", "free_bikes": 8, "empty_slots": null, "extra": {"uid": "87796213", "number": "51807", "bike_uids": ["382088", "382008", "382002", "382037", "382241", "382239", "382153", "382219"], "virtual": false}}, {"id": "5f0c5cf776475806d3942fd036af2f48", "name": "Bertramstra\u00dfe (Campus)", "latitude": 50.07956, "longitude": 8.23052, "timestamp": "2025-05-03T03:15:33.789165+00:00Z", "free_bikes": 4, "empty_slots": null, "extra": {"uid": "4775065", "number": "5181", "bike_uids": ["382069", "382093", "382127", "382188"], "virtual": false}}, {"id": "600b2100fe8200f42c5c1a2e1480143a", "name": "Herderstra\u00dfe", "latitude": 50.074514, "longitude": 8.233523, "timestamp": "2025-05-03T03:15:33.789279+00:00Z", "free_bikes": 2, "empty_slots": null, "extra": {"uid": "4775113", "number": "5187", "bike_uids": ["382044", "382047"], "virtual": false}}, {"id": "6e00ee8ff3d38cdda93553d0925faac7", "name": "Hauptbahnhof", "latitude": 50.071337, "longitude": 8.242628, "timestamp": "2025-05-03T03:15:33.789660+00:00Z", "free_bikes": 21, "empty_slots": null, "extra": {"uid": "87796472", "number": "51809", "bike_uids": ["382003", "382086", "382144", "382100", "382041", "382129", "382050", "382155", "382186", "382193", "382280", "382187", "382249", "382235", "382234", "382230", "382266", "382221", "382216", "382206", "382203"], "virtual": false}}, {"id": "6f8aa8b94488e84800c4021291c89257", "name": "Neroberg Talstation", "latitude": 50.094966, "longitude": 8.226126, "timestamp": "2025-05-03T03:15:33.789484+00:00Z", "free_bikes": 7, "empty_slots": null, "extra": {"uid": "53173847", "number": "51800", "bike_uids": ["382038", "382081", "382112", "382116", "382028", "382213", "382204"], "virtual": false}}, {"id": "7100434f00704f5fea1324d559958c3f", "name": "Bahnhofstra\u00dfe", "latitude": 50.072318, "longitude": 8.242933, "timestamp": "2025-05-03T03:15:33.789640+00:00Z", "free_bikes": 11, "empty_slots": null, "extra": {"uid": "87796369", "number": "51808", "bike_uids": ["382048", "382288", "382251", "382183", "382191", "382179", "382281", "382295", "382211", "382210", "382267"], "virtual": false}}, {"id": "7abade79435c68eb64abf9336038547d", "name": "Friedrich-Naumann-Stra\u00dfe (Studierendenwohnheim)", "latitude": 50.082972, "longitude": 8.21962, "timestamp": "2025-05-03T03:15:33.789246+00:00Z", "free_bikes": 2, "empty_slots": null, "extra": {"uid": "4775102", "number": "5185", "bike_uids": ["382170", "382240"], "virtual": false}}, {"id": "7c27a72fa1a36685d07bcaca4561bcd9", "name": "Platz der Deutschen Einheit", "latitude": 50.07978, "longitude": 8.2347, "timestamp": "2025-05-03T03:15:33.789321+00:00Z", "free_bikes": 13, "empty_slots": null, "extra": {"uid": "4775126", "number": "5189", "bike_uids": ["382082", "382014", "382164", "382207", "382168", "382178", "382181", "382282", "382293", "382286", "382250", "382268", "382200"], "virtual": false}}, {"id": "7eb0d803a5c8f8d13272b247c97ec70d", "name": "Adolfsallee", "latitude": 50.076168, "longitude": 8.239901, "timestamp": "2025-05-03T03:15:33.789551+00:00Z", "free_bikes": 2, "empty_slots": null, "extra": {"uid": "53701912", "number": "51803", "bike_uids": ["382290", "382218"], "virtual": false}}, {"id": "86480944f9095fcffb5154e5db7b61ac", "name": "Eltviller Stra\u00dfe", "latitude": 50.076546, "longitude": 8.226448, "timestamp": "2025-05-03T03:15:33.789229+00:00Z", "free_bikes": 2, "empty_slots": null, "extra": {"uid": "4775087", "number": "5184", "bike_uids": ["382152", "382214"], "virtual": false}}, {"id": "9cbabfb4d7213e28025b887dc18b05cf", "name": "D\u00fcrerplatz", "latitude": 50.08564, "longitude": 8.225514, "timestamp": "2025-05-03T03:15:33.789211+00:00Z", "free_bikes": 1, "empty_slots": null, "extra": {"uid": "4775082", "number": "5183", "bike_uids": ["382297"], "virtual": false}}, {"id": "ba8b8607948ed09c7324ce61751e81f3", "name": "Nerotal", "latitude": 50.091216, "longitude": 8.236082, "timestamp": "2025-05-03T03:15:33.789504+00:00Z", "free_bikes": 3, "empty_slots": null, "extra": {"uid": "53279454", "number": "5197", "bike_uids": ["382147", "382172", "382182"], "virtual": false}}, {"id": "bef481aee436a00a2cd6b73007bea0fb", "name": "Neugasse", "latitude": 50.081525, "longitude": 8.23976, "timestamp": "2025-05-03T03:15:33.789603+00:00Z", "free_bikes": 3, "empty_slots": null, "extra": {"uid": "87795984", "number": "51806", "bike_uids": ["382285", "382292", "382226"], "virtual": false}}, {"id": "bf5f954c91d93ff3faaef286d22827b0", "name": "Coulinstra\u00dfe", "latitude": 50.083286, "longitude": 8.236345, "timestamp": "2025-05-03T03:15:33.789585+00:00Z", "free_bikes": 4, "empty_slots": null, "extra": {"uid": "87795417", "number": "51805", "bike_uids": ["382156", "382001", "382198", "382166"], "virtual": false}}, {"id": "c2eb38872fb9c99543d43b94e983b064", "name": "Alter Schlachthof", "latitude": 50.06673, "longitude": 8.247916, "timestamp": "2025-05-03T03:15:33.790249+00:00Z", "free_bikes": 4, "empty_slots": null, "extra": {"uid": "143097087", "number": "51812", "bike_uids": ["382108", "382289", "382217", "382192"], "virtual": false}}, {"id": "c40371c8cebfc9b0d9b50ed2ac78770b", "name": "Saalgasse ", "latitude": 50.08674, "longitude": 8.24166, "timestamp": "2025-05-03T03:15:33.789342+00:00Z", "free_bikes": 7, "empty_slots": null, "extra": {"uid": "4775132", "number": "5190", "bike_uids": ["382015", "382075", "382072", "382135", "382215", "382184", "382287"], "virtual": false}}, {"id": "c875b5659236afa52bf263c85ce89776", "name": "Gustav-Stresemann-Ring", "latitude": 50.071756, "longitude": 8.252207, "timestamp": "2025-05-03T03:15:33.789727+00:00Z", "free_bikes": 1, "empty_slots": null, "extra": {"uid": "87797085", "number": "51815", "bike_uids": ["382111"], "virtual": false}}, {"id": "cb671dbf28feea68bf88f17077bea3ac", "name": "HS Fresenius", "latitude": 50.074516, "longitude": 8.238646, "timestamp": "2025-05-03T03:15:33.789968+00:00Z", "free_bikes": 12, "empty_slots": null, "extra": {"uid": "126085503", "number": "51816", "bike_uids": ["382151", "382101", "382094", "382134", "382150", "382099", "382148", "382222", "382167", "382175", "382173", "382180"], "virtual": false}}, {"id": "d1d964d5bdaadc7e1fd3d016f7720931", "name": "Loreleiring", "latitude": 50.07763, "longitude": 8.22064, "timestamp": "2025-05-03T03:15:33.789421+00:00Z", "free_bikes": 0, "empty_slots": null, "extra": {"uid": "4880650", "number": "5194", "bike_uids": [], "virtual": false}}, {"id": "f92648b0d9bc65cc757c608b208342f2", "name": "Raiffeisenplatz", "latitude": 50.067305, "longitude": 8.273746, "timestamp": "2025-05-03T03:15:33.789434+00:00Z", "free_bikes": 4, "empty_slots": null, "extra": {"uid": "5029668", "number": "5195", "bike_uids": ["382051", "382229", "382196", "382245"], "virtual": false}}, {"id": "fdf487784f3692a100fe84b1b6665ef7", "name": "Gneisenaustra\u00dfe", "latitude": 50.079672, "longitude": 8.224286, "timestamp": "2025-05-03T03:15:33.789264+00:00Z", "free_bikes": 0, "empty_slots": null, "extra": {"uid": "4775108", "number": "5186", "bike_uids": [], "virtual": false}}]}