{"id": "nextbike-praha", "name": "nextbike Praha", "location": {"latitude": 50.0592, "longitude": 14.5761, "city": "Praha", "country": "CZ"}, "href": "/v2/networks/nextbike-praha", "company": ["Nextbike GmbH"], "system": "Nextbike", "stations": [{"id": "0050fadaca17f46d1ff5f11be781cff9", "name": "P2 - Jana Masaryka / \u0160afa\u0159\u00edkova", "latitude": 50.07023, "longitude": 14.43548, "timestamp": "2025-05-03T03:15:39.191135+00:00Z", "free_bikes": 0, "empty_slots": 2, "extra": {"uid": "148304241", "number": "49554", "slots": 2, "bike_uids": [], "virtual": false}}, {"id": "00b78df7cc7fc49f18034153d589ae4a", "name": "P1 - Dlouh\u00e1 (naproti Lok\u00e1lu)", "latitude": 50.090452, "longitude": 14.425888, "timestamp": "2025-05-03T03:15:39.122916+00:00Z", "free_bikes": 4, "empty_slots": 4, "extra": {"uid": "27604174", "number": "46195", "slots": 8, "bike_uids": ["481715", "480293", "480175", "483625"], "virtual": false}}, {"id": "00f8627fa7b23191a9c26c0f28d0a365", "name": "P8 - L\u00e1vka HolKa", "latitude": 50.095311, "longitude": 14.446139, "timestamp": "2025-05-03T03:15:39.302888+00:00Z", "free_bikes": 7, "empty_slots": 5, "extra": {"uid": "395589819", "number": "45943", "slots": 12, "bike_uids": ["480163", "480004", "485397", "485372", "481473", "481429", "487490"], "virtual": false}}, {"id": "0114b4af86e9adb1fe2dd7fe0c0656df", "name": "P4 - Otakarova", "latitude": 50.065863, "longitude": 14.440911, "timestamp": "2025-05-03T03:15:39.247402+00:00Z", "free_bikes": 0, "empty_slots": 2, "extra": {"uid": "216489299", "number": "48301", "slots": 2, "bike_uids": [], "virtual": false}}, {"id": "014179e14a14edfb4bbb7fe6a3005de5", "name": "P1 - Poho\u0159elec 2", "latitude": 50.08738, "longitude": 14.388454, "timestamp": "2025-05-03T03:15:39.251154+00:00Z", "free_bikes": 0, "empty_slots": 8, "extra": {"uid": "276173248", "number": "45681", "slots": 8, "bike_uids": [], "virtual": false}}, {"id": "01e306d27638109879b39e3532a4e186", "name": "P14 - S\u00eddli\u0161t\u011b Hloub\u011bt\u00edn", "latitude": 50.106336, "longitude": 14.542771, "timestamp": "2025-05-03T03:15:39.155529+00:00Z", "free_bikes": 0, "empty_slots": 10, "extra": {"uid": "27605349", "number": "46340", "slots": 10, "bike_uids": [], "virtual": false}}, {"id": "020aa1dd6cdc0e40661ff9e64c91a54e", "name": "P8 - U \u0160tvanick\u00e9 l\u00e1vky", "latitude": 50.09497, "longitude": 14.446724, "timestamp": "2025-05-03T03:15:39.298802+00:00Z", "free_bikes": 4, "empty_slots": 6, "extra": {"uid": "301287286", "number": "45716", "slots": 10, "bike_uids": ["485012", "481152", "485245", "481426"], "virtual": false}}, {"id": "022e4fc49164917ba5161a3a8945d557", "name": "P1 - Gymn\u00e1zium Jana Palacha", "latitude": 50.07847, "longitude": 14.41593, "timestamp": "2025-05-03T03:15:39.250875+00:00Z", "free_bikes": 0, "empty_slots": 6, "extra": {"uid": "270305761", "number": "45654", "slots": 6, "bike_uids": [], "virtual": false}}, {"id": "023d8cc5a1e3a402ffcb8d6051e82b92", "name": "P3-Mile\u0161ovsk\u00e1 - Ond\u0159\u00ed\u010dkova", "latitude": 50.07984, "longitude": 14.45115, "timestamp": "2025-05-03T03:15:39.152959+00:00Z", "free_bikes": 15, "empty_slots": 0, "extra": {"uid": "27604520", "number": "46238", "slots": 10, "bike_uids": ["482366", "482312", "482308", "485032", "485348", "485388", "481475", "481449", "481442", "481427", "481307", "481291", "483496", "483684", "487187"], "virtual": false}}, {"id": "02d7e42fc6aac8aff1d327fc6b9e005e", "name": "P8 - Amazon Court", "latitude": 50.094692, "longitude": 14.446061, "timestamp": "2025-05-03T03:15:39.188611+00:00Z", "free_bikes": 1, "empty_slots": 9, "extra": {"uid": "34028882", "number": "46882", "slots": 10, "bike_uids": ["485174"], "virtual": false}}, {"id": "02fdecb2f805fd971e57b666821c85ab", "name": "P3 - Pod Kapli\u010dkou - Na T\u0159ebe\u0161\u00edn\u011b", "latitude": 50.08206, "longitude": 14.48053, "timestamp": "2025-05-03T03:15:39.156839+00:00Z", "free_bikes": 0, "empty_slots": 10, "extra": {"uid": "27605577", "number": "46376", "slots": 10, "bike_uids": [], "virtual": false}}, {"id": "0321ac814a5c9fd1b6f49e9a260cd224", "name": "P10-Kub\u00e1nsk\u00e9 n\u00e1m\u011bst\u00ed", "latitude": 50.071371, "longitude": 14.476966, "timestamp": "2025-05-03T03:15:39.155969+00:00Z", "free_bikes": 0, "empty_slots": 10, "extra": {"uid": "27605433", "number": "46353", "slots": 10, "bike_uids": [], "virtual": false}}, {"id": "04480dfa9bf1266a1bb0e42767e160e5", "name": "P6-Pod Marj\u00e1nkou - Zubn\u00ed chirurgie", "latitude": 50.08468, "longitude": 14.36605, "timestamp": "2025-05-03T03:15:39.121628+00:00Z", "free_bikes": 0, "empty_slots": 10, "extra": {"uid": "27582821", "number": "46067", "slots": 10, "bike_uids": [], "virtual": false}}, {"id": "0457fa0e0eef994aa2dd5bf58d07c881", "name": "P8 - Ly\u010dkovo n\u00e1m\u011bst\u00ed 2", "latitude": 50.093305, "longitude": 14.458556, "timestamp": "2025-05-03T03:15:39.301911+00:00Z", "free_bikes": 0, "empty_slots": 6, "extra": {"uid": "372978654", "number": "45841", "slots": 6, "bike_uids": [], "virtual": false}}, {"id": "04632445988f40a337549383266b19ea", "name": "P7 - D\u011blnick\u00e1 / Na Manin\u00e1ch", "latitude": 50.10317, "longitude": 14.452647, "timestamp": "2025-05-03T03:15:39.302740+00:00Z", "free_bikes": 1, "empty_slots": 5, "extra": {"uid": "386836756", "number": "45934", "slots": 6, "bike_uids": ["487070"], "virtual": false}}, {"id": "04a114d98139e447c94538aa892a77d5", "name": "P6 - Dejvick\u00e1 - metro (v\u00fdstup E9)", "latitude": 50.100707, "longitude": 14.393082, "timestamp": "2025-05-03T03:15:39.122430+00:00Z", "free_bikes": 0, "empty_slots": 10, "extra": {"uid": "27583499", "number": "46146", "slots": 10, "bike_uids": [], "virtual": false}}, {"id": "0521fffb53cb00e9de7fdd43454be3a1", "name": "P10 - Moskevsk\u00e1 38", "latitude": 50.06901, "longitude": 14.454806, "timestamp": "2025-05-03T03:15:39.300084+00:00Z", "free_bikes": 0, "empty_slots": 8, "extra": {"uid": "343240202", "number": "45772", "slots": 8, "bike_uids": [], "virtual": false}}, {"id": "05426ac98a96c71c20d7bacb765e7ee6", "name": "P1 - Na P\u0159\u00edkop\u011b / Nek\u00e1zanka", "latitude": 50.08617, "longitude": 14.42652, "timestamp": "2025-05-03T03:15:39.250516+00:00Z", "free_bikes": 0, "empty_slots": 5, "extra": {"uid": "270262232", "number": "45628", "slots": 5, "bike_uids": [], "virtual": false}}, {"id": "05c0ab57174c292bd9b78b235e521a6f", "name": "P1 - M\u00e1nes", "latitude": 50.077541, "longitude": 14.414213, "timestamp": "2025-05-03T03:15:39.250757+00:00Z", "free_bikes": 2, "empty_slots": 6, "extra": {"uid": "270293671", "number": "45647", "slots": 8, "bike_uids": ["480120", "487057"], "virtual": false}}, {"id": "05c94e9b0403acc949a1f714286c5ba6", "name": "P8 - K\u0159i\u017e\u00edkova 2", "latitude": 50.0939, "longitude": 14.451591, "timestamp": "2025-05-03T03:15:39.302398+00:00Z", "free_bikes": 5, "empty_slots": 4, "extra": {"uid": "378068193", "number": "45869", "slots": 9, "bike_uids": ["482343", "480246", "480136", "481182", "481340"], "virtual": false}}, {"id": "063f0b82907bb504bf5a9ae432faca05", "name": "P6 - Kolej Orl\u00edk (vyhrazen\u00e9 m\u00edsto p\u0159ed Top Sun)", "latitude": 50.101777, "longitude": 14.399251, "timestamp": "2025-05-03T03:15:39.251258+00:00Z", "free_bikes": 0, "empty_slots": 5, "extra": {"uid": "293369625", "number": "45689", "slots": 5, "bike_uids": [], "virtual": false}}, {"id": "0662306b72d7cf045fb09c7f21075455", "name": "P18 - Letnany Poliklinika", "latitude": 50.136252, "longitude": 14.510361, "timestamp": "2025-05-03T03:15:39.122643+00:00Z", "free_bikes": 0, "empty_slots": 10, "extra": {"uid": "27583651", "number": "46164", "slots": 10, "bike_uids": [], "virtual": false}}, {"id": "0675affb2127c9c827fcdb87d0de9fe0", "name": "P7 - Veletr\u017en\u00ed / U Smaltovny", "latitude": 50.102516, "longitude": 14.435916, "timestamp": "2025-05-03T03:15:39.251190+00:00Z", "free_bikes": 1, "empty_slots": 6, "extra": {"uid": "281556406", "number": "45685", "slots": 7, "bike_uids": ["485357"], "virtual": false}}, {"id": "06e35a7059bb01318af0ddad06e356a8", "name": "P8 - koleje 17. listopadu, u zast\u00e1vky", "latitude": 50.116062, "longitude": 14.444265, "timestamp": "2025-05-03T03:15:39.301601+00:00Z", "free_bikes": 5, "empty_slots": 7, "extra": {"uid": "365209671", "number": "45823", "slots": 12, "bike_uids": ["480367", "485027", "485251", "481462", "486962"], "virtual": false}}, {"id": "06eb910b2c1d9b3a97047f7f9640de67", "name": "P3 - Mahlerovy sady (vstup \u017di\u017ekovsk\u00e1 v\u011b\u017e)", "latitude": 50.08078, "longitude": 14.450948, "timestamp": "2025-05-03T03:15:39.191803+00:00Z", "free_bikes": 0, "empty_slots": 2, "extra": {"uid": "149977923", "number": "48565", "slots": 2, "bike_uids": [], "virtual": false}}, {"id": "0736115fc161f4418bb25c9ef0265cff", "name": "P6 - Pra\u0161n\u00fd most", "latitude": 50.094326, "longitude": 14.395571, "timestamp": "2025-05-03T03:15:39.248367+00:00Z", "free_bikes": 0, "empty_slots": 3, "extra": {"uid": "237900898", "number": "45539", "slots": 3, "bike_uids": [], "virtual": false}}, {"id": "076cd3b05fb3c0b6f712d5e200830783", "name": "P1 - Washingtonova", "latitude": 50.081364, "longitude": 14.431867, "timestamp": "2025-05-03T03:15:39.299421+00:00Z", "free_bikes": 0, "empty_slots": 6, "extra": {"uid": "312072431", "number": "45748", "slots": 6, "bike_uids": [], "virtual": false}}, {"id": "080b9f40a9fa580bfbee3b5690a0941a", "name": "P12-Freestyle park Mod\u0159any", "latitude": 50.01326, "longitude": 14.398647, "timestamp": "2025-05-03T03:15:39.122696+00:00Z", "free_bikes": 7, "empty_slots": 3, "extra": {"uid": "27583775", "number": "46170", "slots": 10, "bike_uids": ["481705", "481139", "485117", "481338", "483671", "483644", "487040"], "virtual": false}}, {"id": "0819834a65482f4c19e07d785a46d45c", "name": "P1 - Jungmannovo n\u00e1m\u011bst\u00ed (v\u00fdstup E3)", "latitude": 50.08292, "longitude": 14.42188, "timestamp": "2025-05-03T03:15:39.250607+00:00Z", "free_bikes": 0, "empty_slots": 6, "extra": {"uid": "270280445", "number": "45637", "slots": 6, "bike_uids": [], "virtual": false}}, {"id": "083062f68dff5da9a34a94d726ef7013", "name": "P1 - D\u016fm U Hybern\u016f 2", "latitude": 50.08787, "longitude": 14.42859, "timestamp": "2025-05-03T03:15:39.250002+00:00Z", "free_bikes": 2, "empty_slots": 7, "extra": {"uid": "267993005", "number": "45600", "slots": 10, "bike_uids": ["485344", "485200"], "virtual": false}}, {"id": "08ac2176eda322b1819fcda469566ca9", "name": "P3 - Olgy Havlov\u00e9", "latitude": 50.087984, "longitude": 14.479326, "timestamp": "2025-05-03T03:15:39.190041+00:00Z", "free_bikes": 1, "empty_slots": 3, "extra": {"uid": "90317140", "number": "49465", "slots": 4, "bike_uids": ["481168"], "virtual": false}}, {"id": "08d4d410101febdd042a8e77ee0ecf01", "name": "P8 - Rohansk\u00e9 n\u00e1b\u0159e\u017e\u00ed (Dallucci)", "latitude": 50.09504, "longitude": 14.451479, "timestamp": "2025-05-03T03:15:39.155428+00:00Z", "free_bikes": 0, "empty_slots": 10, "extra": {"uid": "27605330", "number": "46337", "slots": 10, "bike_uids": [], "virtual": false}}, {"id": "08dce05c3165551d5014feed174bdba3", "name": "P3 - Mile\u0161ovsk\u00e1 X Lucembursk\u00e1", "latitude": 50.078515, "longitude": 14.45171, "timestamp": "2025-05-03T03:15:39.191835+00:00Z", "free_bikes": 0, "empty_slots": 2, "extra": {"uid": "149978913", "number": "48586", "slots": 2, "bike_uids": [], "virtual": false}}, {"id": "092cabd91f23ceba7812f886b0a4eb8b", "name": "P2 - Albertov / Voto\u010dkova", "latitude": 50.06886, "longitude": 14.42416, "timestamp": "2025-05-03T03:15:39.191310+00:00Z", "free_bikes": 0, "empty_slots": 2, "extra": {"uid": "148311048", "number": "49575", "slots": 2, "bike_uids": [], "virtual": false}}, {"id": "095c0a1c328d3e30a69e525a89a744d9", "name": "P8 - Bistro u Rokytky (dopravn\u00ed st\u00edn)", "latitude": 50.10884, "longitude": 14.473895, "timestamp": "2025-05-03T03:15:39.190260+00:00Z", "free_bikes": 3, "empty_slots": 1, "extra": {"uid": "101390808", "number": "49476", "slots": 4, "bike_uids": ["482368", "480200", "483624"], "virtual": false}}, {"id": "09f623cc783864be5d2508177d629a9f", "name": "P9 - Kytlick\u00e1 (dopravn\u00ed st\u00edn)", "latitude": 50.126619, "longitude": 14.504193, "timestamp": "2025-05-03T03:15:39.301810+00:00Z", "free_bikes": 0, "empty_slots": 6, "extra": {"uid": "368599770", "number": "45835", "slots": 6, "bike_uids": [], "virtual": false}}, {"id": "09fbf5abd73e74b7999dfa40c4f5be5f", "name": "P3 - Seifertova (p\u0159ed \u010dp. 6)", "latitude": 50.085064, "longitude": 14.443019, "timestamp": "2025-05-03T03:15:39.250947+00:00Z", "free_bikes": 0, "empty_slots": 6, "extra": {"uid": "276098663", "number": "45660", "slots": 6, "bike_uids": [], "virtual": false}}, {"id": "0a26f585d67d33faf9e5a1026d83bdb2", "name": "P6-N\u00c1M\u011aST\u00cd P\u0158ED BATERIEMI", "latitude": 50.09119, "longitude": 14.37362, "timestamp": "2025-05-03T03:15:39.121666+00:00Z", "free_bikes": 4, "empty_slots": 6, "extra": {"uid": "27582836", "number": "46069", "slots": 10, "bike_uids": ["480357", "480338", "485234", "481402"], "virtual": false}}, {"id": "0a436c9cb00f5fd2e96c4885985d8d0e", "name": "P8 - Sokolovsk\u00e1 / Za Invalidovnou ", "latitude": 50.09682, "longitude": 14.46252, "timestamp": "2025-05-03T03:15:39.299856+00:00Z", "free_bikes": 4, "empty_slots": 4, "extra": {"uid": "328454673", "number": "45760", "slots": 8, "bike_uids": ["480375", "480342", "485045", "481492"], "virtual": false}}, {"id": "0a5f5e04eb9c2abeffad1ccc68f998df", "name": "P5- And\u011bl - n\u00e1ro\u017e\u00ed \u0160tef\u00e1nikova x N\u00e1dra\u017en\u00ed", "latitude": 50.071823, "longitude": 14.404304, "timestamp": "2025-05-03T03:15:39.298860+00:00Z", "free_bikes": 0, "empty_slots": 12, "extra": {"uid": "303019526", "number": "45717", "slots": 12, "bike_uids": [], "virtual": false}}, {"id": "0aad8d0e11b581d336ba465fa0346938", "name": "P5 - Lerausova, U \u017dabky", "latitude": 50.062015, "longitude": 14.36588, "timestamp": "2025-05-03T03:15:39.192194+00:00Z", "free_bikes": 0, "empty_slots": 2, "extra": {"uid": "165341420", "number": "49059", "slots": 2, "bike_uids": [], "virtual": false}}, {"id": "0ae1feeeefc010d2b7c84f1af83f9313", "name": "P3-Palachova Kolej", "latitude": 50.09233, "longitude": 14.48401, "timestamp": "2025-05-03T03:15:39.188321+00:00Z", "free_bikes": 0, "empty_slots": 10, "extra": {"uid": "27605762", "number": "46396", "slots": 10, "bike_uids": [], "virtual": false}}, {"id": "0b2a2bdd74bd4b93d2a86198874ef1b2", "name": "P7 - U Uranie / Na Manin\u00e1ch", "latitude": 50.106529, "longitude": 14.452434, "timestamp": "2025-05-03T03:15:39.153809+00:00Z", "free_bikes": 0, "empty_slots": 10, "extra": {"uid": "27604661", "number": "46264", "slots": 10, "bike_uids": [], "virtual": false}}, {"id": "0b2f7aefddbb9cd430b2d0bf8a6fec4f", "name": "P6 - Jaselsk\u00e1 x Eli\u00e1\u0161ova", "latitude": 50.098915, "longitude": 14.402229, "timestamp": "2025-05-03T03:15:39.189563+00:00Z", "free_bikes": 0, "empty_slots": 8, "extra": {"uid": "61428227", "number": "48381", "slots": 8, "bike_uids": [], "virtual": false}}, {"id": "0b380dfe6f076c827f67e002848ae471", "name": "P6 - Pod Ka\u0161tany (u \u010derven\u00e9ho kontejneru)", "latitude": 50.099328, "longitude": 14.406858, "timestamp": "2025-05-03T03:15:39.300052+00:00Z", "free_bikes": 0, "empty_slots": 5, "extra": {"uid": "340480491", "number": "45770", "slots": 5, "bike_uids": [], "virtual": false}}, {"id": "0b5fddcdfd1e9b01cdca28154f4cbafa", "name": "P1 - U Pra\u0161n\u00e9 br\u00e1ny", "latitude": 50.08745, "longitude": 14.427476, "timestamp": "2025-05-03T03:15:39.151406+00:00Z", "free_bikes": 1, "empty_slots": 9, "extra": {"uid": "27604431", "number": "46221", "slots": 10, "bike_uids": ["480286"], "virtual": false}}, {"id": "0b72976304cd0291db42a2a605dc6e7f", "name": "P1 - \u017dateck\u00e1", "latitude": 50.087501, "longitude": 14.417904, "timestamp": "2025-05-03T03:15:39.190230+00:00Z", "free_bikes": 0, "empty_slots": 8, "extra": {"uid": "94787399", "number": "49471", "slots": 8, "bike_uids": [], "virtual": false}}, {"id": "0c08259ffa42511aa1fc357fe77a4c07", "name": "P7 - Park U Vody (\u017eelezni\u010dn\u00ed most)", "latitude": 50.112089, "longitude": 14.447282, "timestamp": "2025-05-03T03:15:39.378520+00:00Z", "free_bikes": 2, "empty_slots": 6, "extra": {"uid": "469576562", "number": "49125", "slots": 8, "bike_uids": ["480349", "487138"], "virtual": false}}, {"id": "0c549be893d2abcf7c7d1df42ef3d59b", "name": "P8 - Sokolovsk\u00e1 / Pod Plynojemem", "latitude": 50.099389, "longitude": 14.469553, "timestamp": "2025-05-03T03:15:39.301950+00:00Z", "free_bikes": 1, "empty_slots": 11, "extra": {"uid": "372979782", "number": "45844", "slots": 12, "bike_uids": ["480193"], "virtual": false}}, {"id": "0ce4438454cc01f1bacf03a71da39912", "name": "P7 - Oveneck\u00e1 x Letohradsk\u00e1", "latitude": 50.098041, "longitude": 14.425357, "timestamp": "2025-05-03T03:15:39.192548+00:00Z", "free_bikes": 0, "empty_slots": 4, "extra": {"uid": "180836573", "number": "49085", "slots": 4, "bike_uids": [], "virtual": false}}, {"id": "0cf49d2b46bb41073c178b201fb5325f", "name": "P10-Tesco B\u011blocerkevsk\u00e1", "latitude": 50.07264, "longitude": 14.47075, "timestamp": "2025-05-03T03:15:39.120857+00:00Z", "free_bikes": 0, "empty_slots": 10, "extra": {"uid": "27582098", "number": "46016", "slots": 10, "bike_uids": [], "virtual": false}}, {"id": "0cfec244d8b263dfa34eb26d4bd4bb66", "name": "P5 - Sm\u00edchov City", "latitude": 50.067352, "longitude": 14.406747, "timestamp": "2025-05-03T03:15:39.249949+00:00Z", "free_bikes": 4, "empty_slots": 4, "extra": {"uid": "267969221", "number": "45598", "slots": 8, "bike_uids": ["480298", "480186", "481053", "485285"], "virtual": false}}, {"id": "0dbd7ee3e8bc82152e30e7e66d72f285", "name": "P8 - Za Po\u0159\u00ed\u010dskou br\u00e1nou", "latitude": 50.090689, "longitude": 14.439906, "timestamp": "2025-05-03T03:15:39.190737+00:00Z", "free_bikes": 2, "empty_slots": 2, "extra": {"uid": "119534144", "number": "49517", "slots": 4, "bike_uids": ["480364", "487002"], "virtual": false}}, {"id": "0de8c8dadd13a698aac099e1d29714d8", "name": "P3 - Hollarovo n\u00e1m\u011bst\u00ed", "latitude": 50.077228, "longitude": 14.477109, "timestamp": "2025-05-03T03:15:39.155754+00:00Z", "free_bikes": 7, "empty_slots": 3, "extra": {"uid": "27605380", "number": "46345", "slots": 10, "bike_uids": ["482349", "480413", "480327", "480214", "480050", "480009", "485140"], "virtual": false}}, {"id": "0dea2d8d0c352591165efc19a11f49b4", "name": "P7 - U Uranie / V H\u00e1ji", "latitude": 50.105901, "longitude": 14.454241, "timestamp": "2025-05-03T03:15:39.121222+00:00Z", "free_bikes": 1, "empty_slots": 9, "extra": {"uid": "27582516", "number": "46035", "slots": 10, "bike_uids": ["482800"], "virtual": false}}, {"id": "0e4f2e5451d580473ad17b4d0b9dd60d", "name": "P8-U Meteoru", "latitude": 50.109862, "longitude": 14.471237, "timestamp": "2025-05-03T03:15:39.155868+00:00Z", "free_bikes": 1, "empty_slots": 9, "extra": {"uid": "27605419", "number": "46351", "slots": 10, "bike_uids": ["481116"], "virtual": false}}, {"id": "0e5a58f9bab160922bc9aa80f767912c", "name": "P1-V\u00e1clavsk\u00e9 n\u00e1m\u011bst\u00ed", "latitude": 50.08178, "longitude": 14.42649, "timestamp": "2025-05-03T03:15:39.154857+00:00Z", "free_bikes": 0, "empty_slots": 10, "extra": {"uid": "27604958", "number": "46308", "slots": 10, "bike_uids": [], "virtual": false}}, {"id": "0ea30425a078d7629747f33400e46a80", "name": "P2 - Sokolsk\u00e1 / Tyr\u0161ova", "latitude": 50.07285, "longitude": 14.42941, "timestamp": "2025-05-03T03:15:39.191451+00:00Z", "free_bikes": 0, "empty_slots": 2, "extra": {"uid": "148398178", "number": "48544", "slots": 2, "bike_uids": [], "virtual": false}}, {"id": "0ed9fb8c53ab14f7e2f3981fbaa405d2", "name": "P5 - Krajsk\u00fd \u00fa\u0159ad St\u0159edo\u010desk\u00e9ho kraje", "latitude": 50.075043, "longitude": 14.407575, "timestamp": "2025-05-03T03:15:39.380559+00:00Z", "free_bikes": 0, "empty_slots": 5, "extra": {"uid": "495089787", "number": "495405", "slots": 5, "bike_uids": [], "virtual": false}}, {"id": "0eef0048280f892d21b48199e6979ccb", "name": "P6 - Terronsk\u00e1 811/27", "latitude": 50.103875, "longitude": 14.398005, "timestamp": "2025-05-03T03:15:39.251377+00:00Z", "free_bikes": 0, "empty_slots": 5, "extra": {"uid": "293374661", "number": "45691", "slots": 5, "bike_uids": [], "virtual": false}}, {"id": "0f4a5ad75bc2b8a77c90645d0a261129", "name": "P3 - Tachovsk\u00e9 n\u00e1m\u011bst\u00ed (P\u0158ESUNUTO!!!)", "latitude": 50.087309, "longitude": 14.453558, "timestamp": "2025-05-03T03:15:39.188963+00:00Z", "free_bikes": 0, "empty_slots": 0, "extra": {"uid": "40407944", "number": "46824", "slots": 2, "bike_uids": [], "virtual": false}}, {"id": "1017ba68f91aa6dc0783a322feeb2ef8", "name": "P8 - Misouri Park", "latitude": 50.094758, "longitude": 14.445652, "timestamp": "2025-05-03T03:15:39.249529+00:00Z", "free_bikes": 1, "empty_slots": 5, "extra": {"uid": "259847246", "number": "45568", "slots": 6, "bike_uids": ["481238"], "virtual": false}}, {"id": "105d42d0cbaa86e66f1fdd9c393a6fbe", "name": "P7-U Akademie/ vjezd Stromovka", "latitude": 50.10253, "longitude": 14.42342, "timestamp": "2025-05-03T03:15:39.154923+00:00Z", "free_bikes": 0, "empty_slots": 10, "extra": {"uid": "27604982", "number": "46313", "slots": 10, "bike_uids": [], "virtual": false}}, {"id": "10c3614ea1c48468f51b910950c93df2", "name": "P7 - U Smaltovny x \u0160ternberkova", "latitude": 50.101623, "longitude": 14.436378, "timestamp": "2025-05-03T03:15:39.189691+00:00Z", "free_bikes": 0, "empty_slots": 10, "extra": {"uid": "71039860", "number": "48342", "slots": 10, "bike_uids": [], "virtual": false}}, {"id": "10ce20c99bf127eeda6c589c9e09bafb", "name": "P3 - Male\u0161ick\u00e1", "latitude": 50.08593, "longitude": 14.46636, "timestamp": "2025-05-03T03:15:39.188814+00:00Z", "free_bikes": 0, "empty_slots": 2, "extra": {"uid": "40395164", "number": "46839", "slots": 2, "bike_uids": [], "virtual": false}}, {"id": "11029662ba1f89c9cb6bccf6bef58806", "name": "P8 - n\u00e1m Dr. V\u00e1clava Hol\u00e9ho 2", "latitude": 50.106585, "longitude": 14.474168, "timestamp": "2025-05-03T03:15:39.303382+00:00Z", "free_bikes": 1, "empty_slots": 2, "extra": {"uid": "427978586", "number": "45955", "slots": 3, "bike_uids": ["483547"], "virtual": false}}, {"id": "111ef58c2ec3e4b6288d7df443760119", "name": "P1 - roh \u0160irok\u00e1/Maisenova", "latitude": 50.089099, "longitude": 14.418444, "timestamp": "2025-05-03T03:15:39.189412+00:00Z", "free_bikes": 1, "empty_slots": 4, "extra": {"uid": "57054295", "number": "48363", "slots": 5, "bike_uids": ["481373"], "virtual": false}}, {"id": "11939b0159e01ecf7a5548d860f69969", "name": "P1 - V\u00e1clavsk\u00e9 n\u00e1m\u011bst\u00ed spodn\u00ed \u010d\u00e1st 7", "latitude": 50.083821, "longitude": 14.423865, "timestamp": "2025-05-03T03:15:39.298674+00:00Z", "free_bikes": 0, "empty_slots": 8, "extra": {"uid": "296347920", "number": "45711", "slots": 8, "bike_uids": [], "virtual": false}}, {"id": "12a711f728f32289f1fef8e162f5cd42", "name": "P6-Kolejn\u00ed - Sv. Vojt\u011bch", "latitude": 50.10245, "longitude": 14.3863, "timestamp": "2025-05-03T03:15:39.153018+00:00Z", "free_bikes": 3, "empty_slots": 7, "extra": {"uid": "27604550", "number": "46243", "slots": 10, "bike_uids": ["480176", "485097", "485085"], "virtual": false}}, {"id": "12df49b987ef7a14aa718f0ec64578cf", "name": "P18 - Pavla Bene\u0161e, d\u011btsk\u00e9 h\u0159i\u0161t\u011b", "latitude": 50.138237, "longitude": 14.517821, "timestamp": "2025-05-03T03:15:39.188627+00:00Z", "free_bikes": 0, "empty_slots": 10, "extra": {"uid": "35360234", "number": "46873", "slots": 10, "bike_uids": [], "virtual": false}}, {"id": "13292785263408b4cfaf8c8ad49320b4", "name": "P7 - Milady Hor\u00e1kov\u00e9 2", "latitude": 50.099757, "longitude": 14.420533, "timestamp": "2025-05-03T03:15:39.299778+00:00Z", "free_bikes": 0, "empty_slots": 7, "extra": {"uid": "322320974", "number": "45755", "slots": 7, "bike_uids": [], "virtual": false}}, {"id": "13537115cc963730df0fa8ce9824fd40", "name": "P6 - Pu\u0161kinovo n\u00e1m\u011bst\u00ed", "latitude": 50.1029, "longitude": 14.40281, "timestamp": "2025-05-03T03:15:39.153933+00:00Z", "free_bikes": 2, "empty_slots": 8, "extra": {"uid": "27604702", "number": "46270", "slots": 10, "bike_uids": ["480397", "487288"], "virtual": false}}, {"id": "1367d04087d2681a87715e2f064eecf7", "name": "P9 - Drahobejlova", "latitude": 50.104121, "longitude": 14.485144, "timestamp": "2025-05-03T03:15:39.302334+00:00Z", "free_bikes": 0, "empty_slots": 5, "extra": {"uid": "374187053", "number": "45865", "slots": 5, "bike_uids": [], "virtual": false}}, {"id": "137e36f9dc4535868f668bdbaf33284e", "name": "P8 - Pernerova 34", "latitude": 50.090948, "longitude": 14.453362, "timestamp": "2025-05-03T03:15:39.192630+00:00Z", "free_bikes": 3, "empty_slots": 0, "extra": {"uid": "189909263", "number": "49091", "slots": 2, "bike_uids": ["482389", "485050", "485103"], "virtual": false}}, {"id": "139ddff497e691c7dafa2a9ff8263839", "name": "P3-Biskupcova 1733/31", "latitude": 50.09, "longitude": 14.47184, "timestamp": "2025-05-03T03:15:39.187888+00:00Z", "free_bikes": 0, "empty_slots": 10, "extra": {"uid": "27605637", "number": "46384", "slots": 10, "bike_uids": [], "virtual": false}}, {"id": "13a1523de8dd131b48809acef3cf14c6", "name": "P7 - Gar\u00e1\u017ee Letn\u00e1", "latitude": 50.098597, "longitude": 14.415322, "timestamp": "2025-05-03T03:15:39.248856+00:00Z", "free_bikes": 0, "empty_slots": 5, "extra": {"uid": "259756926", "number": "45552", "slots": 5, "bike_uids": [], "virtual": false}}, {"id": "13f72f3a75139ef31f70ef14e573a835", "name": "P1 - park N\u00e1rodn\u00edho Probuzen\u00ed (na kraji chodn\u00edku u cyklotrasy) ", "latitude": 50.082517, "longitude": 14.413226, "timestamp": "2025-05-03T03:15:39.121642+00:00Z", "free_bikes": 2, "empty_slots": 8, "extra": {"uid": "27582831", "number": "46068", "slots": 10, "bike_uids": ["485253", "487256"], "virtual": false}}, {"id": "1406e5bb0ac81313a343baf329e5895d", "name": "P7 - Sportovn\u00ed are\u00e1l Lod\u011bnice", "latitude": 50.11291, "longitude": 14.429977, "timestamp": "2025-05-03T03:15:39.190809+00:00Z", "free_bikes": 0, "empty_slots": 8, "extra": {"uid": "122164318", "number": "49525", "slots": 8, "bike_uids": [], "virtual": false}}, {"id": "1420a6a20206d2be34daf45b8cf98a2d", "name": "P7-\u017delezni\u010d\u00e1\u0159\u016f", "latitude": 50.10779, "longitude": 14.44212, "timestamp": "2025-05-03T03:15:39.153830+00:00Z", "free_bikes": 0, "empty_slots": 10, "extra": {"uid": "27604665", "number": "46265", "slots": 10, "bike_uids": [], "virtual": false}}, {"id": "14a59aabdf9e6556fa82f6729c1f4c06", "name": "P6 - n\u00e1m\u011bst\u00ed\u010dka W\u00fcchterlov\u00e1", "latitude": 50.098285, "longitude": 14.397964, "timestamp": "2025-05-03T03:15:39.189552+00:00Z", "free_bikes": 0, "empty_slots": 8, "extra": {"uid": "61428162", "number": "48377", "slots": 8, "bike_uids": [], "virtual": false}}, {"id": "14c40a9248e31863388d8b28ede60db5", "name": "P8 - metro Invalidovna", "latitude": 50.097184, "longitude": 14.46474, "timestamp": "2025-05-03T03:15:39.190558+00:00Z", "free_bikes": 5, "empty_slots": 0, "extra": {"uid": "114581492", "number": "49500", "slots": 4, "bike_uids": ["480123", "485371", "481228", "487281", "487267"], "virtual": false}}, {"id": "14e91e9caa45b9f1dbff3b249697b4f4", "name": "P2 - M\u00e1nesova / U Kan\u00e1lky", "latitude": 50.07782, "longitude": 14.4459, "timestamp": "2025-05-03T03:15:39.191175+00:00Z", "free_bikes": 0, "empty_slots": 2, "extra": {"uid": "148305043", "number": "49558", "slots": 2, "bike_uids": [], "virtual": false}}, {"id": "152c4766494d0fb69ba4e74c4f67be6a", "name": "P10 - Pod Bohdalcem (v rohu chodn\u00edku u ke\u0159e)", "latitude": 50.05707, "longitude": 14.469245, "timestamp": "2025-05-03T03:15:39.299311+00:00Z", "free_bikes": 2, "empty_slots": 4, "extra": {"uid": "311868921", "number": "45741", "slots": 6, "bike_uids": ["481332", "486963"], "virtual": false}}, {"id": "152c93c13e31905e47281c7efb572662", "name": "P3 - \u0160kroupovo n\u00e1m. x \u0160ev\u010d\u00edkova", "latitude": 50.08065, "longitude": 14.44843, "timestamp": "2025-05-03T03:15:39.188856+00:00Z", "free_bikes": 0, "empty_slots": 2, "extra": {"uid": "40407379", "number": "46835", "slots": 2, "bike_uids": [], "virtual": false}}, {"id": "152f9a464c3ddf0f575bc62cf633b953", "name": "P7 - Varhul\u00edkov\u00e9 (stojany d\u011btsk\u00e9 h\u0159i\u0161t\u011b)", "latitude": 50.111683, "longitude": 14.447451, "timestamp": "2025-05-03T03:15:39.189665+00:00Z", "free_bikes": 1, "empty_slots": 9, "extra": {"uid": "70998309", "number": "48367", "slots": 10, "bike_uids": ["481142"], "virtual": false}}, {"id": "15aca11ff97f179eb3ff359b1c754018", "name": "P6-\u010cVUT Informa\u010dn\u00edch technologi\u00ed", "latitude": 50.10469, "longitude": 14.39005, "timestamp": "2025-05-03T03:15:39.152911+00:00Z", "free_bikes": 1, "empty_slots": 9, "extra": {"uid": "27604515", "number": "46237", "slots": 10, "bike_uids": ["485319"], "virtual": false}}, {"id": "15caccf02d0f21be850d7f07a9418d60", "name": "P4 - Za Brumlovkou", "latitude": 50.047109, "longitude": 14.455814, "timestamp": "2025-05-03T03:15:39.192027+00:00Z", "free_bikes": 0, "empty_slots": 4, "extra": {"uid": "158503260", "number": "49438", "slots": 4, "bike_uids": [], "virtual": false}}, {"id": "15f78489eaa1300cdc901250cf55e21e", "name": "P10 - Stra\u0161nick\u00e1 (v\u00fdstup E3)", "latitude": 50.07277, "longitude": 14.49164, "timestamp": "2025-05-03T03:15:39.154406+00:00Z", "free_bikes": 2, "empty_slots": 7, "extra": {"uid": "27604816", "number": "46290", "slots": 10, "bike_uids": ["480108", "481140"], "virtual": false}}, {"id": "1618f18fc64a7d25bba25f9a5e7b8b5a", "name": "P4 - Vltavan\u016f (na tr\u00e1v\u011b u nab\u00edje\u010dky PRE)", "latitude": 50.027341, "longitude": 14.403485, "timestamp": "2025-05-03T03:15:39.384083+00:00Z", "free_bikes": 1, "empty_slots": 7, "extra": {"uid": "517061165", "number": "495428", "slots": 8, "bike_uids": ["481330"], "virtual": false}}, {"id": "16196f4f5ad687a9117764e0546d07ee", "name": "P3 - Kubel\u00edkova / Chvalova", "latitude": 50.08226, "longitude": 14.45022, "timestamp": "2025-05-03T03:15:39.379038+00:00Z", "free_bikes": 0, "empty_slots": 5, "extra": {"uid": "475151372", "number": "46914", "slots": 5, "bike_uids": [], "virtual": false}}, {"id": "1635145a77e7da3091a60ba1c91df572", "name": "P9 - Nepilova", "latitude": 50.110757, "longitude": 14.495701, "timestamp": "2025-05-03T03:15:39.302516+00:00Z", "free_bikes": 1, "empty_slots": 3, "extra": {"uid": "384420268", "number": "45881", "slots": 4, "bike_uids": ["485269"], "virtual": false}}, {"id": "16411d778bb536f2909008f73ce027a5", "name": "P8 - roh Koll\u00e1rova/ Karl\u00ednsk\u00e9 n\u00e1m.", "latitude": 50.090941, "longitude": 14.44906, "timestamp": "2025-05-03T03:15:39.190339+00:00Z", "free_bikes": 3, "empty_slots": 2, "extra": {"uid": "110558470", "number": "49484", "slots": 5, "bike_uids": ["480280", "485386", "485379"], "virtual": false}}, {"id": "1654988a8f042b98f59daddd38507667", "name": "P6 - Pod Ka\u0161tany (v ohr\u00e1dce za \u0161ipkami)", "latitude": 50.101449, "longitude": 14.409643, "timestamp": "2025-05-03T03:15:39.299988+00:00Z", "free_bikes": 0, "empty_slots": 6, "extra": {"uid": "340474329", "number": "45766", "slots": 6, "bike_uids": [], "virtual": false}}, {"id": "1667aef7ac65c50f51b5d9b160eb40f8", "name": "P18 - Zast\u00e1vka S\u00eddli\u0161t\u011b \u010cakovice", "latitude": 50.157714, "longitude": 14.520139, "timestamp": "2025-05-03T03:15:39.188680+00:00Z", "free_bikes": 0, "empty_slots": 10, "extra": {"uid": "35363530", "number": "46860", "slots": 10, "bike_uids": [], "virtual": false}}, {"id": "16768a5b1f50aac0ac812c0771637be2", "name": "P2 - Vinohradsk\u00e1 65", "latitude": 50.077035, "longitude": 14.443288, "timestamp": "2025-05-03T03:15:39.191617+00:00Z", "free_bikes": 0, "empty_slots": 2, "extra": {"uid": "148401147", "number": "49020", "slots": 2, "bike_uids": [], "virtual": false}}, {"id": "16c1c3609db426270b2824c3a5d4bcbd", "name": "P7 - Kamenick\u00e1 / Kosteln\u00ed ", "latitude": 50.097463, "longitude": 14.428108, "timestamp": "2025-05-03T03:15:39.378618+00:00Z", "free_bikes": 0, "empty_slots": 8, "extra": {"uid": "469650781", "number": "49129", "slots": 8, "bike_uids": [], "virtual": false}}, {"id": "16f250c8bdcc5fc3f19fcdfe92807b83", "name": "P4-Centr\u00e1ln\u00ed park Pankr\u00e1c", "latitude": 50.04985, "longitude": 14.43184, "timestamp": "2025-05-03T03:15:39.188482+00:00Z", "free_bikes": 0, "empty_slots": 10, "extra": {"uid": "33513267", "number": "46898", "slots": 10, "bike_uids": [], "virtual": false}}, {"id": "1731682dca6cad6070e0aece323040e9", "name": "P7-Tusarova/Osadn\u00ed", "latitude": 50.101726, "longitude": 14.447086, "timestamp": "2025-05-03T03:15:39.154752+00:00Z", "free_bikes": 0, "empty_slots": 10, "extra": {"uid": "27604919", "number": "46301", "slots": 10, "bike_uids": [], "virtual": false}}, {"id": "174b88f4a88519b4c36276a3e7034b87", "name": "P8 - Sokolovsk\u00e1 / U Balabenky", "latitude": 50.103528, "longitude": 14.479117, "timestamp": "2025-05-03T03:15:39.302014+00:00Z", "free_bikes": 2, "empty_slots": 2, "extra": {"uid": "372980447", "number": "45846", "slots": 4, "bike_uids": ["481341", "483491"], "virtual": false}}, {"id": "1750031ea8386a6db8d31b11d7927fb0", "name": "P7 - \u0160im\u00e1\u010dkova / Schnirchova", "latitude": 50.103259, "longitude": 14.434513, "timestamp": "2025-05-03T03:15:39.302695+00:00Z", "free_bikes": 0, "empty_slots": 6, "extra": {"uid": "386828143", "number": "45931", "slots": 6, "bike_uids": [], "virtual": false}}, {"id": "178f03cd71354f02478fd37ce9a0cf7c", "name": "P7 - Partyz\u00e1nsk\u00e1", "latitude": 50.108129, "longitude": 14.437156, "timestamp": "2025-05-03T03:15:39.188349+00:00Z", "free_bikes": 3, "empty_slots": 7, "extra": {"uid": "27605778", "number": "46398", "slots": 10, "bike_uids": ["480370", "480068", "485131"], "virtual": false}}, {"id": "17b8ddbf328969c9cad2f269febbc454", "name": "P2 - Ostr\u010dilovo n\u00e1m\u011bst\u00ed - nov\u00e9 stojany", "latitude": 50.065754, "longitude": 14.424489, "timestamp": "2025-05-03T03:15:39.299091+00:00Z", "free_bikes": 3, "empty_slots": 5, "extra": {"uid": "305659688", "number": "45729", "slots": 8, "bike_uids": ["481179", "481108", "487150"], "virtual": false}}, {"id": "17bbf7949cfbc7991888bd0a10e5162f", "name": "P8 - Taussigova", "latitude": 50.128244, "longitude": 14.473291, "timestamp": "2025-05-03T03:15:39.192278+00:00Z", "free_bikes": 0, "empty_slots": 4, "extra": {"uid": "165537745", "number": "49449", "slots": 4, "bike_uids": [], "virtual": false}}, {"id": "18132b24b99f7aafd8f5e40f9f8c270d", "name": "P1-D\u016fm U Hybern\u016f", "latitude": 50.08759, "longitude": 14.42857, "timestamp": "2025-05-03T03:15:39.154282+00:00Z", "free_bikes": 0, "empty_slots": 10, "extra": {"uid": "27604767", "number": "46282", "slots": 10, "bike_uids": [], "virtual": false}}, {"id": "183487dcd2f3a9ae70d4624a2c92127f", "name": "P1 - Ryt\u00ed\u0159sk\u00e1 / Melantrichova", "latitude": 50.084773, "longitude": 14.42211, "timestamp": "2025-05-03T03:15:39.250592+00:00Z", "free_bikes": 0, "empty_slots": 6, "extra": {"uid": "270278855", "number": "45636", "slots": 6, "bike_uids": [], "virtual": false}}, {"id": "189dae06b3d57c030c445f793c68121a", "name": "P3-\u017derot\u00ednova", "latitude": 50.08785, "longitude": 14.46202, "timestamp": "2025-05-03T03:15:39.122740+00:00Z", "free_bikes": 0, "empty_slots": 10, "extra": {"uid": "27583797", "number": "46173", "slots": 10, "bike_uids": [], "virtual": false}}, {"id": "1918fa46cee74837135b74b5715ab502", "name": "P5 - Nemocnice Motol v\u00fdstup z metra E6", "latitude": 50.07532, "longitude": 14.34161, "timestamp": "2025-05-03T03:15:39.121688+00:00Z", "free_bikes": 1, "empty_slots": 9, "extra": {"uid": "27582843", "number": "46070", "slots": 10, "bike_uids": ["485203"], "virtual": false}}, {"id": "1920bc901a9c3debfbc8170bd0cf004e", "name": "P1 - U Malostransk\u00e9 (v\u00fdklenek chodn\u00edku)", "latitude": 50.09144, "longitude": 14.40942, "timestamp": "2025-05-03T03:15:39.251058+00:00Z", "free_bikes": 0, "empty_slots": 6, "extra": {"uid": "276149708", "number": "45670", "slots": 6, "bike_uids": [], "virtual": false}}, {"id": "1936d1bbac5044955deefe099ac613cf", "name": "P8 - Libe\u0148sk\u00fd p\u0159\u00edstav", "latitude": 50.105074, "longitude": 14.468035, "timestamp": "2025-05-03T03:15:39.301478+00:00Z", "free_bikes": 1, "empty_slots": 5, "extra": {"uid": "360841479", "number": "45815", "slots": 6, "bike_uids": ["481333"], "virtual": false}}, {"id": "194ff5c86a899529b6288c5903d4af8c", "name": "P7 - Komunard\u016f", "latitude": 50.103626, "longitude": 14.449862, "timestamp": "2025-05-03T03:15:39.249249+00:00Z", "free_bikes": 2, "empty_slots": 2, "extra": {"uid": "259807091", "number": "45561", "slots": 4, "bike_uids": ["480225", "485305"], "virtual": false}}, {"id": "195225a9f2f7f8ca2b2e8da7ff7cb30b", "name": "P9 - Eagle bistro", "latitude": 50.101375, "longitude": 14.527943, "timestamp": "2025-05-03T03:15:39.247656+00:00Z", "free_bikes": 0, "empty_slots": 6, "extra": {"uid": "222509602", "number": "45364", "slots": 6, "bike_uids": [], "virtual": false}}, {"id": "1960ff4edb59dcda6cf76454bd832cec", "name": "P8 - Pivovarnick\u00e1", "latitude": 50.1094, "longitude": 14.47514, "timestamp": "2025-05-03T03:15:39.191970+00:00Z", "free_bikes": 3, "empty_slots": 0, "extra": {"uid": "155127719", "number": "495512", "slots": 2, "bike_uids": ["485010", "481472", "481208"], "virtual": false}}, {"id": "196e4bfc8709d2db70954830cedcedb6", "name": "P7 - U Pr\u016fhonu 2", "latitude": 50.105385, "longitude": 14.456236, "timestamp": "2025-05-03T03:15:39.301433+00:00Z", "free_bikes": 3, "empty_slots": 6, "extra": {"uid": "357962664", "number": "45810", "slots": 9, "bike_uids": ["482332", "481299", "481283"], "virtual": false}}, {"id": "1995137b3694492d8c474b5a77f40bd4", "name": "P8-Pod Kor\u00e1bem", "latitude": 50.113141, "longitude": 14.472921, "timestamp": "2025-05-03T03:15:39.151450+00:00Z", "free_bikes": 0, "empty_slots": 4, "extra": {"uid": "27604448", "number": "46224", "slots": 4, "bike_uids": [], "virtual": false}}, {"id": "19ca1fb4b5732d675b2ac34110b84531", "name": "P12 - Radnice Prahy 12", "latitude": 50.002278, "longitude": 14.413569, "timestamp": "2025-05-03T03:15:39.189956+00:00Z", "free_bikes": 0, "empty_slots": 4, "extra": {"uid": "86799598", "number": "49417", "slots": 4, "bike_uids": [], "virtual": false}}, {"id": "19e36a695ac7a9e065284263ff807e9f", "name": "P8-\u010cumpel\u00edkova", "latitude": 50.126456, "longitude": 14.460937, "timestamp": "2025-05-03T03:15:39.156463+00:00Z", "free_bikes": 1, "empty_slots": 9, "extra": {"uid": "27605438", "number": "46354", "slots": 10, "bike_uids": ["481331"], "virtual": false}}, {"id": "1a572ea70a8e83b6a8e63ca23edd05a8", "name": "P7 - roh Veletr\u017en\u00ed/Bubene\u010dsk\u00e1", "latitude": 50.102792, "longitude": 14.436856, "timestamp": "2025-05-03T03:15:39.188590+00:00Z", "free_bikes": 0, "empty_slots": 10, "extra": {"uid": "33513554", "number": "46886", "slots": 10, "bike_uids": [], "virtual": false}}, {"id": "1a7c7ca0839d8e733299e5961aa73eee", "name": "P1-Quadrio - Franz Kafka", "latitude": 50.08148, "longitude": 14.42044, "timestamp": "2025-05-03T03:15:39.154891+00:00Z", "free_bikes": 0, "empty_slots": 10, "extra": {"uid": "27604970", "number": "46310", "slots": 10, "bike_uids": [], "virtual": false}}, {"id": "1b2ae8e364be755052b84c0ccbb71226", "name": "P4 - Bohdaleck\u00e9 kvarteto", "latitude": 50.056749, "longitude": 14.4677, "timestamp": "2025-05-03T03:15:39.301334+00:00Z", "free_bikes": 0, "empty_slots": 5, "extra": {"uid": "355789036", "number": "45806", "slots": 5, "bike_uids": [], "virtual": false}}, {"id": "1b3f98d6d1dde09e9e9d2b9ba019f756", "name": "P2 - Vy\u0161ehradsk\u00e1 / Ben\u00e1tsk\u00e1", "latitude": 50.07108, "longitude": 14.41904, "timestamp": "2025-05-03T03:15:39.191484+00:00Z", "free_bikes": 1, "empty_slots": 1, "extra": {"uid": "148398980", "number": "48547", "slots": 2, "bike_uids": ["483531"], "virtual": false}}, {"id": "1be63ca3172003e8ce759c1bdc6ad88e", "name": "P2 - Chopinova (dopravn\u00ed st\u00edn p\u0159ed p\u0159echodem)", "latitude": 50.07972, "longitude": 14.44457, "timestamp": "2025-05-03T03:15:39.191708+00:00Z", "free_bikes": 0, "empty_slots": 2, "extra": {"uid": "148403881", "number": "49070", "slots": 2, "bike_uids": [], "virtual": false}}, {"id": "1c02c3221d7326e733fc0a1e0f555f29", "name": "P4 - S\u0160 Vrbov\u00e1", "latitude": 50.031661, "longitude": 14.425915, "timestamp": "2025-05-03T03:15:39.384370+00:00Z", "free_bikes": 0, "empty_slots": 4, "extra": {"uid": "523402649", "number": "49904", "slots": 4, "bike_uids": [], "virtual": false}}, {"id": "1c187db2caf3086a8d88c7330aa1015a", "name": "P7-Nad Kr\u00e1lovskou oborou", "latitude": 50.103, "longitude": 14.41824, "timestamp": "2025-05-03T03:15:39.154389+00:00Z", "free_bikes": 0, "empty_slots": 10, "extra": {"uid": "27604789", "number": "46287", "slots": 10, "bike_uids": [], "virtual": false}}, {"id": "1c380156b9ea215b2ffcbcdf4cf743b6", "name": "P13 - Minigolf v Centr\u00e1ln\u00edm Parku ", "latitude": 50.048642, "longitude": 14.320709, "timestamp": "2025-05-03T03:15:39.302267+00:00Z", "free_bikes": 0, "empty_slots": 5, "extra": {"uid": "373035358", "number": "45861", "slots": 5, "bike_uids": [], "virtual": false}}, {"id": "1c6c11c23c4cd6440e8e7400c0bfb05e", "name": "P8 - Libe\u0148sk\u00fd z\u00e1mek", "latitude": 50.108438, "longitude": 14.47209, "timestamp": "2025-05-03T03:15:39.302089+00:00Z", "free_bikes": 0, "empty_slots": 8, "extra": {"uid": "372981417", "number": "45849", "slots": 8, "bike_uids": [], "virtual": false}}, {"id": "1c7e8d154f9af956b73eb9e2e5727cab", "name": "P6 - Klubovna", "latitude": 50.098419, "longitude": 14.388484, "timestamp": "2025-05-03T03:15:39.379634+00:00Z", "free_bikes": 0, "empty_slots": 5, "extra": {"uid": "486455564", "number": "47059", "slots": 5, "bike_uids": [], "virtual": false}}, {"id": "1cd4aa126ebce537f4a8ef230ffbad49", "name": "P18 - Zast\u00e1vka S\u00eddli\u0161t\u011b Let\u0148any", "latitude": 50.142541, "longitude": 14.506593, "timestamp": "2025-05-03T03:15:39.154117+00:00Z", "free_bikes": 1, "empty_slots": 9, "extra": {"uid": "27604738", "number": "46277", "slots": 10, "bike_uids": ["480129"], "virtual": false}}, {"id": "1d0e60176e83f29c9b57fc47059f0bbc", "name": "P3 - Spojovac\u00ed, chodn\u00edk p\u0159ed parkem", "latitude": 50.09349, "longitude": 14.49668, "timestamp": "2025-05-03T03:15:39.188942+00:00Z", "free_bikes": 0, "empty_slots": 2, "extra": {"uid": "40407777", "number": "46827", "slots": 2, "bike_uids": [], "virtual": false}}, {"id": "1d80fecf4905b83a91e4cdfc9619433d", "name": "P9 - Sokolovsk\u00e1 / Podvinn\u00fd ml\u00fdn", "latitude": 50.106064, "longitude": 14.486366, "timestamp": "2025-05-03T03:15:39.302159+00:00Z", "free_bikes": 0, "empty_slots": 5, "extra": {"uid": "372982676", "number": "45853", "slots": 5, "bike_uids": [], "virtual": false}}, {"id": "1db3400e2a2ad91ced27edc2e7c73b6f", "name": "P3 - \u0160rob\u00e1rova 38", "latitude": 50.07597, "longitude": 14.4678, "timestamp": "2025-05-03T03:15:39.378831+00:00Z", "free_bikes": 1, "empty_slots": 3, "extra": {"uid": "475147526", "number": "46911", "slots": 4, "bike_uids": ["482336"], "virtual": false}}, {"id": "1dbe776e84faf7153d2324ddeed09265", "name": "P3-Husitsk\u00e1 - Prokopova", "latitude": 50.08712, "longitude": 14.45156, "timestamp": "2025-05-03T03:15:39.121027+00:00Z", "free_bikes": 0, "empty_slots": 10, "extra": {"uid": "27582405", "number": "46025", "slots": 10, "bike_uids": [], "virtual": false}}, {"id": "1dc91b34c8a9c474a9ebce4cc0786fc9", "name": "P3 - Hotel V\u00edtkov", "latitude": 50.09019, "longitude": 14.468271, "timestamp": "2025-05-03T03:15:39.249911+00:00Z", "free_bikes": 0, "empty_slots": 5, "extra": {"uid": "267947495", "number": "45596", "slots": 5, "bike_uids": [], "virtual": false}}, {"id": "1dd88a39d17cb446670f8d6ffd61d763", "name": "P9 - Iscare", "latitude": 50.10345, "longitude": 14.495269, "timestamp": "2025-05-03T03:15:39.189130+00:00Z", "free_bikes": 0, "empty_slots": 10, "extra": {"uid": "56005542", "number": "48352", "slots": 10, "bike_uids": [], "virtual": false}}, {"id": "1ddd8ae1f7f0e54a4014e681ca20d87c", "name": "P4 - T\u00e1borsk\u00e1 - Metropolitn\u00ed um\u011bleck\u00e1 \u0161kola", "latitude": 50.06266, "longitude": 14.44064, "timestamp": "2025-05-03T03:15:39.122509+00:00Z", "free_bikes": 0, "empty_slots": 4, "extra": {"uid": "27583563", "number": "46153", "slots": 4, "bike_uids": [], "virtual": false}}, {"id": "1e5eeb8973d6c1975b704ff3251857c2", "name": "P8 - metro Kobylisy (Klapkova X V Brance) - v\u00fdstup E7", "latitude": 50.123846, "longitude": 14.45576, "timestamp": "2025-05-03T03:15:39.192212+00:00Z", "free_bikes": 0, "empty_slots": 4, "extra": {"uid": "165533123", "number": "49444", "slots": 4, "bike_uids": [], "virtual": false}}, {"id": "1ef3a330e70a6b4069a994fd47a628ff", "name": "P14 - Lidl, Hloub\u011bt\u00edn", "latitude": 50.109846, "longitude": 14.536222, "timestamp": "2025-05-03T03:15:39.302506+00:00Z", "free_bikes": 0, "empty_slots": 5, "extra": {"uid": "384356164", "number": "45880", "slots": 5, "bike_uids": [], "virtual": false}}, {"id": "1f4148546361013d362e866b061e1e6a", "name": "P3 - Sudom\u011b\u0159sk\u00e1", "latitude": 50.082054, "longitude": 14.457739, "timestamp": "2025-05-03T03:15:39.303240+00:00Z", "free_bikes": 0, "empty_slots": 6, "extra": {"uid": "413569071", "number": "45947", "slots": 6, "bike_uids": [], "virtual": false}}, {"id": "1f547a681c92c31e303b3e0ba08e09a1", "name": "P1 - \u0160kolsk\u00e1", "latitude": 50.077461, "longitude": 14.423967, "timestamp": "2025-05-03T03:15:39.299364+00:00Z", "free_bikes": 0, "empty_slots": 6, "extra": {"uid": "312063728", "number": "45744", "slots": 6, "bike_uids": [], "virtual": false}}, {"id": "1f5b2bee320dab85d595f8d997e08c40", "name": "P2 - Ke Karlovu / Na Boji\u0161ti", "latitude": 50.07307, "longitude": 14.42716, "timestamp": "2025-05-03T03:15:39.191155+00:00Z", "free_bikes": 0, "empty_slots": 2, "extra": {"uid": "148304652", "number": "49556", "slots": 2, "bike_uids": [], "virtual": false}}, {"id": "1fa730426365d5833882fda3aecaa2cf", "name": "P8-V Z\u00e1mc\u00edch", "latitude": 50.13712, "longitude": 14.39565, "timestamp": "2025-05-03T03:15:39.122794+00:00Z", "free_bikes": 3, "empty_slots": 7, "extra": {"uid": "27604068", "number": "46181", "slots": 10, "bike_uids": ["485077", "481464", "483492"], "virtual": false}}, {"id": "1fc82329458fcf563bd59dea03f54c26", "name": "P6-Jugosl\u00e1vsk\u00fdch partyz\u00e1n\u016f", "latitude": 50.105848, "longitude": 14.394488, "timestamp": "2025-05-03T03:15:39.151523+00:00Z", "free_bikes": 0, "empty_slots": 10, "extra": {"uid": "27604465", "number": "46228", "slots": 10, "bike_uids": [], "virtual": false}}, {"id": "2015f21918540fc197eb2cfbb04cf2a8", "name": "P7 - OC Stromovka - zadn\u00ed vchod", "latitude": 50.10228, "longitude": 14.429809, "timestamp": "2025-05-03T03:15:39.248958+00:00Z", "free_bikes": 0, "empty_slots": 5, "extra": {"uid": "259774599", "number": "45555", "slots": 5, "bike_uids": [], "virtual": false}}, {"id": "202defd5e12c611e94bee9be713ba2a2", "name": "P1- V\u00e1clavsk\u00e9 n\u00e1m\u011bst\u00ed spodn\u00ed \u010d\u00e1st 1 (v\u00fdstup E5)", "latitude": 50.083961, "longitude": 14.423992, "timestamp": "2025-05-03T03:15:39.151373+00:00Z", "free_bikes": 0, "empty_slots": 10, "extra": {"uid": "27604367", "number": "46217", "slots": 10, "bike_uids": [], "virtual": false}}, {"id": "2039d5911e09be08e2aa862d1b2c0220", "name": "P8 - K\u0159i\u017e\u00edkova 66", "latitude": 50.093584, "longitude": 14.456263, "timestamp": "2025-05-03T03:15:39.299261+00:00Z", "free_bikes": 0, "empty_slots": 6, "extra": {"uid": "310823450", "number": "45738", "slots": 6, "bike_uids": [], "virtual": false}}, {"id": "20a92c7dedcecc9d3d4f4cc5860fd209", "name": "P1- Malostransk\u00e1 (tram)", "latitude": 50.090834, "longitude": 14.410184, "timestamp": "2025-05-03T03:15:39.155664+00:00Z", "free_bikes": 3, "empty_slots": 7, "extra": {"uid": "27605364", "number": "46342", "slots": 10, "bike_uids": ["480119", "481460", "483478"], "virtual": false}}, {"id": "20ce129e51a8cb6878287fb43836adbf", "name": "P9 - AFI city tower", "latitude": 50.110951, "longitude": 14.517067, "timestamp": "2025-05-03T03:15:39.247688+00:00Z", "free_bikes": 1, "empty_slots": 4, "extra": {"uid": "225333011", "number": "45494", "slots": 5, "bike_uids": ["483646"], "virtual": false}}, {"id": "22418fe80ee7b7c14e50b3524e715a1c", "name": "P6 - Evropsk\u00e1 - Banskobystrick\u00e1 (v\u00fdstup E4)", "latitude": 50.10028, "longitude": 14.39206, "timestamp": "2025-05-03T03:15:39.153442+00:00Z", "free_bikes": 0, "empty_slots": 10, "extra": {"uid": "27604567", "number": "46246", "slots": 10, "bike_uids": [], "virtual": false}}, {"id": "227ce771448092bb40db2afe7cab9f9e", "name": "P9-U Proseck\u00e9ho Kostela", "latitude": 50.11817, "longitude": 14.49426, "timestamp": "2025-05-03T03:15:39.122367+00:00Z", "free_bikes": 0, "empty_slots": 10, "extra": {"uid": "27583467", "number": "46142", "slots": 10, "bike_uids": [], "virtual": false}}, {"id": "23129a4121249f2e7137f1f6142527b4", "name": "P1-TSK \u0158\u00e1snovka", "latitude": 50.09227, "longitude": 14.42525, "timestamp": "2025-05-03T03:15:39.120960+00:00Z", "free_bikes": 0, "empty_slots": 10, "extra": {"uid": "27582367", "number": "46021", "slots": 10, "bike_uids": [], "virtual": false}}, {"id": "236bce8001258c38d23eba381d3adf0e", "name": "P18 - T\u0159eboradice - u kostela", "latitude": 50.162677, "longitude": 14.525248, "timestamp": "2025-05-03T03:15:39.188750+00:00Z", "free_bikes": 0, "empty_slots": 10, "extra": {"uid": "35404613", "number": "46849", "slots": 10, "bike_uids": [], "virtual": false}}, {"id": "239e35ed31ff34f3bcad514404ef325d", "name": "P7 - Tusarova/Osadn\u00ed 3", "latitude": 50.101413, "longitude": 14.447133, "timestamp": "2025-05-03T03:15:39.249342+00:00Z", "free_bikes": 0, "empty_slots": 6, "extra": {"uid": "259816892", "number": "45563", "slots": 6, "bike_uids": [], "virtual": false}}, {"id": "23cc81807710c4f4f1f23e93f29c1262", "name": "P1-Nemocnice na Franti\u0161ku", "latitude": 50.092863, "longitude": 14.421322, "timestamp": "2025-05-03T03:15:39.122718+00:00Z", "free_bikes": 3, "empty_slots": 7, "extra": {"uid": "27583780", "number": "46171", "slots": 10, "bike_uids": ["482305", "481090", "481216"], "virtual": false}}, {"id": "242407140924cbefb012206f42d699e5", "name": "P9 - Kolbenova / Po\u0161tovsk\u00e1", "latitude": 50.110407, "longitude": 14.509786, "timestamp": "2025-05-03T03:15:39.302530+00:00Z", "free_bikes": 0, "empty_slots": 4, "extra": {"uid": "384421619", "number": "45882", "slots": 4, "bike_uids": [], "virtual": false}}, {"id": "24759720415c21bf3d7e483a1f14766d", "name": "P1 - Havelsk\u00e1 (mezi zna\u010dkou a stromem)", "latitude": 50.08556, "longitude": 14.42194, "timestamp": "2025-05-03T03:15:39.250561+00:00Z", "free_bikes": 0, "empty_slots": 5, "extra": {"uid": "270275580", "number": "45634", "slots": 5, "bike_uids": [], "virtual": false}}, {"id": "247fd43c64d150e359cc9f620edfe3b4", "name": "P7 - Nad \u0160tolou / Dobrovsk\u00e9ho", "latitude": 50.098653, "longitude": 14.422597, "timestamp": "2025-05-03T03:15:39.379811+00:00Z", "free_bikes": 0, "empty_slots": 8, "extra": {"uid": "491518520", "number": "495403", "slots": 8, "bike_uids": [], "virtual": false}}, {"id": "24e0b979d3aee3e8e161b2b7318b003f", "name": "P9 - Modr\u00e9ho (na kraji vozovky)", "latitude": 50.106206, "longitude": 14.524684, "timestamp": "2025-05-03T03:15:39.299966+00:00Z", "free_bikes": 6, "empty_slots": 2, "extra": {"uid": "340472103", "number": "45765", "slots": 8, "bike_uids": ["480363", "480356", "480288", "481110", "485179", "481344"], "virtual": false}}, {"id": "255d8c751647d3cdbff395ca3b34a2b2", "name": "P7 - Osadn\u00ed / U Pr\u016fhonu", "latitude": 50.104993, "longitude": 14.446606, "timestamp": "2025-05-03T03:15:39.379768+00:00Z", "free_bikes": 1, "empty_slots": 7, "extra": {"uid": "491516477", "number": "495400", "slots": 8, "bike_uids": ["481260"], "virtual": false}}, {"id": "256c316132f4086fe5414db68fc7b631", "name": "P3 - Hartigova x Spojovac\u00ed", "latitude": 50.092, "longitude": 14.49722, "timestamp": "2025-05-03T03:15:39.188931+00:00Z", "free_bikes": 0, "empty_slots": 2, "extra": {"uid": "40407743", "number": "46828", "slots": 2, "bike_uids": [], "virtual": false}}, {"id": "25c250f34c6aa1251b7f6d2eb23eb185", "name": "P1 - Klimentsk\u00e1 (naproti Hotelu Moods)", "latitude": 50.092212, "longitude": 14.430817, "timestamp": "2025-05-03T03:15:39.122674+00:00Z", "free_bikes": 2, "empty_slots": 8, "extra": {"uid": "27583736", "number": "48351", "slots": 10, "bike_uids": ["485341", "481433"], "virtual": false}}, {"id": "25d62f0b5b96c7c5fd9584cdb553510e", "name": "P9 - Ocel\u00e1\u0159sk\u00e1 / Kurta Konr\u00e1da", "latitude": 50.104321, "longitude": 14.488637, "timestamp": "2025-05-03T03:15:39.302281+00:00Z", "free_bikes": 2, "empty_slots": 3, "extra": {"uid": "374186123", "number": "45862", "slots": 5, "bike_uids": ["481066", "485286"], "virtual": false}}, {"id": "269edad130e8ed753a49492a9308ceff", "name": "P2 - Neklanova x P\u0159emyslova", "latitude": 50.066441, "longitude": 14.421197, "timestamp": "2025-05-03T03:15:39.247349+00:00Z", "free_bikes": 2, "empty_slots": 2, "extra": {"uid": "210957137", "number": "45002", "slots": 4, "bike_uids": ["483680", "486996"], "virtual": false}}, {"id": "26dcbc7f1c37bf3f2023874829fff5dd", "name": "P8 - River Garden Office I", "latitude": 50.09487, "longitude": 14.45084, "timestamp": "2025-05-03T03:15:39.249597+00:00Z", "free_bikes": 1, "empty_slots": 7, "extra": {"uid": "259851997", "number": "45569", "slots": 8, "bike_uids": ["485322"], "virtual": false}}, {"id": "26eb775d36b7722cc8805ecdd7be869b", "name": "P7-U Stud\u00e1nky", "latitude": 50.10228, "longitude": 14.42846, "timestamp": "2025-05-03T03:15:39.155020+00:00Z", "free_bikes": 0, "empty_slots": 10, "extra": {"uid": "27605103", "number": "46319", "slots": 10, "bike_uids": [], "virtual": false}}, {"id": "270a3410aa31c74cb81ac74fceeefe80", "name": "P7 - Muzejn\u00ed", "latitude": 50.09717, "longitude": 14.424006, "timestamp": "2025-05-03T03:15:39.299247+00:00Z", "free_bikes": 0, "empty_slots": 8, "extra": {"uid": "309940375", "number": "45737", "slots": 8, "bike_uids": [], "virtual": false}}, {"id": "271459c94509fa00e87df71229c20481", "name": "P8 - roh K\u0159i\u017e\u00edkova/ V\u00edtkova", "latitude": 50.091151, "longitude": 14.445128, "timestamp": "2025-05-03T03:15:39.190382+00:00Z", "free_bikes": 0, "empty_slots": 5, "extra": {"uid": "112720001", "number": "49487", "slots": 5, "bike_uids": [], "virtual": false}}, {"id": "27666ebeda15817146a9bacee9e78bf4", "name": "P7 - Jate\u010dn\u00ed / Stupkova", "latitude": 50.100794, "longitude": 14.445944, "timestamp": "2025-05-03T03:15:39.378744+00:00Z", "free_bikes": 0, "empty_slots": 5, "extra": {"uid": "474458208", "number": "49347", "slots": 5, "bike_uids": [], "virtual": false}}, {"id": "277ec3a0b4b632080c4d3080ffae6401", "name": "P1 - Al\u0161ovo n\u00e1b\u0159e\u017e\u00ed (za sloupky na b\u00edl\u00e9m chodn\u00edku)", "latitude": 50.08809, "longitude": 14.41414, "timestamp": "2025-05-03T03:15:39.250997+00:00Z", "free_bikes": 1, "empty_slots": 7, "extra": {"uid": "276122487", "number": "45665", "slots": 8, "bike_uids": ["485229"], "virtual": false}}, {"id": "2791eeeaf99e9a7d59d51688b3a13c8d", "name": "P8 - Pernerova / Peckova (dopravn\u00ed st\u00edn)", "latitude": 50.089932, "longitude": 14.447944, "timestamp": "2025-05-03T03:15:39.192530+00:00Z", "free_bikes": 1, "empty_slots": 5, "extra": {"uid": "180275983", "number": "49084", "slots": 6, "bike_uids": ["481413"], "virtual": false}}, {"id": "27b009b44a76a4cc5fb4d654bec5d769", "name": "P13 - Hostinsk\u00e9ho (roh chodn\u00edku)", "latitude": 50.046011, "longitude": 14.314439, "timestamp": "2025-05-03T03:15:39.300957+00:00Z", "free_bikes": 0, "empty_slots": 7, "extra": {"uid": "351189828", "number": "45793", "slots": 7, "bike_uids": [], "virtual": false}}, {"id": "27f845d89d474b145df42d71864a7cd2", "name": "P8 - Sokolovsk\u00e1 x U Po\u0161ty", "latitude": 50.102776, "longitude": 14.476832, "timestamp": "2025-05-03T03:15:39.247438+00:00Z", "free_bikes": 0, "empty_slots": 5, "extra": {"uid": "221326820", "number": "45350", "slots": 5, "bike_uids": [], "virtual": false}}, {"id": "28ab598f34530a8c3b6043f961f944d3", "name": "P7-Kruhov\u00fd objezd U Pr\u016fhonu", "latitude": 50.10528, "longitude": 14.45538, "timestamp": "2025-05-03T03:15:39.154344+00:00Z", "free_bikes": 4, "empty_slots": 6, "extra": {"uid": "27604780", "number": "46285", "slots": 10, "bike_uids": ["480261", "485025", "485112", "487202"], "virtual": false}}, {"id": "294c11871a270b9d84780a80ef3d6cd2", "name": "P2 - Slovensk\u00e1 / Francouzsk\u00e1", "latitude": 50.07266, "longitude": 14.44318, "timestamp": "2025-05-03T03:15:39.191238+00:00Z", "free_bikes": 0, "empty_slots": 2, "extra": {"uid": "148306545", "number": "49565", "slots": 2, "bike_uids": [], "virtual": false}}, {"id": "29e2cf4be4ae7f9494ba121f24168415", "name": "P7 - Jankovcova/ Varhul\u00edkov\u00e9", "latitude": 50.110279, "longitude": 14.451967, "timestamp": "2025-05-03T03:15:39.190795+00:00Z", "free_bikes": 2, "empty_slots": 2, "extra": {"uid": "120922399", "number": "49524", "slots": 4, "bike_uids": ["480255", "485089"], "virtual": false}}, {"id": "2a286092b9c30ac94321b2fef0ee4de9", "name": "P4-Sdru\u017een\u00ed", "latitude": 50.05472, "longitude": 14.4429, "timestamp": "2025-05-03T03:15:39.122493+00:00Z", "free_bikes": 0, "empty_slots": 10, "extra": {"uid": "27583556", "number": "46152", "slots": 10, "bike_uids": [], "virtual": false}}, {"id": "2a4283b7825633c27baf1c7f34085ea1", "name": "P7 - Veletr\u017en\u00ed / Strojnick\u00e1", "latitude": 50.101296, "longitude": 14.428181, "timestamp": "2025-05-03T03:15:39.249717+00:00Z", "free_bikes": 1, "empty_slots": 4, "extra": {"uid": "265694136", "number": "45588", "slots": 5, "bike_uids": ["483493"], "virtual": false}}, {"id": "2a66d421d03837fa6126a89f64dad6b2", "name": "P1 - OD Kotva (u z\u00e1bradl\u00ed)", "latitude": 50.08844, "longitude": 14.42715, "timestamp": "2025-05-03T03:15:39.250470+00:00Z", "free_bikes": 0, "empty_slots": 6, "extra": {"uid": "270246515", "number": "45627", "slots": 6, "bike_uids": [], "virtual": false}}, {"id": "2a8564603e18e9f4dfc34992f483e0c2", "name": "P1 - Vrchlick\u00e9ho sady", "latitude": 50.082441, "longitude": 14.432447, "timestamp": "2025-05-03T03:15:39.250109+00:00Z", "free_bikes": 0, "empty_slots": 5, "extra": {"uid": "270172454", "number": "45606", "slots": 5, "bike_uids": [], "virtual": false}}, {"id": "2aa35bff97d9d42345f1f5247b77e2d2", "name": "P7 - Vlakov\u00e9 n\u00e1dra\u017e\u00ed Hole\u0161ovice 2 (v\u00fdstup E8)", "latitude": 50.109711, "longitude": 14.439179, "timestamp": "2025-05-03T03:15:39.121309+00:00Z", "free_bikes": 8, "empty_slots": 2, "extra": {"uid": "27582604", "number": "46046", "slots": 10, "bike_uids": ["482304", "480079", "480015", "485094", "481145", "485381", "485250", "487156"], "virtual": false}}, {"id": "2abefe5f75d4b5addfc0035141fdc0b6", "name": "P4 - Kublov", "latitude": 50.054405, "longitude": 14.417879, "timestamp": "2025-05-03T03:15:39.192475+00:00Z", "free_bikes": 1, "empty_slots": 9, "extra": {"uid": "178915787", "number": "49081", "slots": 10, "bike_uids": ["481030"], "virtual": false}}, {"id": "2ad8b0b94173d4c8f8b596b659c44d7c", "name": "P18-OC Let\u0148any", "latitude": 50.13517, "longitude": 14.50323, "timestamp": "2025-05-03T03:15:39.122218+00:00Z", "free_bikes": 1, "empty_slots": 9, "extra": {"uid": "27583301", "number": "46124", "slots": 10, "bike_uids": ["481265"], "virtual": false}}, {"id": "2b1597e188e285412b2a36ef74057321", "name": "P7 - Kamenick\u00e1 x U Akademie", "latitude": 50.102624, "longitude": 14.425945, "timestamp": "2025-05-03T03:15:39.189739+00:00Z", "free_bikes": 0, "empty_slots": 10, "extra": {"uid": "71040987", "number": "48346", "slots": 10, "bike_uids": [], "virtual": false}}, {"id": "2b1a8b86454a785adeb7995e4a55db66", "name": "P8 - Palmovka Open Park II", "latitude": 50.1052, "longitude": 14.470727, "timestamp": "2025-05-03T03:15:39.303445+00:00Z", "free_bikes": 2, "empty_slots": 3, "extra": {"uid": "428298936", "number": "45957", "slots": 5, "bike_uids": ["482388", "481352"], "virtual": false}}, {"id": "2b55f10dcd2f636fdb2e54171803156f", "name": "P8 - Norma, Kobylisy", "latitude": 50.12862, "longitude": 14.47629, "timestamp": "2025-05-03T03:15:39.122383+00:00Z", "free_bikes": 0, "empty_slots": 10, "extra": {"uid": "27583477", "number": "46143", "slots": 10, "bike_uids": [], "virtual": false}}, {"id": "2b6f8a5c9b1c2d2c2b132a7f163552cc", "name": "P1 - Soukenick\u00e1 (mezi sloupky na kraji chodn\u00edku)", "latitude": 50.09106, "longitude": 14.4294, "timestamp": "2025-05-03T03:15:39.250288+00:00Z", "free_bikes": 0, "empty_slots": 6, "extra": {"uid": "270188760", "number": "45616", "slots": 6, "bike_uids": [], "virtual": false}}, {"id": "2c10d9764ec38cd5fe27eac909f33f12", "name": "P1 - Za T\u00fdnsk\u00fdm chr\u00e1mem", "latitude": 50.087584, "longitude": 14.423189, "timestamp": "2025-05-03T03:15:39.302858+00:00Z", "free_bikes": 0, "empty_slots": 9, "extra": {"uid": "393918209", "number": "45941", "slots": 9, "bike_uids": [], "virtual": false}}, {"id": "2c77b715e6dc9f90a5421e5ac7815855", "name": "P9 - Drahobejlova / Kurta Konr\u00e1da", "latitude": 50.105172, "longitude": 14.487904, "timestamp": "2025-05-03T03:15:39.302304+00:00Z", "free_bikes": 0, "empty_slots": 5, "extra": {"uid": "374186482", "number": "45863", "slots": 5, "bike_uids": [], "virtual": false}}, {"id": "2ce8201c11244b4d2c48e4235ecdb141", "name": "P3 - Jeseniova x Zelenky Hajsk\u00e9ho", "latitude": 50.088131, "longitude": 14.467255, "timestamp": "2025-05-03T03:15:39.250932+00:00Z", "free_bikes": 0, "empty_slots": 4, "extra": {"uid": "276096236", "number": "45659", "slots": 4, "bike_uids": [], "virtual": false}}, {"id": "2d58d7bbd2d3cdff903ffb585e537cff", "name": "P8-Elsnicovo n\u00e1m\u011bst\u00ed", "latitude": 50.107014, "longitude": 14.470673, "timestamp": "2025-05-03T03:15:39.151221+00:00Z", "free_bikes": 5, "empty_slots": 5, "extra": {"uid": "27604270", "number": "46208", "slots": 10, "bike_uids": ["480323", "481035", "485396", "485147", "481469"], "virtual": false}}, {"id": "2d7b854d5610b73e04ea0f2ab799695b", "name": "P3 - ul. Na Vrcholu/V Dom\u011b", "latitude": 50.093825, "longitude": 14.488794, "timestamp": "2025-05-03T03:15:39.189844+00:00Z", "free_bikes": 0, "empty_slots": 10, "extra": {"uid": "76058296", "number": "49404", "slots": 10, "bike_uids": [], "virtual": false}}, {"id": "2dc141b551b37fb4bd653d3d68c84dc6", "name": "P1 - metro M\u016fstek (v\u00fdstup E12)", "latitude": 50.082034, "longitude": 14.42612, "timestamp": "2025-05-03T03:15:39.155700+00:00Z", "free_bikes": 0, "empty_slots": 9, "extra": {"uid": "27605367", "number": "46343", "slots": 10, "bike_uids": [], "virtual": false}}, {"id": "2e761920430d58251cd3342e8b76adda", "name": "P5-n\u00e1m\u011bst\u00ed Kinsk\u00fdch 1", "latitude": 50.07892, "longitude": 14.40446, "timestamp": "2025-05-03T03:15:39.188408+00:00Z", "free_bikes": 7, "empty_slots": 3, "extra": {"uid": "27605810", "number": "46402", "slots": 10, "bike_uids": ["480305", "485390", "485177", "481264", "481232", "483511", "487113"], "virtual": false}}, {"id": "2e7c525a185563a4421273766653c3ef", "name": "P7-U M\u011bstsk\u00e9ho pivovaru", "latitude": 50.106, "longitude": 14.44691, "timestamp": "2025-05-03T03:15:39.152997+00:00Z", "free_bikes": 0, "empty_slots": 10, "extra": {"uid": "27604544", "number": "46242", "slots": 10, "bike_uids": [], "virtual": false}}, {"id": "2e88be4a629bf2591a41c55a9679a2d5", "name": "P7 - Veletr\u017en\u00ed Pal\u00e1c", "latitude": 50.100848, "longitude": 14.433056, "timestamp": "2025-05-03T03:15:39.299202+00:00Z", "free_bikes": 0, "empty_slots": 8, "extra": {"uid": "308715322", "number": "45734", "slots": 8, "bike_uids": [], "virtual": false}}, {"id": "2f03daf51528e5d6e534551fa346155f", "name": "P8 - B\u0159ezinova 24", "latitude": 50.09464, "longitude": 14.455959, "timestamp": "2025-05-03T03:15:39.190465+00:00Z", "free_bikes": 1, "empty_slots": 4, "extra": {"uid": "113209491", "number": "49493", "slots": 5, "bike_uids": ["480024"], "virtual": false}}, {"id": "2f349cd9f66fb1147edf332189852c2a", "name": "P3-N\u00e1m\u011bst\u00ed Barik\u00e1d - \u010cern\u00ednova", "latitude": 50.08842, "longitude": 14.46196, "timestamp": "2025-05-03T03:15:39.156781+00:00Z", "free_bikes": 0, "empty_slots": 10, "extra": {"uid": "27605557", "number": "46373", "slots": 10, "bike_uids": [], "virtual": false}}, {"id": "2f4e7538ca153a3d4a3801837be2417f", "name": "P2 - Camp", "latitude": 50.073103, "longitude": 14.417405, "timestamp": "2025-05-03T03:15:39.190027+00:00Z", "free_bikes": 1, "empty_slots": 3, "extra": {"uid": "90277450", "number": "49464", "slots": 4, "bike_uids": ["481036"], "virtual": false}}, {"id": "2f6ebb337d942d3614af38f189af1f88", "name": "P5 - Na Kn\u00ed\u017eec\u00ed 2 (nepou\u017e\u00edvan\u00e1 \u010d\u00e1st silnice s kolejemi uprost\u0159ed)", "latitude": 50.068306, "longitude": 14.403941, "timestamp": "2025-05-03T03:15:39.298929+00:00Z", "free_bikes": 4, "empty_slots": 8, "extra": {"uid": "305644008", "number": "45722", "slots": 12, "bike_uids": ["482362", "481225", "487336", "487255"], "virtual": false}}, {"id": "2f709b01c8885833b9c0b85cf6ffcb06", "name": "P8 - K\u0159i\u017e\u00edkova 3", "latitude": 50.093242, "longitude": 14.451821, "timestamp": "2025-05-03T03:15:39.302420+00:00Z", "free_bikes": 3, "empty_slots": 9, "extra": {"uid": "378068475", "number": "45870", "slots": 12, "bike_uids": ["485136", "481303", "483488"], "virtual": false}}, {"id": "2f92a99d92d37a0c7cdd7ac706c58495", "name": "P4-Na Mlejnku", "latitude": 50.03467, "longitude": 14.40979, "timestamp": "2025-05-03T03:15:39.188493+00:00Z", "free_bikes": 5, "empty_slots": 5, "extra": {"uid": "33513328", "number": "46895", "slots": 10, "bike_uids": ["480403", "480352", "485036", "485296", "487496"], "virtual": false}}, {"id": "2fe2540c92d7e01add374222f5e09ff2", "name": "P9 - Kr\u00e1tk\u00e9ho", "latitude": 50.111124, "longitude": 14.500747, "timestamp": "2025-05-03T03:15:39.302486+00:00Z", "free_bikes": 0, "empty_slots": 5, "extra": {"uid": "384345773", "number": "45878", "slots": 5, "bike_uids": [], "virtual": false}}, {"id": "2fee835cf46a65bce50c83deba5cf3b5", "name": "P3 - \u017delivsk\u00e9ho (v\u00fdstup E3)", "latitude": 50.078651, "longitude": 14.474098, "timestamp": "2025-05-03T03:15:39.192004+00:00Z", "free_bikes": 0, "empty_slots": 2, "extra": {"uid": "158049788", "number": "45515", "slots": 2, "bike_uids": [], "virtual": false}}, {"id": "2fff6ae36d7492dc6d6c4c1d97737f55", "name": "P13 - Kaufland, Stod\u016flky", "latitude": 50.05188, "longitude": 14.3359, "timestamp": "2025-05-03T03:15:39.301237+00:00Z", "free_bikes": 0, "empty_slots": 11, "extra": {"uid": "351195733", "number": "45801", "slots": 11, "bike_uids": [], "virtual": false}}, {"id": "3000403e464c30faddd9e8ceb668166c", "name": "P5 - Galerie Butovice - p\u0159ed vstupem", "latitude": 50.04819, "longitude": 14.3544, "timestamp": "2025-05-03T03:15:39.121443+00:00Z", "free_bikes": 0, "empty_slots": 10, "extra": {"uid": "27582679", "number": "46055", "slots": 10, "bike_uids": [], "virtual": false}}, {"id": "30cf8993242802212ee1c6138a5bc0ce", "name": "P8- DOCK IN (nov\u011b u vody)", "latitude": 50.105201, "longitude": 14.469541, "timestamp": "2025-05-03T03:15:39.155404+00:00Z", "free_bikes": 0, "empty_slots": 10, "extra": {"uid": "27605207", "number": "46336", "slots": 10, "bike_uids": [], "virtual": false}}, {"id": "313af22895bcc7b52f40111bf4fd1684", "name": "P6 - \u0160abach\u016fv park", "latitude": 50.098101, "longitude": 14.397158, "timestamp": "2025-05-03T03:15:39.303641+00:00Z", "free_bikes": 0, "empty_slots": 5, "extra": {"uid": "463407205", "number": "49114", "slots": 5, "bike_uids": [], "virtual": false}}, {"id": "3227e99417a6026596692a4554a37143", "name": "P5 - Laurov\u00e1 (na tr\u00e1v\u011b u b\u00edl\u00e9ho sloupku)", "latitude": 50.061064, "longitude": 14.398157, "timestamp": "2025-05-03T03:15:39.299075+00:00Z", "free_bikes": 0, "empty_slots": 5, "extra": {"uid": "305649558", "number": "45728", "slots": 5, "bike_uids": [], "virtual": false}}, {"id": "3234885e5ef0009ce962157ddb0d898d", "name": "P8 - Na Rokytce / n\u00e1m. Dr. V\u00e1clava Hol\u00e9ho", "latitude": 50.106992, "longitude": 14.473864, "timestamp": "2025-05-03T03:15:39.303531+00:00Z", "free_bikes": 0, "empty_slots": 7, "extra": {"uid": "451853435", "number": "45997", "slots": 7, "bike_uids": [], "virtual": false}}, {"id": "324df6f07e6746fe5902e4d1b2a20d0b", "name": "P8 - Kotlaska / Pod H\u00e1jkem", "latitude": 50.10605, "longitude": 14.47891, "timestamp": "2025-05-03T03:15:39.303656+00:00Z", "free_bikes": 0, "empty_slots": 7, "extra": {"uid": "464259006", "number": "49115", "slots": 7, "bike_uids": [], "virtual": false}}, {"id": "328d4e65493fd189ea1e5b7407f4541e", "name": "P8 - \u00daAN Florenc - parkovi\u0161t\u011b", "latitude": 50.089518, "longitude": 14.43915, "timestamp": "2025-05-03T03:15:39.383904+00:00Z", "free_bikes": 0, "empty_slots": 5, "extra": {"uid": "514521293", "number": "495422", "slots": 5, "bike_uids": [], "virtual": false}}, {"id": "32d4c23fd06b8a8e4553b2300304f00f", "name": "P9 - UNYP ar\u00e9na (dopravn\u00ed st\u00edn)", "latitude": 50.10792, "longitude": 14.487147, "timestamp": "2025-05-03T03:15:39.302193+00:00Z", "free_bikes": 0, "empty_slots": 5, "extra": {"uid": "372983331", "number": "45855", "slots": 5, "bike_uids": [], "virtual": false}}, {"id": "3303f336d9a2351f9d7429011215f23a", "name": "P7 - \u010cechova", "latitude": 50.100129, "longitude": 14.421356, "timestamp": "2025-05-03T03:15:39.299793+00:00Z", "free_bikes": 0, "empty_slots": 4, "extra": {"uid": "322321800", "number": "45756", "slots": 4, "bike_uids": [], "virtual": false}}, {"id": "334afa7cc75172463be912fa9f943608", "name": "P8 - U Invalidovny", "latitude": 50.09756, "longitude": 14.463535, "timestamp": "2025-05-03T03:15:39.298485+00:00Z", "free_bikes": 4, "empty_slots": 8, "extra": {"uid": "293757147", "number": "45698", "slots": 12, "bike_uids": ["480056", "485261", "481431", "481312"], "virtual": false}}, {"id": "3375a19c5a15b0cbf507778e6582f0a9", "name": "P7 - Pod Havr\u00e1nkou Galerie", "latitude": 50.115801, "longitude": 14.418501, "timestamp": "2025-05-03T03:15:39.122856+00:00Z", "free_bikes": 4, "empty_slots": 6, "extra": {"uid": "27604140", "number": "46190", "slots": 10, "bike_uids": ["480267", "485065", "485146", "487297"], "virtual": false}}, {"id": "33960ca8b42be88e81b7e4c4b2ab5d2f", "name": "P7 - Osadn\u00ed / U Pr\u016fhonu 2", "latitude": 50.104918, "longitude": 14.446903, "timestamp": "2025-05-03T03:15:39.379794+00:00Z", "free_bikes": 0, "empty_slots": 5, "extra": {"uid": "491516650", "number": "495401", "slots": 5, "bike_uids": [], "virtual": false}}, {"id": "349f90a9f6de32c449fe44284e32df51", "name": "P7 - Jana Zaj\u00edce x U Sparty", "latitude": 50.100458, "longitude": 14.416913, "timestamp": "2025-05-03T03:15:39.247534+00:00Z", "free_bikes": 0, "empty_slots": 5, "extra": {"uid": "221346570", "number": "45355", "slots": 5, "bike_uids": [], "virtual": false}}, {"id": "34ae9905551d38798de072dc7ad69e89", "name": "P7 - Pod Salabkou", "latitude": 50.119116, "longitude": 14.410608, "timestamp": "2025-05-03T03:15:39.190638+00:00Z", "free_bikes": 3, "empty_slots": 3, "extra": {"uid": "117833916", "number": "49509", "slots": 6, "bike_uids": ["485064", "481370", "483567"], "virtual": false}}, {"id": "34b1cfe7b9727ed01502cc1339315276", "name": "P8 - roh Koll\u00e1rova/Sokolovsk\u00e1 (\u010cesk\u00e1 Po\u0161ta)", "latitude": 50.09326, "longitude": 14.448186, "timestamp": "2025-05-03T03:15:39.190353+00:00Z", "free_bikes": 5, "empty_slots": 5, "extra": {"uid": "110560719", "number": "49485", "slots": 10, "bike_uids": ["482357", "480229", "485335", "485225", "483504"], "virtual": false}}, {"id": "350a082047c26248db64e0c800ef9719", "name": "P1 - Masn\u00e1", "latitude": 50.0893, "longitude": 14.42379, "timestamp": "2025-05-03T03:15:39.250434+00:00Z", "free_bikes": 0, "empty_slots": 4, "extra": {"uid": "270238635", "number": "45624", "slots": 4, "bike_uids": [], "virtual": false}}, {"id": "352084ff506e114d389df48ff4aba63d", "name": "P2-TYLOVO N\u00c1M\u011aST\u00cd - Jugosl\u00e1vsk\u00e1", "latitude": 50.07531, "longitude": 14.43187, "timestamp": "2025-05-03T03:15:39.156596+00:00Z", "free_bikes": 0, "empty_slots": 10, "extra": {"uid": "27605484", "number": "46361", "slots": 10, "bike_uids": [], "virtual": false}}, {"id": "3555580e2e4c97070e98ba24eb3c5931", "name": "P1 - Hlavn\u00ed n\u00e1dra\u017e\u00ed (stojany v parku)", "latitude": 50.084083, "longitude": 14.433482, "timestamp": "2025-05-03T03:15:39.379617+00:00Z", "free_bikes": 0, "empty_slots": 8, "extra": {"uid": "485101559", "number": "47028", "slots": 8, "bike_uids": [], "virtual": false}}, {"id": "3570bad2473b5c5a75b88b38bdcac3cb", "name": "P2 - Bud\u011b\u010dsk\u00e1 / M\u00e1nesova", "latitude": 50.07765, "longitude": 14.44201, "timestamp": "2025-05-03T03:15:39.191101+00:00Z", "free_bikes": 0, "empty_slots": 2, "extra": {"uid": "148303711", "number": "49551", "slots": 2, "bike_uids": [], "virtual": false}}, {"id": "357e579a2357e475e652d638236a6562", "name": "P4 - Podolsk\u00e1 vod\u00e1rna", "latitude": 50.058434, "longitude": 14.419218, "timestamp": "2025-05-03T03:15:39.192449+00:00Z", "free_bikes": 1, "empty_slots": 9, "extra": {"uid": "178238410", "number": "49080", "slots": 10, "bike_uids": ["482351"], "virtual": false}}, {"id": "35933bed31aea55a23e8b36cdacb410b", "name": "P9 - Odkolkova II", "latitude": 50.113257, "longitude": 14.503775, "timestamp": "2025-05-03T03:15:39.302496+00:00Z", "free_bikes": 0, "empty_slots": 8, "extra": {"uid": "384346597", "number": "45879", "slots": 8, "bike_uids": [], "virtual": false}}, {"id": "3593c7165a196f197e54952be3c8c00d", "name": "P4 - Ka\u010derov 2 (dopravn\u00ed st\u00edn)", "latitude": 50.042585, "longitude": 14.45958, "timestamp": "2025-05-03T03:15:39.301298+00:00Z", "free_bikes": 1, "empty_slots": 4, "extra": {"uid": "352284860", "number": "45805", "slots": 5, "bike_uids": ["481163"], "virtual": false}}, {"id": "35b348e461495d4881e223fa380948e5", "name": "P8 - AFI Karl\u00edn", "latitude": 50.091898, "longitude": 14.457021, "timestamp": "2025-05-03T03:15:39.192436+00:00Z", "free_bikes": 0, "empty_slots": 2, "extra": {"uid": "177196151", "number": "49062", "slots": 2, "bike_uids": [], "virtual": false}}, {"id": "35ce22d183b51ce251c8d9c99c490824", "name": "P3-Prokopovo n\u00e1m\u011bst\u00ed", "latitude": 50.08651, "longitude": 14.45276, "timestamp": "2025-05-03T03:15:39.121048+00:00Z", "free_bikes": 0, "empty_slots": 10, "extra": {"uid": "27582427", "number": "46026", "slots": 10, "bike_uids": [], "virtual": false}}, {"id": "35eab28691c00262d80d4966e9fbf3d4", "name": "P9 - Vyso\u010dansk\u00e1 (v\u00fdstup E8)", "latitude": 50.110113, "longitude": 14.501601, "timestamp": "2025-05-03T03:15:39.247988+00:00Z", "free_bikes": 2, "empty_slots": 7, "extra": {"uid": "232068286", "number": "45519", "slots": 9, "bike_uids": ["480347", "481379"], "virtual": false}}, {"id": "35f1972da7b6dab3015ef5b1e8e7a59f", "name": "P7 - Port7 - Dover", "latitude": 50.111922, "longitude": 14.441727, "timestamp": "2025-05-03T03:15:39.192162+00:00Z", "free_bikes": 0, "empty_slots": 8, "extra": {"uid": "164929241", "number": "49443", "slots": 8, "bike_uids": [], "virtual": false}}, {"id": "3633e9e44677d014ebc10e59620ab49d", "name": "P8 - Op\u00e1lkova, P metro L\u00e1dv\u00ed", "latitude": 50.126803, "longitude": 14.46731, "timestamp": "2025-05-03T03:15:39.192245+00:00Z", "free_bikes": 0, "empty_slots": 4, "extra": {"uid": "165536230", "number": "49447", "slots": 4, "bike_uids": [], "virtual": false}}, {"id": "36add45a7a810c24502b86a0193ae406", "name": "P2 - Folimanka - vstup", "latitude": 50.066474, "longitude": 14.426807, "timestamp": "2025-05-03T03:15:39.248184+00:00Z", "free_bikes": 1, "empty_slots": 3, "extra": {"uid": "237796422", "number": "45529", "slots": 4, "bike_uids": ["480160"], "virtual": false}}, {"id": "36ef26c6ff0ac97d4dc64db455da2b0d", "name": "P5 - Radlick\u00e1 - Metro \u010cSOB", "latitude": 50.05807, "longitude": 14.3887, "timestamp": "2025-05-03T03:15:39.121538+00:00Z", "free_bikes": 0, "empty_slots": 10, "extra": {"uid": "27582793", "number": "46062", "slots": 10, "bike_uids": [], "virtual": false}}, {"id": "36fd795559bd5ad7c79d437a08df32f5", "name": "P1 - Dlouh\u00e1 t\u0159\u00edda", "latitude": 50.09196, "longitude": 14.42739, "timestamp": "2025-05-03T03:15:39.250320+00:00Z", "free_bikes": 0, "empty_slots": 5, "extra": {"uid": "270193001", "number": "45618", "slots": 5, "bike_uids": [], "virtual": false}}, {"id": "376af9450f6c961a6b8c4e75d84ebddb", "name": "P10-Finan\u010dn\u00edho \u00fa\u0159adu pro Prahu 10", "latitude": 50.063152, "longitude": 14.454306, "timestamp": "2025-05-03T03:15:39.122194+00:00Z", "free_bikes": 1, "empty_slots": 9, "extra": {"uid": "27583292", "number": "46123", "slots": 10, "bike_uids": ["482345"], "virtual": false}}, {"id": "376ffd409b6a85052cac2a71246433cb", "name": "P1 - Sokol (chodn\u00edk u zdi) ", "latitude": 50.08317, "longitude": 14.40464, "timestamp": "2025-05-03T03:15:39.155236+00:00Z", "free_bikes": 3, "empty_slots": 7, "extra": {"uid": "27605189", "number": "46333", "slots": 10, "bike_uids": ["481430", "481304", "483637"], "virtual": false}}, {"id": "37a7fe2014468cdf5f7a140cec7e73b9", "name": "P1 - V\u00e1clavsk\u00e9 n\u00e1m\u011bst\u00ed spodn\u00ed \u010d\u00e1st 5", "latitude": 50.08306, "longitude": 14.425266, "timestamp": "2025-05-03T03:15:39.298644+00:00Z", "free_bikes": 0, "empty_slots": 8, "extra": {"uid": "296346779", "number": "45709", "slots": 8, "bike_uids": [], "virtual": false}}, {"id": "37ed1adbca15a6fbf67e4bba20bdf25c", "name": "P13 - Such\u00fd vr\u0161ek (vyasfaltovan\u00e1 \u010d\u00e1st chodn\u00edku)", "latitude": 50.048131, "longitude": 14.343925, "timestamp": "2025-05-03T03:15:39.301067+00:00Z", "free_bikes": 0, "empty_slots": 7, "extra": {"uid": "351193324", "number": "45798", "slots": 7, "bike_uids": [], "virtual": false}}, {"id": "387f51a7339954248854cb1c049335a4", "name": "P1 - P\u0161trossova (za sloupky)", "latitude": 50.0795, "longitude": 14.41548, "timestamp": "2025-05-03T03:15:39.250855+00:00Z", "free_bikes": 2, "empty_slots": 3, "extra": {"uid": "270304384", "number": "45653", "slots": 5, "bike_uids": ["480362", "480234"], "virtual": false}}, {"id": "38cd0d071fe8c0619c37a368476223fd", "name": "P2 - Jana Masaryka / Var\u0161avsk\u00e1", "latitude": 50.07226, "longitude": 14.43975, "timestamp": "2025-05-03T03:15:39.191145+00:00Z", "free_bikes": 0, "empty_slots": 2, "extra": {"uid": "148304334", "number": "49555", "slots": 2, "bike_uids": [], "virtual": false}}, {"id": "3917a97c24bc5a2402835b1b3844150e", "name": "P8 - Ly\u010dkovo n\u00e1m\u011bst\u00ed 1", "latitude": 50.093175, "longitude": 14.458029, "timestamp": "2025-05-03T03:15:39.301896+00:00Z", "free_bikes": 0, "empty_slots": 6, "extra": {"uid": "372978385", "number": "45840", "slots": 6, "bike_uids": [], "virtual": false}}, {"id": "392d57721f7fdf1849e774de3bd8e7cc", "name": "P6 - Jih P\u00edseck\u00e9 br\u00e1ny", "latitude": 50.09456, "longitude": 14.40599, "timestamp": "2025-05-03T03:15:39.151162+00:00Z", "free_bikes": 0, "empty_slots": 10, "extra": {"uid": "27604239", "number": "46203", "slots": 10, "bike_uids": [], "virtual": false}}, {"id": "395ba32f49b4345d77ee198b21b7357e", "name": "P3-V Kapslovn\u011b 2765/15", "latitude": 50.08704, "longitude": 14.46317, "timestamp": "2025-05-03T03:15:39.156765+00:00Z", "free_bikes": 0, "empty_slots": 10, "extra": {"uid": "27605550", "number": "46372", "slots": 10, "bike_uids": [], "virtual": false}}, {"id": "397c7bab2d6c23bcf579aba79ac80e87", "name": "P8 - Pob\u0159e\u017en\u00ed / Prvn\u00edho pluku", "latitude": 50.092683, "longitude": 14.441695, "timestamp": "2025-05-03T03:15:39.299131+00:00Z", "free_bikes": 4, "empty_slots": 1, "extra": {"uid": "306202653", "number": "45730", "slots": 5, "bike_uids": ["480405", "485235", "485216", "486984"], "virtual": false}}, {"id": "399f76b2f0032083a1267d53faf82e82", "name": "P3 - Kubel\u00edkova / T\u00e1boritsk\u00e1", "latitude": 50.0826, "longitude": 14.45486, "timestamp": "2025-05-03T03:15:39.378856+00:00Z", "free_bikes": 0, "empty_slots": 4, "extra": {"uid": "475149779", "number": "46912", "slots": 4, "bike_uids": [], "virtual": false}}, {"id": "39c76ce520bfeb5f6faba0fbe588bf22", "name": "P3 - Jana \u017delivsk\u00e9ho (Anna Prolet\u00e1\u0159ka)", "latitude": 50.087957, "longitude": 14.469343, "timestamp": "2025-05-03T03:15:39.189087+00:00Z", "free_bikes": 0, "empty_slots": 2, "extra": {"uid": "54752169", "number": "46138", "slots": 2, "bike_uids": [], "virtual": false}}, {"id": "3a01afce459875807bd38de5c270fb6d", "name": "P8 - Pernerova / V\u00edtkova (dopravn\u00ed st\u00edn)", "latitude": 50.089561, "longitude": 14.446158, "timestamp": "2025-05-03T03:15:39.192510+00:00Z", "free_bikes": 4, "empty_slots": 4, "extra": {"uid": "180274732", "number": "49083", "slots": 8, "bike_uids": ["485354", "485351", "485294", "481474"], "virtual": false}}, {"id": "3a48ff18d72483bc8810bbd4ce82d004", "name": "P18 - d\u011btsk\u00e9 h\u0159i\u0161t\u011b Nov\u00fd Prosek", "latitude": 50.1291, "longitude": 14.500558, "timestamp": "2025-05-03T03:15:39.192407+00:00Z", "free_bikes": 0, "empty_slots": 4, "extra": {"uid": "174185530", "number": "49458", "slots": 4, "bike_uids": [], "virtual": false}}, {"id": "3a55c88dba87dfb0cb3fa851a0901d63", "name": "P1 - \u0160irok\u00e1 / Du\u0161n\u00ed", "latitude": 50.089752, "longitude": 14.420805, "timestamp": "2025-05-03T03:15:39.250374+00:00Z", "free_bikes": 0, "empty_slots": 8, "extra": {"uid": "270233540", "number": "45621", "slots": 8, "bike_uids": [], "virtual": false}}, {"id": "3a8a1200714be5719e1dae64c0a473d8", "name": "P6 - Mari\u00e1nsk\u00e9 hradby (za betonov\u00fdmi sloupky)", "latitude": 50.09477, "longitude": 14.40738, "timestamp": "2025-05-03T03:15:39.251084+00:00Z", "free_bikes": 0, "empty_slots": 10, "extra": {"uid": "276151593", "number": "45672", "slots": 10, "bike_uids": [], "virtual": false}}, {"id": "3aa87d0a29f793109d949409214bcff6", "name": "P2 - Trojick\u00e1 / Pod Slovany (vodorovn\u00e9 zna\u010den\u00ed)", "latitude": 50.070787, "longitude": 14.416823, "timestamp": "2025-05-03T03:15:39.250074+00:00Z", "free_bikes": 0, "empty_slots": 2, "extra": {"uid": "268023009", "number": "45603", "slots": 2, "bike_uids": [], "virtual": false}}, {"id": "3aad4f168ff8f4dac6beb5d2ed4d82e0", "name": "P8-Danube House", "latitude": 50.094376, "longitude": 14.44443, "timestamp": "2025-05-03T03:15:39.154979+00:00Z", "free_bikes": 5, "empty_slots": 5, "extra": {"uid": "27605071", "number": "46317", "slots": 10, "bike_uids": ["480216", "481178", "481157", "481252", "487215"], "virtual": false}}, {"id": "3ac393e7ddc16e1b44bccc4d209d9699", "name": "P18 - ve\u010derka Chot\u011b\u0161ovsk\u00e1", "latitude": 50.127732, "longitude": 14.502284, "timestamp": "2025-05-03T03:15:39.189141+00:00Z", "free_bikes": 0, "empty_slots": 10, "extra": {"uid": "56356429", "number": "48353", "slots": 10, "bike_uids": [], "virtual": false}}, {"id": "3b422497c6235d00d169e7391cf083ac", "name": "P8 - Sokolovsk\u00e1 / Nekvasilova", "latitude": 50.098679, "longitude": 14.467688, "timestamp": "2025-05-03T03:15:39.301926+00:00Z", "free_bikes": 0, "empty_slots": 6, "extra": {"uid": "372979452", "number": "45843", "slots": 6, "bike_uids": [], "virtual": false}}, {"id": "3b6a57454743809f3fa006f17c3dc508", "name": "P1 - Pod Pet\u0159\u00ednem (za lavi\u010dkami)", "latitude": 50.08436, "longitude": 14.40257, "timestamp": "2025-05-03T03:15:39.251105+00:00Z", "free_bikes": 0, "empty_slots": 5, "extra": {"uid": "276160082", "number": "45675", "slots": 5, "bike_uids": [], "virtual": false}}, {"id": "3b90a0ec2ce02cb91db56c549a277ace", "name": "P2 - I.P. Pavlova (v\u00fdstup E2)", "latitude": 50.075469, "longitude": 14.430554, "timestamp": "2025-05-03T03:15:39.383790+00:00Z", "free_bikes": 0, "empty_slots": 6, "extra": {"uid": "500125651", "number": "495417", "slots": 6, "bike_uids": [], "virtual": false}}, {"id": "3bbd01072e673a3a19e9de730efead7e", "name": "P5-U Tyr\u0161ovy \u0161koly", "latitude": 50.05223, "longitude": 14.36927, "timestamp": "2025-05-03T03:15:39.121422+00:00Z", "free_bikes": 1, "empty_slots": 9, "extra": {"uid": "27582671", "number": "46054", "slots": 10, "bike_uids": ["481339"], "virtual": false}}, {"id": "3bc1e9e6825cd6a2bb8a908c90bff50f", "name": "P6 - Bo\u0159islavka (v\u00fdstup E5)", "latitude": 50.09836, "longitude": 14.365262, "timestamp": "2025-05-03T03:15:39.155373+00:00Z", "free_bikes": 0, "empty_slots": 10, "extra": {"uid": "27605199", "number": "46335", "slots": 10, "bike_uids": [], "virtual": false}}, {"id": "3c384526a254e451bcc2e0d9490cd705", "name": "P4 - Sokol Podol\u00ed", "latitude": 50.053898, "longitude": 14.418727, "timestamp": "2025-05-03T03:15:39.426982+00:00Z", "free_bikes": 0, "empty_slots": 6, "extra": {"uid": "531984201", "number": "49912", "slots": 6, "bike_uids": [], "virtual": false}}, {"id": "3c6cc0775122c5b2acee7dd92a1f7088", "name": "P8 - U \u010cesk\u00fdch lod\u011bnic", "latitude": 50.108037, "longitude": 14.466993, "timestamp": "2025-05-03T03:15:39.302204+00:00Z", "free_bikes": 2, "empty_slots": 7, "extra": {"uid": "372983815", "number": "45856", "slots": 9, "bike_uids": ["481718", "480295"], "virtual": false}}, {"id": "3cabd9ac1041ceb95ba875a7f037fc9b", "name": "P1 - Nerudova / Z\u00e1meck\u00e1", "latitude": 50.088568, "longitude": 14.401943, "timestamp": "2025-05-03T03:15:39.248011+00:00Z", "free_bikes": 2, "empty_slots": 3, "extra": {"uid": "232075364", "number": "45520", "slots": 5, "bike_uids": ["483482", "487316"], "virtual": false}}, {"id": "3cd243058d2470d56264bfaeedae1e4c", "name": "P3 - Vinohradsk\u00e1", "latitude": 50.078311, "longitude": 14.472843, "timestamp": "2025-05-03T03:15:39.192047+00:00Z", "free_bikes": 0, "empty_slots": 2, "extra": {"uid": "159196648", "number": "49236", "slots": 2, "bike_uids": [], "virtual": false}}, {"id": "3d7f77b3c1e27a97ebb28eb5e283578f", "name": "P8 - koleje 17.listopadu", "latitude": 50.116574, "longitude": 14.442092, "timestamp": "2025-05-03T03:15:39.189992+00:00Z", "free_bikes": 0, "empty_slots": 8, "extra": {"uid": "89572673", "number": "49461", "slots": 8, "bike_uids": [], "virtual": false}}, {"id": "3dc731283e4480ebcbbd28470c4394ec", "name": "P8 - Pernerova 22", "latitude": 50.090613, "longitude": 14.451679, "timestamp": "2025-05-03T03:15:39.303744+00:00Z", "free_bikes": 1, "empty_slots": 4, "extra": {"uid": "464287794", "number": "49117", "slots": 5, "bike_uids": ["485311"], "virtual": false}}, {"id": "3dd0cbeb19a4be4767bf37438ba17bef", "name": "P8 - roh Urxova / Petra Slez\u00e1ka", "latitude": 50.094665, "longitude": 14.457482, "timestamp": "2025-05-03T03:15:39.190479+00:00Z", "free_bikes": 1, "empty_slots": 4, "extra": {"uid": "113209668", "number": "49494", "slots": 5, "bike_uids": ["481422"], "virtual": false}}, {"id": "3de3ab64c930dfdc6c781215cb3c4e6c", "name": "P3-Rokycanova - Jeseniova - Prokopova", "latitude": 50.08498, "longitude": 14.45555, "timestamp": "2025-05-03T03:15:39.188398+00:00Z", "free_bikes": 0, "empty_slots": 10, "extra": {"uid": "27605801", "number": "46401", "slots": 10, "bike_uids": [], "virtual": false}}, {"id": "3e0073277fba7931f1de9dde4a3e7561", "name": "P6 - Pod Kotl\u00e1\u0159kou", "latitude": 50.107054, "longitude": 14.38714, "timestamp": "2025-05-03T03:15:39.383892+00:00Z", "free_bikes": 0, "empty_slots": 5, "extra": {"uid": "508866435", "number": "495420", "slots": 5, "bike_uids": [], "virtual": false}}, {"id": "3ea577b7184a9a89951b03dce02211a9", "name": "P4 - V N\u00e1kl\u00edch", "latitude": 50.023276, "longitude": 14.402686, "timestamp": "2025-05-03T03:15:39.384072+00:00Z", "free_bikes": 0, "empty_slots": 8, "extra": {"uid": "517059967", "number": "495427", "slots": 8, "bike_uids": [], "virtual": false}}, {"id": "3eeb4c257e583cbbfbb318f793411e18", "name": "P3 - Buchovcova", "latitude": 50.09101, "longitude": 14.47245, "timestamp": "2025-05-03T03:15:39.379498+00:00Z", "free_bikes": 0, "empty_slots": 5, "extra": {"uid": "475153986", "number": "46917", "slots": 5, "bike_uids": [], "virtual": false}}, {"id": "3f215c7ff0df07c029b0da9a0e59d9b4", "name": "P10 - Moskevsk\u00e1 27", "latitude": 50.069178, "longitude": 14.454301, "timestamp": "2025-05-03T03:15:39.192564+00:00Z", "free_bikes": 0, "empty_slots": 6, "extra": {"uid": "189876988", "number": "49087", "slots": 6, "bike_uids": [], "virtual": false}}, {"id": "3f46d30b692f787a36dbc4602587dd02", "name": "P5 - Palack\u00e9ho most / Ho\u0159ej\u0161\u00ed n\u00e1b\u0159. ", "latitude": 50.072784, "longitude": 14.410156, "timestamp": "2025-05-03T03:15:39.303290+00:00Z", "free_bikes": 1, "empty_slots": 3, "extra": {"uid": "413618316", "number": "45952", "slots": 4, "bike_uids": ["480236"], "virtual": false}}, {"id": "3fb3d206fd92066eba825166b82b2c6d", "name": "P9 - Kolbenova", "latitude": 50.110423, "longitude": 14.515114, "timestamp": "2025-05-03T03:15:39.302540+00:00Z", "free_bikes": 0, "empty_slots": 10, "extra": {"uid": "384422657", "number": "45883", "slots": 10, "bike_uids": [], "virtual": false}}, {"id": "4047ec2d52e8feb59ef8a763e9fdc454", "name": "P18 - Kade\u010dkov\u00e9", "latitude": 50.140757, "longitude": 14.521973, "timestamp": "2025-05-03T03:15:39.188637+00:00Z", "free_bikes": 0, "empty_slots": 10, "extra": {"uid": "35360612", "number": "46870", "slots": 10, "bike_uids": [], "virtual": false}}, {"id": "404f3a8affb6089cd8061ec376de5e3d", "name": "P6-Kaufland Podbaba", "latitude": 50.11166, "longitude": 14.3925, "timestamp": "2025-05-03T03:15:39.153968+00:00Z", "free_bikes": 0, "empty_slots": 10, "extra": {"uid": "27604711", "number": "46271", "slots": 10, "bike_uids": [], "virtual": false}}, {"id": "4062a1cc2e4ba4c33b635125c8ee3a5c", "name": "P2 - Slezsk\u00e1", "latitude": 50.076332, "longitude": 14.448776, "timestamp": "2025-05-03T03:15:39.191029+00:00Z", "free_bikes": 0, "empty_slots": 2, "extra": {"uid": "148118776", "number": "468371", "slots": 2, "bike_uids": [], "virtual": false}}, {"id": "407cd641470dd32e0c4a5fe4c74b1b51", "name": "P2-Palack\u00e9ho n\u00e1m\u011bst\u00ed - Ra\u0161\u00ednovo n\u00e1b\u0159e\u017e\u00ed", "latitude": 50.07272, "longitude": 14.41431, "timestamp": "2025-05-03T03:15:39.151501+00:00Z", "free_bikes": 2, "empty_slots": 7, "extra": {"uid": "27604462", "number": "46227", "slots": 10, "bike_uids": ["481322", "481211"], "virtual": false}}, {"id": "40c13327432accddef740d407961551c", "name": "P4-\u017dlut\u00e9 l\u00e1zn\u011b", "latitude": 50.04852, "longitude": 14.41457, "timestamp": "2025-05-03T03:15:39.121286+00:00Z", "free_bikes": 1, "empty_slots": 2, "extra": {"uid": "27582597", "number": "46045", "slots": 4, "bike_uids": ["485306"], "virtual": false}}, {"id": "412f5f15213a33259bca2232e8dcd0a8", "name": "P7-Z\u0160 Korunova\u010dn\u00ed", "latitude": 50.100528, "longitude": 14.41991, "timestamp": "2025-05-03T03:15:39.154521+00:00Z", "free_bikes": 0, "empty_slots": 10, "extra": {"uid": "27604839", "number": "46293", "slots": 10, "bike_uids": [], "virtual": false}}, {"id": "4135045140dbdca0497e65f9c3fce93a", "name": "P3 - Ol\u0161ansk\u00e9 n\u00e1m\u011bst\u00ed", "latitude": 50.082106, "longitude": 14.45934, "timestamp": "2025-05-03T03:15:39.299684+00:00Z", "free_bikes": 0, "empty_slots": 4, "extra": {"uid": "317389761", "number": "45750", "slots": 4, "bike_uids": [], "virtual": false}}, {"id": "415340fd3accdebe0717776e83d1d0d5", "name": "P3 - Sabinova / Rokycanova", "latitude": 50.085863, "longitude": 14.455346, "timestamp": "2025-05-03T03:15:39.303252+00:00Z", "free_bikes": 0, "empty_slots": 4, "extra": {"uid": "413579425", "number": "45950", "slots": 4, "bike_uids": [], "virtual": false}}, {"id": "415feb4bfe627ff85ef6745b1e7191ea", "name": "P7 - Podho\u0159\u00ed", "latitude": 50.12298, "longitude": 14.39842, "timestamp": "2025-05-03T03:15:39.122772+00:00Z", "free_bikes": 6, "empty_slots": 3, "extra": {"uid": "27583818", "number": "46175", "slots": 10, "bike_uids": ["480169", "480032", "485029", "485338", "481419", "491531"], "virtual": false}}, {"id": "41bd0378bea1c7ad6fac08d9abf6febb", "name": "P2 - Hlavn\u00ed n\u00e1dra\u017e\u00ed - v\u00fdchod \u017di\u017ekov", "latitude": 50.083073, "longitude": 14.438202, "timestamp": "2025-05-03T03:15:39.190920+00:00Z", "free_bikes": 0, "empty_slots": 10, "extra": {"uid": "134200326", "number": "49535", "slots": 10, "bike_uids": [], "virtual": false}}, {"id": "42836e268476506c49c6d864c60b01bd", "name": "P6 - Terronsk\u00e1 1128/26", "latitude": 50.104701, "longitude": 14.397714, "timestamp": "2025-05-03T03:15:39.298356+00:00Z", "free_bikes": 2, "empty_slots": 3, "extra": {"uid": "293375620", "number": "45692", "slots": 5, "bike_uids": ["480185", "481113"], "virtual": false}}, {"id": "42999552421f22202a1b36d8c4df2e7a", "name": "P6 - Nad Hradn\u00edm vodojemem", "latitude": 50.092641, "longitude": 14.375512, "timestamp": "2025-05-03T03:15:39.248249+00:00Z", "free_bikes": 0, "empty_slots": 6, "extra": {"uid": "237836194", "number": "45533", "slots": 6, "bike_uids": [], "virtual": false}}, {"id": "42c661e3524b6904276be2922ce5e4d4", "name": "P3 - Baranova", "latitude": 50.079239, "longitude": 14.457876, "timestamp": "2025-05-03T03:15:39.192178+00:00Z", "free_bikes": 0, "empty_slots": 2, "extra": {"uid": "165067995", "number": "49058", "slots": 2, "bike_uids": [], "virtual": false}}, {"id": "42e05155caf7394ffc5f0f80aec8f21b", "name": "P1 - V Celnici", "latitude": 50.08835, "longitude": 14.43081, "timestamp": "2025-05-03T03:15:39.250223+00:00Z", "free_bikes": 0, "empty_slots": 8, "extra": {"uid": "270183500", "number": "45612", "slots": 8, "bike_uids": [], "virtual": false}}, {"id": "4332792ee19e1742d7d72ba5a502fefd", "name": "P1- \u0160t\u011bp\u00e1nsk\u00e1 / \u0158eznick\u00e1", "latitude": 50.077853, "longitude": 14.424924, "timestamp": "2025-05-03T03:15:39.380622+00:00Z", "free_bikes": 0, "empty_slots": 4, "extra": {"uid": "496422315", "number": "495408", "slots": 4, "bike_uids": [], "virtual": false}}, {"id": "433963b978a84abb4377f77ae06ae2db", "name": "P2 - Z\u00e1h\u0159ebsk\u00e1 / Francouzsk\u00e1", "latitude": 50.07349, "longitude": 14.44031, "timestamp": "2025-05-03T03:15:39.191290+00:00Z", "free_bikes": 0, "empty_slots": 2, "extra": {"uid": "148307560", "number": "49571", "slots": 2, "bike_uids": [], "virtual": false}}, {"id": "4355acd4fe4df1c092507b089becd6ba", "name": "P6 - Stanice 6 ", "latitude": 50.107394, "longitude": 14.404186, "timestamp": "2025-05-03T03:15:39.300003+00:00Z", "free_bikes": 0, "empty_slots": 6, "extra": {"uid": "340476455", "number": "45767", "slots": 6, "bike_uids": [], "virtual": false}}, {"id": "439db576c8af625c00e51f9a6e571698", "name": "P8 - Zenklova/ Na Hr\u00e1zi", "latitude": 50.105235, "longitude": 14.472991, "timestamp": "2025-05-03T03:15:39.190207+00:00Z", "free_bikes": 0, "empty_slots": 8, "extra": {"uid": "94711320", "number": "49468", "slots": 8, "bike_uids": [], "virtual": false}}, {"id": "440875afbd1ecdf0fad20c8df149af1e", "name": "P8 - Fr\u00fddlantsk\u00e1", "latitude": 50.132108, "longitude": 14.477456, "timestamp": "2025-05-03T03:15:39.192343+00:00Z", "free_bikes": 0, "empty_slots": 4, "extra": {"uid": "165539831", "number": "49453", "slots": 4, "bike_uids": [], "virtual": false}}, {"id": "4507f24006507846ab93084e5342d858", "name": "P7 - N\u00e1dra\u017e\u00ed Hole\u0161ovice MC (v\u00fdstup E3)", "latitude": 50.108352, "longitude": 14.439924, "timestamp": "2025-05-03T03:15:39.154768+00:00Z", "free_bikes": 0, "empty_slots": 10, "extra": {"uid": "27604926", "number": "46303", "slots": 10, "bike_uids": [], "virtual": false}}, {"id": "4532f31088d0bd705f4f7229cd956377", "name": "P18 - Beladova metro Let\u0148any (v\u00fdstup E2)", "latitude": 50.124927, "longitude": 14.516815, "timestamp": "2025-05-03T03:15:39.122258+00:00Z", "free_bikes": 0, "empty_slots": 10, "extra": {"uid": "27583353", "number": "46128", "slots": 10, "bike_uids": [], "virtual": false}}, {"id": "454674dd17617ae2f52e0b1e2fc47fa2", "name": "P1 - Ovocn\u00fd trh II (mezi sloupky a lampou)", "latitude": 50.08703, "longitude": 14.42577, "timestamp": "2025-05-03T03:15:39.250501+00:00Z", "free_bikes": 0, "empty_slots": 8, "extra": {"uid": "270258716", "number": "45629", "slots": 8, "bike_uids": [], "virtual": false}}, {"id": "45513a74f0731ef20948c78d277d1b41", "name": "P1-Anensk\u00e9 n\u00e1m\u011bst\u00ed", "latitude": 50.08504, "longitude": 14.41477, "timestamp": "2025-05-03T03:15:39.122756+00:00Z", "free_bikes": 0, "empty_slots": 10, "extra": {"uid": "27583814", "number": "46174", "slots": 10, "bike_uids": [], "virtual": false}}, {"id": "45950d015dcdc11e53384b16a4f049f9", "name": "P1 - U Lu\u017eick\u00e9ho semin\u00e1\u0159e 2", "latitude": 50.087215, "longitude": 14.407911, "timestamp": "2025-05-03T03:15:39.301513+00:00Z", "free_bikes": 3, "empty_slots": 5, "extra": {"uid": "361553270", "number": "45817", "slots": 8, "bike_uids": ["480224", "487230", "486965"], "virtual": false}}, {"id": "45b2aa412ada66cc43c17dbedd0fbf7c", "name": "P14 - S\u00eddli\u0161t\u011b Lehovec II", "latitude": 50.103389, "longitude": 14.549368, "timestamp": "2025-05-03T03:15:39.302627+00:00Z", "free_bikes": 0, "empty_slots": 7, "extra": {"uid": "385232442", "number": "45926", "slots": 7, "bike_uids": [], "virtual": false}}, {"id": "45fdd53f54f967e43ec606c7de6aad6d", "name": "P4-Podol\u00ed - Marina", "latitude": 50.059281, "longitude": 14.419073, "timestamp": "2025-05-03T03:15:39.156577+00:00Z", "free_bikes": 0, "empty_slots": 12, "extra": {"uid": "27605463", "number": "46358", "slots": 12, "bike_uids": [], "virtual": false}}, {"id": "465e97a447e6f99fb990c5677366f4a4", "name": "P7 - Osadn\u00ed / Jate\u010dn\u00ed", "latitude": 50.10083, "longitude": 14.446914, "timestamp": "2025-05-03T03:15:39.379824+00:00Z", "free_bikes": 0, "empty_slots": 5, "extra": {"uid": "491519042", "number": "495404", "slots": 5, "bike_uids": [], "virtual": false}}, {"id": "46791c880cb414891d171b56a327549a", "name": "P9 - Novoborsk\u00e1 (dopravn\u00ed st\u00edn)", "latitude": 50.127031, "longitude": 14.497211, "timestamp": "2025-05-03T03:15:39.301824+00:00Z", "free_bikes": 0, "empty_slots": 5, "extra": {"uid": "368600143", "number": "45836", "slots": 5, "bike_uids": [], "virtual": false}}, {"id": "46bd2c0082a19688ee424c4b45f37a5b", "name": "P3-Korunn\u00ed", "latitude": 50.07569, "longitude": 14.46181, "timestamp": "2025-05-03T03:15:39.151283+00:00Z", "free_bikes": 6, "empty_slots": 4, "extra": {"uid": "27604328", "number": "46212", "slots": 10, "bike_uids": ["480083", "485048", "485337", "485373", "481461", "481350"], "virtual": false}}, {"id": "46c7dde9af05c91cb33765b13cee05b4", "name": "P7 - Jate\u010dn\u00ed / Na Malin\u00e1ch", "latitude": 50.100249, "longitude": 14.452346, "timestamp": "2025-05-03T03:15:39.249400+00:00Z", "free_bikes": 0, "empty_slots": 6, "extra": {"uid": "259820469", "number": "45564", "slots": 6, "bike_uids": [], "virtual": false}}, {"id": "46edc371f1a45d97f65406681633de21", "name": "P2 - Lond\u00fdnsk\u00e1 / Z\u00e1h\u0159ebsk\u00e1", "latitude": 50.07117, "longitude": 14.43534, "timestamp": "2025-05-03T03:15:39.191507+00:00Z", "free_bikes": 0, "empty_slots": 2, "extra": {"uid": "148399761", "number": "49014", "slots": 2, "bike_uids": [], "virtual": false}}, {"id": "4733c5c75c6799570c09ed60c22fd29a", "name": "P8 - Palmovka Open Park", "latitude": 50.104382, "longitude": 14.470367, "timestamp": "2025-05-03T03:15:39.190583+00:00Z", "free_bikes": 1, "empty_slots": 3, "extra": {"uid": "114582684", "number": "49502", "slots": 4, "bike_uids": ["485363"], "virtual": false}},