{"id": "nextbike-ostrava-vresina", "name": "nextbike Ostrava", "location": {"latitude": 49.825, "longitude": 18.1206, "city": "V\u0159esina", "country": "CZ"}, "href": "/v2/networks/nextbike-ostrava-vresina", "company": ["Nextbike GmbH"], "stations": [{"id": "19c9da22d377cb61a575f6811b6957d9", "name": "V\u0158ESINA-V\u0159esina - B\u0159idli\u010dn\u00e1", "latitude": 49.826499, "longitude": 18.117936, "timestamp": "2023-02-06T09:42:11.297Z", "free_bikes": 0, "empty_slots": null, "extra": {"uid": "30035703", "bike_uids": [""], "number": "45073"}}, {"id": "31448df8b08b993be05e0c46ffabd501", "name": " V\u0159esina - Horn\u00ed kaple", "latitude": 49.818312, "longitude": 18.121213, "timestamp": "2023-02-06T09:42:11.294Z", "free_bikes": 0, "empty_slots": null, "extra": {"uid": "30035563", "bike_uids": [""], "number": "45032"}}, {"id": "3ba3541fc45bef9398b3d6ead7194d23", "name": "V\u0158ESINA-V\u0159esina H\u0159i\u0161t\u011b", "latitude": 49.830124, "longitude": 18.121314, "timestamp": "2023-02-06T09:42:11.286Z", "free_bikes": 0, "empty_slots": null, "extra": {"uid": "27582524", "bike_uids": [""], "number": "46036"}}, {"id": "7344a828a1a6651fe4ed5a3773a397c1", "name": "V\u0158ESINA-V\u0159esina - Mexiko ", "latitude": 49.807412, "longitude": 18.119878, "timestamp": "2023-02-06T09:42:11.298Z", "free_bikes": 0, "empty_slots": null, "extra": {"uid": "51241571", "bike_uids": [""], "number": "48298"}}, {"id": "afa65580ff9d6c97ac0ccb26745f78cb", "name": " V\u0159esina - N\u00e1dra\u017e\u00ed", "latitude": 49.827216, "longitude": 18.128592, "timestamp": "2023-02-06T09:42:11.295Z", "free_bikes": 0, "empty_slots": null, "extra": {"uid": "30035607", "bike_uids": [""], "number": "45037"}}, {"id": "bc8f88f9aa96fa45a51f4ea39e122851", "name": " V\u0159esina - H\u0159bitov", "latitude": 49.821871, "longitude": 18.13307, "timestamp": "2023-02-06T09:42:11.297Z", "free_bikes": 0, "empty_slots": null, "extra": {"uid": "30035665", "bike_uids": [""], "number": "45071"}}, {"id": "c4e204b0e3b6ba3f8b53043f9044bf80", "name": " V\u0159esina - Plze\u0148sk\u00e1", "latitude": 49.832859, "longitude": 18.122035, "timestamp": "2023-02-06T09:42:11.296Z", "free_bikes": 0, "empty_slots": null, "extra": {"uid": "30035633", "bike_uids": [""], "number": "45049"}}, {"id": "da57dc30b2e7e46dbf2e8559c1ca78ef", "name": "V\u0159esina - Obecn\u00ed \u00fa\u0159ad", "latitude": 49.823838, "longitude": 18.12555, "timestamp": "2023-02-06T09:42:11.294Z", "free_bikes": 0, "empty_slots": null, "extra": {"uid": "30035583", "bike_uids": [""], "number": "45036"}}]}