{"id": "nextbike-uherske-hradiste", "name": "nextbike Uhersk\u00e9 Hradi\u0161t\u011b", "location": {"latitude": 49.0678, "longitude": 17.4665, "city": "Uhersk\u00e9 Hradi\u0161t\u011b", "country": "CZ"}, "href": "/v2/networks/nextbike-uherske-hradiste", "company": ["Nextbike GmbH"], "system": "Nextbike", "stations": [{"id": "001687a1b6ec8b83db6b6d3732c5c13f", "name": "Palack\u00e9ho n\u00e1m\u011bst\u00ed", "latitude": 49.068513, "longitude": 17.464537, "timestamp": "2025-05-03T03:15:39.844146+00:00Z", "free_bikes": 0, "empty_slots": null, "extra": {"uid": "42612593", "number": "48804", "bike_uids": [], "virtual": false}}, {"id": "0061ed2d8716ac4fb32ff8809f7ebe1c", "name": "Havl\u00ed\u010dkova", "latitude": 49.068366, "longitude": 17.463534, "timestamp": "2025-05-03T03:15:39.844126+00:00Z", "free_bikes": 3, "empty_slots": null, "extra": {"uid": "42612383", "number": "48803", "bike_uids": ["486664", "486658", "486657"], "virtual": false}}, {"id": "046054826ce97efd114d11246b8b8879", "name": "Ryb\u00e1rny", "latitude": 49.073567, "longitude": 17.458912, "timestamp": "2025-05-03T03:15:39.844614+00:00Z", "free_bikes": 2, "empty_slots": null, "extra": {"uid": "43276525", "number": "48831", "bike_uids": ["486650", "486614"], "virtual": false}}, {"id": "09949499b74e0fa3168f69dcbb09e825", "name": "Kino Hv\u011bzda", "latitude": 49.067664, "longitude": 17.46869, "timestamp": "2025-05-03T03:15:39.844268+00:00Z", "free_bikes": 1, "empty_slots": null, "extra": {"uid": "42613531", "number": "48810", "bike_uids": ["486606"], "virtual": false}}, {"id": "0c4c75d59cb591ddc38d8becba55ff28", "name": "M\u011bstsk\u00fd fotbalov\u00fd stadion Miroslava Valenty", "latitude": 49.066396, "longitude": 17.47015, "timestamp": "2025-05-03T03:15:39.844286+00:00Z", "free_bikes": 0, "empty_slots": null, "extra": {"uid": "42636293", "number": "48811", "bike_uids": [], "virtual": false}}, {"id": "0e94dd39db318d00d3948e06b3d84beb", "name": "M\u011bstsk\u00fd \u00fa\u0159ad", "latitude": 49.067895, "longitude": 17.460206, "timestamp": "2025-05-03T03:15:39.844533+00:00Z", "free_bikes": 0, "empty_slots": null, "extra": {"uid": "43031583", "number": "48827", "bike_uids": [], "virtual": false}}, {"id": "10f5d1449a5a9c83d60982d0b7732a8b", "name": "Sadov\u00e1 - Enapo", "latitude": 49.058075, "longitude": 17.479818, "timestamp": "2025-05-03T03:15:39.844062+00:00Z", "free_bikes": 0, "empty_slots": null, "extra": {"uid": "42610336", "number": "48798", "bike_uids": [], "virtual": false}}, {"id": "19c6894bc4a4eaeafb32d83f70e3b26e", "name": "Studentsk\u00e9 n\u00e1m\u011bst\u00ed - menza", "latitude": 49.069672, "longitude": 17.471332, "timestamp": "2025-05-03T03:15:39.844201+00:00Z", "free_bikes": 1, "empty_slots": null, "extra": {"uid": "42613071", "number": "48806", "bike_uids": ["486621"], "virtual": false}}, {"id": "2007a8686f58f2a41aa50e0d98999d8c", "name": "Kaufland", "latitude": 49.070624, "longitude": 17.47365, "timestamp": "2025-05-03T03:15:39.844218+00:00Z", "free_bikes": 1, "empty_slots": null, "extra": {"uid": "42613264", "number": "48807", "bike_uids": ["486636"], "virtual": false}}, {"id": "24daf9c1ad129ed4fd7afeec88c5c633", "name": "Aquapark", "latitude": 49.066874, "longitude": 17.472689, "timestamp": "2025-05-03T03:15:39.844249+00:00Z", "free_bikes": 3, "empty_slots": null, "extra": {"uid": "42613441", "number": "48809", "bike_uids": ["483172", "483007", "486655"], "virtual": false}}, {"id": "2cb677a27a4d56ac950c4fe137ea2367", "name": "Na P\u0159\u00edkop\u011b - hospoda", "latitude": 49.037817, "longitude": 17.504509, "timestamp": "2025-05-03T03:15:39.844400+00:00Z", "free_bikes": 3, "empty_slots": null, "extra": {"uid": "42665426", "number": "48818", "bike_uids": ["486675", "486654", "486634"], "virtual": false}}, {"id": "2ce7085a9588b6a9424fc8cddd36b574", "name": "Pivovarsk\u00e1 - Hru\u0161ka", "latitude": 49.085676, "longitude": 17.494769, "timestamp": "2025-05-03T03:15:39.844094+00:00Z", "free_bikes": 2, "empty_slots": null, "extra": {"uid": "42610722", "number": "48800", "bike_uids": ["486676", "486623"], "virtual": false}}, {"id": "31d65d2b8ff5a5f124b7f0e410610ad6", "name": "Verb\u00ed\u0159sk\u00e1", "latitude": 49.071434, "longitude": 17.47118, "timestamp": "2025-05-03T03:15:39.844751+00:00Z", "free_bikes": 2, "empty_slots": 2, "extra": {"uid": "322628208", "number": "47364", "slots": 4, "bike_uids": ["486616", "486615"], "virtual": false}}, {"id": "47a52bb5aa3b859b0b7243df5a04232c", "name": "\u0160t\u011bpnick\u00e1 - Masaro", "latitude": 49.066773, "longitude": 17.443842, "timestamp": "2025-05-03T03:15:39.844654+00:00Z", "free_bikes": 1, "empty_slots": null, "extra": {"uid": "44874006", "number": "48833", "bike_uids": ["486630"], "virtual": false}}, {"id": "4865f18651cb77a1ecf119fcd635f3a1", "name": "Zelen\u00e9 n\u00e1m\u011bst\u00ed", "latitude": 49.068943, "longitude": 17.46929, "timestamp": "2025-05-03T03:15:39.844181+00:00Z", "free_bikes": 6, "empty_slots": null, "extra": {"uid": "42612907", "number": "48805", "bike_uids": ["486697", "486696", "486645", "486629", "486628", "486624"], "virtual": false}}, {"id": "4b7987ea860d5c4514ed753b5b2cf239", "name": "T\u0159. Mar\u0161\u00e1la Malinovsk\u00e9ho - Lidl", "latitude": 49.058219, "longitude": 17.465177, "timestamp": "2025-05-03T03:15:39.844338+00:00Z", "free_bikes": 3, "empty_slots": null, "extra": {"uid": "42636605", "number": "48814", "bike_uids": ["486666", "486620", "486610"], "virtual": false}}, {"id": "576cfadff1cb0902ca9c5d858725d827", "name": "Mari\u00e1nsk\u00e9 n\u00e1m\u011bst\u00ed", "latitude": 49.069862, "longitude": 17.458115, "timestamp": "2025-05-03T03:15:39.844477+00:00Z", "free_bikes": 7, "empty_slots": null, "extra": {"uid": "42666934", "number": "48823", "bike_uids": ["483321", "483215", "483202", "486693", "486690", "486681", "486677"], "virtual": false}}, {"id": "5f6ecb57582b60d0be52436cbf686b96", "name": "V\u011btrn\u00e1 - Hru\u0161ka", "latitude": 49.060084, "longitude": 17.477905, "timestamp": "2025-05-03T03:15:39.844041+00:00Z", "free_bikes": 1, "empty_slots": null, "extra": {"uid": "42609973", "number": "48796", "bike_uids": ["483086"], "virtual": false}}, {"id": "6894aae5e8086fbfcd9dcc861f890f37", "name": "Nemocnice", "latitude": 49.064437, "longitude": 17.452303, "timestamp": "2025-05-03T03:15:39.844002+00:00Z", "free_bikes": 0, "empty_slots": null, "extra": {"uid": "42609556", "number": "48794", "bike_uids": [], "virtual": false}}, {"id": "72c6047000ddfc59cc4c3767c6f6853e", "name": "Hosp\u016fdka U Kova\u0159\u00edk\u016f", "latitude": 49.050799, "longitude": 17.4855, "timestamp": "2025-05-03T03:15:39.844716+00:00Z", "free_bikes": 1, "empty_slots": null, "extra": {"uid": "47166079", "number": "48836", "bike_uids": ["483059"], "virtual": false}}, {"id": "74dd5c0a16f22d2abbbe8ada4b89a08c", "name": "Zahradn\u00ed - po\u0161ta", "latitude": 49.066097, "longitude": 17.449687, "timestamp": "2025-05-03T03:15:39.844513+00:00Z", "free_bikes": 3, "empty_slots": null, "extra": {"uid": "42667500", "number": "48826", "bike_uids": ["483262", "483133", "486685"], "virtual": false}}, {"id": "7576e081cf6afd976f63b205d43555dd", "name": "Star\u00e1 Tenice", "latitude": 49.071108, "longitude": 17.451627, "timestamp": "2025-05-03T03:15:39.844597+00:00Z", "free_bikes": 0, "empty_slots": null, "extra": {"uid": "43276419", "number": "48830", "bike_uids": [], "virtual": false}}, {"id": "7de8f19548cd8dc255326ba3368eb6dc", "name": "Revolu\u010dn\u00ed - M\u011bstsk\u00fd \u00fa\u0159ad", "latitude": 49.065649, "longitude": 17.456873, "timestamp": "2025-05-03T03:15:39.844498+00:00Z", "free_bikes": 0, "empty_slots": null, "extra": {"uid": "42667324", "number": "48825", "bike_uids": [], "virtual": false}}, {"id": "88a29cc911efd23e89155e031a38adbe", "name": "V\u00e9sky - hasi\u010dsk\u00e1 zbrojnice", "latitude": 49.043743, "longitude": 17.500275, "timestamp": "2025-05-03T03:15:39.844691+00:00Z", "free_bikes": 6, "empty_slots": null, "extra": {"uid": "44876105", "number": "48835", "bike_uids": ["483249", "486699", "486688", "486663", "486652", "486622"], "virtual": false}}, {"id": "8c44c756d68a37fab57bb6837574d097", "name": "Jaro\u0161ov - Louky", "latitude": 49.088864, "longitude": 17.502342, "timestamp": "2025-05-03T03:15:39.844567+00:00Z", "free_bikes": 1, "empty_slots": null, "extra": {"uid": "43274137", "number": "48829", "bike_uids": ["486665"], "virtual": false}}, {"id": "a79c3caa2b7ff4b7a76ec43f88eaccaa", "name": "\u0160t\u011bpnice - Domov pro seniory", "latitude": 49.064, "longitude": 17.447022, "timestamp": "2025-05-03T03:15:39.844640+00:00Z", "free_bikes": 0, "empty_slots": null, "extra": {"uid": "43276700", "number": "48832", "bike_uids": [], "virtual": false}}, {"id": "aa0ef26bac6e262e164402c8788e2b19", "name": "1. M\u00e1je - h\u0159bitov", "latitude": 49.06404, "longitude": 17.486634, "timestamp": "2025-05-03T03:15:39.844023+00:00Z", "free_bikes": 0, "empty_slots": null, "extra": {"uid": "42609646", "number": "48795", "bike_uids": [], "virtual": false}}, {"id": "aabe594a547d75c089df0d445c11e870", "name": "Klub kultury", "latitude": 49.067783, "longitude": 17.458918, "timestamp": "2025-05-03T03:15:39.844439+00:00Z", "free_bikes": 0, "empty_slots": null, "extra": {"uid": "42666444", "number": "48821", "bike_uids": [], "virtual": false}}, {"id": "b18b0dbc2125527233ef0fc06662d22e", "name": "Knihovna", "latitude": 49.06548, "longitude": 17.480193, "timestamp": "2025-05-03T03:15:39.844546+00:00Z", "free_bikes": 0, "empty_slots": null, "extra": {"uid": "43269869", "number": "48828", "bike_uids": [], "virtual": false}}, {"id": "c295878de241a037f2a7e52f162f64a1", "name": "Pod Svahy", "latitude": 49.062937, "longitude": 17.469546, "timestamp": "2025-05-03T03:15:39.844299+00:00Z", "free_bikes": 2, "empty_slots": null, "extra": {"uid": "42636458", "number": "48812", "bike_uids": ["486670", "486605"], "virtual": false}}, {"id": "c461ebc4b333b92e6ddb269e8f53478d", "name": "Masarykovo n\u00e1m\u011bst\u00ed - po\u0161ta", "latitude": 49.068225, "longitude": 17.461032, "timestamp": "2025-05-03T03:15:39.844453+00:00Z", "free_bikes": 6, "empty_slots": null, "extra": {"uid": "42666676", "number": "48822", "bike_uids": ["486687", "486684", "486632", "486612", "486611", "486608"], "virtual": false}}, {"id": "cfed1763199cfad43f30e632ee663a7f", "name": "N\u00e1m\u011bst\u00ed Republiky", "latitude": 49.061542, "longitude": 17.464677, "timestamp": "2025-05-03T03:15:39.844737+00:00Z", "free_bikes": 0, "empty_slots": null, "extra": {"uid": "97063153", "number": "48837", "bike_uids": [], "virtual": false}}, {"id": "dbcbc7d95f9d4e3045051a519d60cb28", "name": "T\u0159. Mar\u0161\u00e1la Malinovsk\u00e9ho - Tesco", "latitude": 49.061107, "longitude": 17.468414, "timestamp": "2025-05-03T03:15:39.844318+00:00Z", "free_bikes": 5, "empty_slots": null, "extra": {"uid": "42636525", "number": "48813", "bike_uids": ["483075", "486698", "486649", "486637", "486631"], "virtual": false}}, {"id": "dddecb225daab2993246e26c19f0ba33", "name": "Na N\u00e1vsi - kostel", "latitude": 49.085515, "longitude": 17.503199, "timestamp": "2025-05-03T03:15:39.844075+00:00Z", "free_bikes": 1, "empty_slots": null, "extra": {"uid": "42610566", "number": "48799", "bike_uids": ["486667"], "virtual": false}}, {"id": "dfbe380da417d95f26e482e866cbd97c", "name": "Za Ol\u0161\u00e1vkou - Penny", "latitude": 49.055696, "longitude": 17.467579, "timestamp": "2025-05-03T03:15:39.844358+00:00Z", "free_bikes": 5, "empty_slots": null, "extra": {"uid": "42640992", "number": "48815", "bike_uids": ["486694", "486627", "486626", "486609", "486604"], "virtual": false}}, {"id": "e29a85f37de350bfd6aca0f7eff2bc14", "name": "Vlakov\u00e9 n\u00e1dra\u017e\u00ed", "latitude": 49.066686, "longitude": 17.457839, "timestamp": "2025-05-03T03:15:39.844419+00:00Z", "free_bikes": 1, "empty_slots": null, "extra": {"uid": "42666176", "number": "48820", "bike_uids": ["486602"], "virtual": false}}, {"id": "e41da27386b248423a0a595a7734abda", "name": "Kulturn\u00ed d\u016fm Sady", "latitude": 49.051421, "longitude": 17.480474, "timestamp": "2025-05-03T03:15:39.844379+00:00Z", "free_bikes": 3, "empty_slots": null, "extra": {"uid": "42664989", "number": "48816", "bike_uids": ["486692", "486656", "486603"], "virtual": false}}, {"id": "e670c330258a365267a8631fe3698b40", "name": "Ma\u0159atice - zast\u00e1vka", "latitude": 49.062185, "longitude": 17.482679, "timestamp": "2025-05-03T03:15:39.844676+00:00Z", "free_bikes": 0, "empty_slots": null, "extra": {"uid": "44874398", "number": "48834", "bike_uids": [], "virtual": false}}, {"id": "e7390fcca93edb9807aa7c270adb24f7", "name": "Z\u0160 Za Alej\u00ed", "latitude": 49.067906, "longitude": 17.448987, "timestamp": "2025-05-03T03:15:39.843957+00:00Z", "free_bikes": 1, "empty_slots": null, "extra": {"uid": "42606401", "number": "48793", "bike_uids": ["486689"], "virtual": false}}, {"id": "f0b4631760489fca2c2234471bb18a58", "name": "Na Rybn\u00edku - COOP", "latitude": 49.068864, "longitude": 17.47515, "timestamp": "2025-05-03T03:15:39.844236+00:00Z", "free_bikes": 0, "empty_slots": null, "extra": {"uid": "42613409", "number": "48808", "bike_uids": [], "virtual": false}}, {"id": "f346ba25b62e2ec7a6b21d7b93a2be46", "name": "Politick\u00fdch v\u011bz\u0148\u016f", "latitude": 49.069392, "longitude": 17.464351, "timestamp": "2025-05-03T03:15:39.844112+00:00Z", "free_bikes": 0, "empty_slots": null, "extra": {"uid": "42611963", "number": "48801", "bike_uids": [], "virtual": false}}]}