{"id": "nextbike-mladoboleslavsko-mnichovo-hradiste", "name": "nextbike Mladoboleslavsko", "location": {"latitude": 50.5218, "longitude": 14.9741, "city": "Mnichovo Hradi\u0161t\u011b", "country": "CZ"}, "href": "/v2/networks/nextbike-mladoboleslavsko-mnichovo-hradiste", "company": ["Nextbike GmbH"], "system": "Nextbike", "stations": [{"id": "0e03ed0ad904d922542c9d231ab745b6", "name": "Mnichovo Hradi\u0161t\u011b - Dopravn\u00ed termin\u00e1l", "latitude": 50.51869, "longitude": 14.9778, "timestamp": "2025-05-03T03:15:39.444900+00:00Z", "free_bikes": 0, "empty_slots": null, "extra": {"uid": "42416428", "number": "48788", "bike_uids": [], "virtual": false}}, {"id": "2483595e4bfc96b110a168b6b92f9d2b", "name": "Mnichovo Hradi\u0161t\u011b - are\u00e1l \u0161kol", "latitude": 50.52244, "longitude": 14.96958, "timestamp": "2025-05-03T03:15:39.444979+00:00Z", "free_bikes": 0, "empty_slots": null, "extra": {"uid": "42416496", "number": "48783", "bike_uids": [], "virtual": false}}, {"id": "293aa334b84a59bb9908f1c2b019de3b", "name": "Mnichovo Hradi\u0161t\u011b - za Z\u00e1mkem", "latitude": 50.53368, "longitude": 14.97576, "timestamp": "2025-05-03T03:15:39.444873+00:00Z", "free_bikes": 0, "empty_slots": null, "extra": {"uid": "42416229", "number": "47769", "bike_uids": [], "virtual": false}}, {"id": "2b76fbb2a04314573734bde0eed8b4d8", "name": "Mnichovo Hradi\u0161t\u011b - sportovn\u00ed zona", "latitude": 50.52659, "longitude": 14.96777, "timestamp": "2025-05-03T03:15:39.444913+00:00Z", "free_bikes": 7, "empty_slots": null, "extra": {"uid": "42416440", "number": "48787", "bike_uids": ["487036", "491799", "491798", "491782", "491781", "491685", "491657"], "virtual": false}}, {"id": "57cdeb64d49123f0eb4134d87cbcf0c3", "name": "Mnichovo Hradi\u0161t\u011b - N\u00e1kupn\u00ed zona", "latitude": 50.51627, "longitude": 14.97199, "timestamp": "2025-05-03T03:15:39.445029+00:00Z", "free_bikes": 4, "empty_slots": null, "extra": {"uid": "43178027", "number": "48780", "bike_uids": ["491743", "491730", "491711", "491686"], "virtual": false}}, {"id": "6289a6acd900371cd09f686045fdaac8", "name": "Mnichovo Hradi\u0161t\u011b - Jir\u00e1skova ulice - za trat\u00ed", "latitude": 50.51846, "longitude": 14.98444, "timestamp": "2025-05-03T03:15:39.445048+00:00Z", "free_bikes": 4, "empty_slots": 0, "extra": {"uid": "45985430", "number": "48302", "slots": 4, "bike_uids": ["491742", "491717", "491713", "491688"], "virtual": false}}, {"id": "712e496b33d6a9e4246ce7b6db2d7cde", "name": "Mnichovo Hradi\u0161t\u011b - s\u00eddli\u0161t\u011b Jaselsk\u00e1", "latitude": 50.51894, "longitude": 14.96913, "timestamp": "2025-05-03T03:15:39.444947+00:00Z", "free_bikes": 0, "empty_slots": null, "extra": {"uid": "42416464", "number": "48785", "bike_uids": [], "virtual": false}}, {"id": "9ceb1237ce5e73997812d0ccfe473c4e", "name": "Mnichovo Hradi\u0161t\u011b - Masarykovo n\u00e1m\u011bst\u00ed", "latitude": 50.52254, "longitude": 14.97474, "timestamp": "2025-05-03T03:15:39.444852+00:00Z", "free_bikes": 1, "empty_slots": null, "extra": {"uid": "42366793", "number": "47768", "bike_uids": ["491670"], "virtual": false}}, {"id": "9d5d5d0f8e57a20cee0a417e74d591bf", "name": "Mnichovo Hradi\u0161t\u011b - Salabka", "latitude": 50.52043, "longitude": 14.96089, "timestamp": "2025-05-03T03:15:39.444991+00:00Z", "free_bikes": 2, "empty_slots": null, "extra": {"uid": "42416518", "number": "48782", "bike_uids": ["487401", "491723"], "virtual": false}}, {"id": "a20ddb6b3d3a6145aca79e81b60909cf", "name": "Mnichovo Hradi\u0161t\u011b - s\u00eddli\u0161t\u011b Lidick\u00e1", "latitude": 50.52276, "longitude": 14.97911, "timestamp": "2025-05-03T03:15:39.444934+00:00Z", "free_bikes": 0, "empty_slots": null, "extra": {"uid": "42416453", "number": "48786", "bike_uids": [], "virtual": false}}, {"id": "a5c6497cedbe3ff40328145256b18923", "name": "Mnichovo Hradi\u0161t\u011b - HBPO", "latitude": 50.516131, "longitude": 14.976736, "timestamp": "2025-05-03T03:15:39.445011+00:00Z", "free_bikes": 1, "empty_slots": null, "extra": {"uid": "42416531", "number": "48781", "bike_uids": ["491773"], "virtual": false}}, {"id": "a9e173fb84eb40ae0830927a6fad7535", "name": "Mnichovo Hradi\u0161t\u011b - Vostrov", "latitude": 50.536819, "longitude": 14.963976, "timestamp": "2025-05-03T03:15:39.444817+00:00Z", "free_bikes": 7, "empty_slots": null, "extra": {"uid": "31517402", "number": "47760", "bike_uids": ["487470", "491790", "491720", "491718", "491676", "491669", "491653"], "virtual": false}}, {"id": "b6ac5240ef7f988da2989d030c843934", "name": "Mnichovo Hradi\u0161t\u011b - U LDN", "latitude": 50.524459, "longitude": 14.981254, "timestamp": "2025-05-03T03:15:39.444799+00:00Z", "free_bikes": 0, "empty_slots": 10, "extra": {"uid": "27605181", "number": "46332", "slots": 10, "bike_uids": [], "virtual": false}}, {"id": "b7ac5b858bb2b34df1203fbb663cb255", "name": "Mnichovo Hradi\u0161t\u011b - u Sokolovny", "latitude": 50.5203, "longitude": 14.97314, "timestamp": "2025-05-03T03:15:39.444959+00:00Z", "free_bikes": 4, "empty_slots": null, "extra": {"uid": "42416479", "number": "48784", "bike_uids": ["491766", "491725", "491671", "491658"], "virtual": false}}, {"id": "c111add4b080f24fdc1448f017e8f1c7", "name": "Mnichovo Hradi\u0161t\u011b - u Z\u00e1mku", "latitude": 50.52749, "longitude": 14.97271, "timestamp": "2025-05-03T03:15:39.444887+00:00Z", "free_bikes": 0, "empty_slots": null, "extra": {"uid": "42416302", "number": "48789", "bike_uids": [], "virtual": false}}, {"id": "e9af0ebf2bd467ce01b3604da68b9814", "name": "Mnichovo Hradi\u0161t\u011b - U Statku", "latitude": 50.53627, "longitude": 14.97065, "timestamp": "2025-05-03T03:15:39.445069+00:00Z", "free_bikes": 2, "empty_slots": 2, "extra": {"uid": "45985451", "number": "48303", "slots": 4, "bike_uids": ["491745", "491699"], "virtual": false}}, {"id": "efb00d9c60318ae7908135f7c84687af", "name": "Mnichovo Hradi\u0161t\u011b - Na Pl\u00e1\u017ei", "latitude": 50.5247, "longitude": 14.96421, "timestamp": "2025-05-03T03:15:39.444770+00:00Z", "free_bikes": 0, "empty_slots": 10, "extra": {"uid": "27582967", "number": "46088", "slots": 10, "bike_uids": [], "virtual": false}}, {"id": "f351bfe5a7eb8f4f353940ad52db4b43", "name": "Mnichovo Hradi\u0161t\u011b - Mahle Behr", "latitude": 50.510233, "longitude": 14.969817, "timestamp": "2025-05-03T03:15:39.445090+00:00Z", "free_bikes": 1, "empty_slots": null, "extra": {"uid": "385627329", "number": "45633", "bike_uids": ["487011"], "virtual": false}}]}