{"id": "nextbike-pardubice", "name": "nextbike Pardubice", "location": {"latitude": 50.0343, "longitude": 15.7812, "city": "Pardubice", "country": "CZ"}, "href": "/v2/networks/nextbike-pardubice", "company": ["Nextbike GmbH"], "stations": [{"id": "005e68bbc94aa2d996e9ec90a49e293d", "name": "Zimn\u00ed stadion - parkovi\u0161t\u011b", "latitude": 50.040008, "longitude": 15.770112, "timestamp": "2024-05-06T11:09:58.981Z", "free_bikes": 0, "empty_slots": null, "extra": {"uid": "29751592", "bike_uids": [""], "number": "47524"}}, {"id": "0090a618c2908b787da29c0219297f31", "name": "Dopravn\u00ed podnik", "latitude": 50.027076, "longitude": 15.756803, "timestamp": "2024-05-06T11:09:58.958Z", "free_bikes": 0, "empty_slots": null, "extra": {"uid": "29749806", "bike_uids": [""], "number": "47511"}}, {"id": "03c0929505a97c6488a051c4789c9e23", "name": "Recutech - F\u00e1blovka", "latitude": 50.059083, "longitude": 15.768054, "timestamp": "2024-05-06T11:09:59.078Z", "free_bikes": 0, "empty_slots": 5, "extra": {"slots": 5, "uid": "176856256", "bike_uids": [""], "number": "45395"}}, {"id": "04c58ad6fd738a3e8fc9eca9a18bdfb0", "name": "Karlovina", "latitude": 50.032847, "longitude": 15.775364, "timestamp": "2024-05-06T11:09:59.052Z", "free_bikes": 0, "empty_slots": null, "extra": {"uid": "158041172", "bike_uids": [""], "number": "45380"}}, {"id": "10335401bbb685a8945d78a139315484", "name": "Kaufland, Vi\u0161\u0148ovka", "latitude": 50.025459, "longitude": 15.77952, "timestamp": "2024-05-06T11:09:59.075Z", "free_bikes": 0, "empty_slots": 6, "extra": {"slots": 6, "uid": "158046728", "bike_uids": [""], "number": "45421"}}, {"id": "111d1854404bbbeeb204aa3c88d9c96a", "name": "Na Dr\u00e1\u017ece", "latitude": 50.036795, "longitude": 15.797054, "timestamp": "2024-05-06T11:09:59.059Z", "free_bikes": 0, "empty_slots": 7, "extra": {"slots": 7, "uid": "158042992", "bike_uids": [""], "number": "45383"}}, {"id": "12b72b78006f07fcc4ad8caa1668ccbe", "name": "n\u00e1m\u011bst\u00ed Republiky", "latitude": 50.037135, "longitude": 15.777354, "timestamp": "2024-05-06T11:09:59.008Z", "free_bikes": 0, "empty_slots": null, "extra": {"uid": "29992386", "bike_uids": [""], "number": "47535"}}, {"id": "1871a60acdf49fdf367507e01d07a30e", "name": "\u00da\u0159ad m\u011bstsk\u00e9ho obvodu - Pardubice VII", "latitude": 50.043092, "longitude": 15.73335, "timestamp": "2024-05-06T11:09:58.964Z", "free_bikes": 0, "empty_slots": null, "extra": {"uid": "29749951", "bike_uids": [""], "number": "47513"}}, {"id": "19e63f908745d865d97c7a117b9f1365", "name": "D\u016fm kultury Dukla", "latitude": 50.024946, "longitude": 15.765016, "timestamp": "2024-05-06T11:09:58.957Z", "free_bikes": 0, "empty_slots": null, "extra": {"uid": "29747497", "bike_uids": [""], "number": "47509"}}, {"id": "1b36bc440aa7abb3433b551926df29d8", "name": "N\u00e1b\u0159e\u017e\u00ed Z\u00e1vodu m\u00edru", "latitude": 50.03833, "longitude": 15.762654, "timestamp": "2024-05-06T11:09:59.046Z", "free_bikes": 0, "empty_slots": 6, "extra": {"slots": 6, "uid": "158040663", "bike_uids": [""], "number": "45386"}}, {"id": "1ced59a385c28aa9bdacecc7eeef1334", "name": "Lidick\u00e1", "latitude": 50.041032, "longitude": 15.753762, "timestamp": "2024-05-06T11:09:59.073Z", "free_bikes": 0, "empty_slots": 8, "extra": {"slots": 8, "uid": "158046288", "bike_uids": [""], "number": "45389"}}, {"id": "1e502c52a83643917cc80eede4dd88e1", "name": "Hlavn\u00ed n\u00e1dra\u017e\u00ed", "latitude": 50.032569, "longitude": 15.757908, "timestamp": "2024-05-06T11:09:58.995Z", "free_bikes": 0, "empty_slots": null, "extra": {"uid": "29752309", "bike_uids": [""], "number": "47529"}}, {"id": "1edc90ccc5e29ce21ef9f3e1dd7218f9", "name": "Poliklinika Vektor", "latitude": 50.030316, "longitude": 15.775112, "timestamp": "2024-05-06T11:09:59.005Z", "free_bikes": 0, "empty_slots": null, "extra": {"uid": "29753372", "bike_uids": [""], "number": "47532"}}, {"id": "278c9f513aadd10c0f087c13909e1962", "name": "Z\u00e1chytn\u00e9 parkovi\u0161t\u011b - Kas\u00e1rna T.G.M", "latitude": 50.022641, "longitude": 15.773161, "timestamp": "2024-05-06T11:09:58.956Z", "free_bikes": 0, "empty_slots": null, "extra": {"uid": "29746679", "bike_uids": [""], "number": "47508"}}, {"id": "2a495ab00f659c5f363911784693459c", "name": "Univerzitn\u00ed knihovna", "latitude": 50.049454, "longitude": 15.766148, "timestamp": "2024-05-06T11:09:58.969Z", "free_bikes": 0, "empty_slots": null, "extra": {"uid": "29751426", "bike_uids": [""], "number": "47520"}}, {"id": "2e3918d79070e6f23d2b77cf03273a66", "name": "T\u0159\u00edda M\u00edru Pardubice 3", "latitude": 50.036876, "longitude": 15.774007, "timestamp": "2024-05-06T11:09:59.033Z", "free_bikes": 0, "empty_slots": null, "extra": {"uid": "35855809", "bike_uids": [""], "number": "47544"}}, {"id": "2edef0d605e1ee800698de6af31482ca", "name": "Da\u0161ick\u00e1 sportovn\u00ed hala", "latitude": 50.036295, "longitude": 15.791404, "timestamp": "2024-05-06T11:09:59.012Z", "free_bikes": 0, "empty_slots": null, "extra": {"uid": "29992613", "bike_uids": [""], "number": "47536"}}, {"id": "337b00a96310e0dd24b3b9928f0fadd8", "name": "Labsk\u00e1 - U Zdymadla", "latitude": 50.043388, "longitude": 15.773411, "timestamp": "2024-05-06T11:09:58.980Z", "free_bikes": 0, "empty_slots": null, "extra": {"uid": "29751545", "bike_uids": [""], "number": "47523"}}, {"id": "37f18e9086121d36ba71f3bb353c13be", "name": "Sezemick\u00e1", "latitude": 50.037683, "longitude": 15.787117, "timestamp": "2024-05-06T11:09:58.945Z", "free_bikes": 0, "empty_slots": null, "extra": {"uid": "29746123", "bike_uids": [""], "number": "47505"}}, {"id": "39b9c47e1cd9f3a3223004591501b3f3", "name": "Albert, Pod\u011bbradsk\u00e1", "latitude": 50.056084, "longitude": 15.762082, "timestamp": "2024-05-06T11:09:59.058Z", "free_bikes": 0, "empty_slots": null, "extra": {"uid": "158042737", "bike_uids": [""], "number": "45392"}}, {"id": "3ae68dfcbdf2997cc958804eeab6bd27", "name": "Polabiny Kpt. Barto\u0161e", "latitude": 50.044301, "longitude": 15.752001, "timestamp": "2024-05-06T11:09:58.965Z", "free_bikes": 0, "empty_slots": null, "extra": {"uid": "29750190", "bike_uids": [""], "number": "47514"}}, {"id": "3b817b0a2af1a7dc5fd6b1226bf46494", "name": "Za Grandem", "latitude": 50.038544, "longitude": 15.775664, "timestamp": "2024-05-06T11:09:59.001Z", "free_bikes": 0, "empty_slots": null, "extra": {"uid": "29752472", "bike_uids": [""], "number": "47530"}}, {"id": "4028e1347babda4165913ef344f7deee", "name": "Masarykovo n\u00e1m\u011bst\u00ed", "latitude": 50.037284, "longitude": 15.769886, "timestamp": "2024-05-06T11:09:59.044Z", "free_bikes": 0, "empty_slots": 6, "extra": {"slots": 6, "uid": "158039882", "bike_uids": [""], "number": "45385"}}, {"id": "41df63b8a22a3782a20cc1dc62eb8616", "name": "Kampus Doubravice", "latitude": 50.061797, "longitude": 15.738082, "timestamp": "2024-05-06T11:09:59.037Z", "free_bikes": 0, "empty_slots": 3, "extra": {"slots": 4, "uid": "152260960", "bike_uids": [""], "number": "45396"}}, {"id": "4ab9391e630e6a9a8573d2797b026bfb", "name": "UP - Fakulta Elektrotechniky a informatiky", "latitude": 50.033513, "longitude": 15.766963, "timestamp": "2024-05-06T11:09:59.024Z", "free_bikes": 0, "empty_slots": null, "extra": {"uid": "30613955", "bike_uids": [""], "number": "47540"}}, {"id": "4b6cd7ff478bc1251a3b90f25f5292ca", "name": "C\u00edrkev Bratrsk\u00e1", "latitude": 50.045948, "longitude": 15.762228, "timestamp": "2024-05-06T11:09:59.058Z", "free_bikes": 0, "empty_slots": 10, "extra": {"slots": 10, "uid": "158042216", "bike_uids": [""], "number": "45391"}}, {"id": "4ff9687583d5083d0a04067eb7243a16", "name": "Nemocnice Pardubice", "latitude": 50.029806, "longitude": 15.789907, "timestamp": "2024-05-06T11:09:59.027Z", "free_bikes": 0, "empty_slots": null, "extra": {"uid": "30925063", "bike_uids": [""], "number": "47541"}}, {"id": "543cff3bd9715f3019a4e431dd0025a4", "name": "Sv\u00edtkov - po\u0161ta", "latitude": 50.026932, "longitude": 15.728495, "timestamp": "2024-05-06T11:09:58.958Z", "free_bikes": 0, "empty_slots": null, "extra": {"uid": "29749855", "bike_uids": [""], "number": "47512"}}, {"id": "54eb89b81800f3be64ddfde4f7c114d5", "name": "Pern\u0161t\u00fdnsk\u00e9 n\u00e1m\u011bst\u00ed", "latitude": 50.038758, "longitude": 15.779033, "timestamp": "2024-05-06T11:09:59.022Z", "free_bikes": 0, "empty_slots": null, "extra": {"uid": "30613108", "bike_uids": [""], "number": "47538"}}, {"id": "577dbe315fb079bb99b099a2ad0dbc38", "name": "Studentsk\u00e1 - univerzita", "latitude": 50.04817, "longitude": 15.769769, "timestamp": "2024-05-06T11:09:58.967Z", "free_bikes": 0, "empty_slots": null, "extra": {"uid": "29751228", "bike_uids": [""], "number": "47517"}}, {"id": "591e18a01b47afc1992db40cfe1bdd68", "name": "Ji\u0159\u00edho Tomana", "latitude": 50.049754, "longitude": 15.75786, "timestamp": "2024-05-06T11:09:58.966Z", "free_bikes": 0, "empty_slots": null, "extra": {"uid": "29750615", "bike_uids": [""], "number": "47516"}}, {"id": "5ef14bc2c38056281a8d71945a17f819", "name": "Sokolovna - Na Ol\u0161ink\u00e1ch", "latitude": 50.035605, "longitude": 15.781469, "timestamp": "2024-05-06T11:09:58.942Z", "free_bikes": 0, "empty_slots": null, "extra": {"uid": "29746009", "bike_uids": [""], "number": "47502"}}, {"id": "5f3524e6288ab85c0a3bdbff92930b2e", "name": "Poliklinika, Dubina", "latitude": 50.041133, "longitude": 15.805829, "timestamp": "2024-05-06T11:09:59.067Z", "free_bikes": 0, "empty_slots": 7, "extra": {"slots": 7, "uid": "158046029", "bike_uids": [""], "number": "45384"}}, {"id": "64e5100d4c987df1568cfdfae409f6d4", "name": "Na Trojce, Polabiny", "latitude": 50.045037, "longitude": 15.757018, "timestamp": "2024-05-06T11:09:59.057Z", "free_bikes": 0, "empty_slots": 7, "extra": {"slots": 7, "uid": "158041981", "bike_uids": [""], "number": "45390"}}, {"id": "727ddfed43062a4bb8491534677e8043", "name": "Podchod k rosick\u00e9mu n\u00e1dra\u017e\u00ed", "latitude": 50.045835, "longitude": 15.743836, "timestamp": "2024-05-06T11:09:59.077Z", "free_bikes": 0, "empty_slots": 8, "extra": {"slots": 8, "uid": "167222141", "bike_uids": [""], "number": "45394"}}, {"id": "7538de5c91d326c644972fdc5cbee515", "name": "Na Spravedlnosti - K.\u0158. P\u010cR", "latitude": 50.029061, "longitude": 15.774071, "timestamp": "2024-05-06T11:09:59.006Z", "free_bikes": 0, "empty_slots": null, "extra": {"uid": "29753410", "bike_uids": [""], "number": "47533"}}, {"id": "7c6518ff5d37366bb3d8fb3be4061de5", "name": "T\u0159\u00edda M\u00edru - po\u0161ta", "latitude": 50.037027, "longitude": 15.774257, "timestamp": "2024-05-06T11:09:59.023Z", "free_bikes": 0, "empty_slots": null, "extra": {"uid": "30613827", "bike_uids": [""], "number": "47539"}}, {"id": "80dbb647933a6218f89a18a82345c6e3", "name": "Husova", "latitude": 50.044164, "longitude": 15.794601, "timestamp": "2024-05-06T11:09:59.076Z", "free_bikes": 0, "empty_slots": 5, "extra": {"slots": 5, "uid": "158046916", "bike_uids": [""], "number": "45382"}}, {"id": "8766f4eeb4955846cef361481e04c9cc", "name": "Dra\u017ekovice - obchod", "latitude": 50.000212, "longitude": 15.771722, "timestamp": "2024-05-06T11:09:59.034Z", "free_bikes": 0, "empty_slots": 6, "extra": {"slots": 6, "uid": "145369985", "bike_uids": [""], "number": "45379"}}, {"id": "8e52485fd9116c65e89b62a19a28d8ad", "name": "Pernerova - St\u00e1tn\u00ed spr\u00e1va", "latitude": 50.038861, "longitude": 15.770976, "timestamp": "2024-05-06T11:09:59.007Z", "free_bikes": 0, "empty_slots": null, "extra": {"uid": "29755203", "bike_uids": [""], "number": "47627"}}, {"id": "95f59ec2e21c75235137daca0acf8de8", "name": "OC Pal\u00e1c Pardubice - vchod A", "latitude": 50.036611, "longitude": 15.769479, "timestamp": "2024-05-06T11:09:58.983Z", "free_bikes": 0, "empty_slots": null, "extra": {"uid": "29751736", "bike_uids": [""], "number": "47526"}}, {"id": "9dd23897482c524cfecc4190aeea3b2b", "name": "N\u00e1m\u011bst\u00ed Dukelsk\u00fdch hrdin\u016f", "latitude": 50.022908, "longitude": 15.759323, "timestamp": "2024-05-06T11:09:58.968Z", "free_bikes": 0, "empty_slots": null, "extra": {"uid": "29751388", "bike_uids": [""], "number": "47519"}}, {"id": "9fc62cd7c7f218787fa25f2e5c6ec9a3", "name": "Kancel\u00e1\u0159e Pod Vinic\u00ed", "latitude": 50.030486, "longitude": 15.782035, "timestamp": "2024-05-06T11:09:59.056Z", "free_bikes": 0, "empty_slots": 5, "extra": {"slots": 5, "uid": "158041482", "bike_uids": [""], "number": "45422"}}, {"id": "a11473aad722a29744ba86492b6ed314", "name": "Sportovn\u00ed hala UP", "latitude": 50.047095, "longitude": 15.772258, "timestamp": "2024-05-06T11:09:58.970Z", "free_bikes": 0, "empty_slots": null, "extra": {"uid": "29751502", "bike_uids": [""], "number": "47522"}}, {"id": "a1b3d4ed5313e1b6cb3bac8e3479a302", "name": "Komensk\u00e9ho n\u00e1m\u011bst\u00ed", "latitude": 50.038162, "longitude": 15.781485, "timestamp": "2024-05-06T11:09:58.944Z", "free_bikes": 0, "empty_slots": null, "extra": {"uid": "29746068", "bike_uids": [""], "number": "47504"}}, {"id": "a9cf20b3c7086751e2309fb573b150eb", "name": "Park na \u0161pici", "latitude": 50.044453, "longitude": 15.778537, "timestamp": "2024-05-06T11:09:59.002Z", "free_bikes": 0, "empty_slots": null, "extra": {"uid": "29752573", "bike_uids": [""], "number": "47531"}}, {"id": "aac3a1c529d1339990dbe008d0bb4891", "name": "T\u0159\u00edda M\u00edru Pardubice 2", "latitude": 50.036959, "longitude": 15.774318, "timestamp": "2024-05-06T11:09:59.033Z", "free_bikes": 0, "empty_slots": null, "extra": {"uid": "35855774", "bike_uids": [""], "number": "47543"}}, {"id": "b1ea1bc99b575473da72991e0017de39", "name": "U Katastr\u00e1ln\u00edho \u00fa\u0159adu", "latitude": 50.039254, "longitude": 15.783298, "timestamp": "2024-05-06T11:09:58.943Z", "free_bikes": 0, "empty_slots": null, "extra": {"uid": "29746047", "bike_uids": [""], "number": "47503"}}, {"id": "b40916343983f688e9da3bfe34e14d39", "name": "Palack\u00e9ho t\u0159\u00edda", "latitude": 50.034625, "longitude": 15.763943, "timestamp": "2024-05-06T11:09:59.045Z", "free_bikes": 0, "empty_slots": 4, "extra": {"slots": 4, "uid": "158040425", "bike_uids": [""], "number": "45387"}}, {"id": "b7c6f9dd2bfc97ee78db9a0992e0e9a4", "name": "Aquacentrum Pardubice", "latitude": 50.03381, "longitude": 15.781957, "timestamp": "2024-05-06T11:09:58.940Z", "free_bikes": 0, "empty_slots": null, "extra": {"uid": "29745906", "bike_uids": [""], "number": "47510"}}, {"id": "c17c3569497b883aec9d48d96be6937a", "name": "Dubina", "latitude": 50.043509, "longitude": 15.808845, "timestamp": "2024-05-06T11:09:59.032Z", "free_bikes": 0, "empty_slots": null, "extra": {"uid": "31868207", "bike_uids": [""], "number": "47542"}}, {"id": "c6452e5390914e081ef59817280bb6d6", "name": "H centrum", "latitude": 50.063132, "longitude": 15.77455, "timestamp": "2024-05-06T11:09:59.015Z", "free_bikes": 0, "empty_slots": null, "extra": {"uid": "30278163", "bike_uids": [""], "number": "47537"}}, {"id": "c922b5619f4738ba04a637e36f200464", "name": "Termin\u00e1l B", "latitude": 50.033102, "longitude": 15.754539, "timestamp": "2024-05-06T11:09:59.084Z", "free_bikes": 0, "empty_slots": 10, "extra": {"slots": 10, "uid": "203568824", "bike_uids": [""], "number": "45397"}}, {"id": "d449cf45924f353ae054c65d106df2ce", "name": "Zborovsk\u00e9 n\u00e1m\u011bst\u00ed", "latitude": 50.022613, "longitude": 15.77145, "timestamp": "2024-05-06T11:09:59.085Z", "free_bikes": 0, "empty_slots": 6, "extra": {"slots": 6, "uid": "265397056", "bike_uids": [""], "number": "45423"}}, {"id": "d81f9ef3440fcb54114ef32e9766e347", "name": "OC Atrium - vchod B", "latitude": 50.037483, "longitude": 15.769147, "timestamp": "2024-05-06T11:09:58.984Z", "free_bikes": 0, "empty_slots": null, "extra": {"uid": "29751789", "bike_uids": [""], "number": "47527"}}, {"id": "d90582e3a85aa165940dd6a99565b10d", "name": "Jind\u0159i\u0161sk\u00e1", "latitude": 50.034946, "longitude": 15.777828, "timestamp": "2024-05-06T11:09:59.047Z", "free_bikes": 0, "empty_slots": 8, "extra": {"slots": 8, "uid": "158040927", "bike_uids": [""], "number": "45381"}}, {"id": "da2f4313e975c1ed06f41bde953778ba", "name": "Rosick\u00e9 n\u00e1dra\u017e\u00ed", "latitude": 50.045308, "longitude": 15.743175, "timestamp": "2024-05-06T11:09:59.076Z", "free_bikes": 0, "empty_slots": 8, "extra": {"slots": 8, "uid": "167222018", "bike_uids": [""], "number": "45393"}}, {"id": "f0a84d94b51754ed25a601e3f2d1c545", "name": "17. listopadu", "latitude": 50.033727, "longitude": 15.770262, "timestamp": "2024-05-06T11:09:58.985Z", "free_bikes": 0, "empty_slots": null, "extra": {"uid": "29751918", "bike_uids": [""], "number": "47528"}}, {"id": "f74f2b08ce13fe192b3732a29cee6dde", "name": "Zimn\u00ed stadion - hlavn\u00ed vchod", "latitude": 50.039681, "longitude": 15.769131, "timestamp": "2024-05-06T11:09:58.982Z", "free_bikes": 0, "empty_slots": null, "extra": {"uid": "29751674", "bike_uids": [""], "number": "47525"}}, {"id": "fd619375115186687019b66b4f82f982", "name": "Kaufland - B\u011blehradsk\u00e1", "latitude": 50.04777, "longitude": 15.750897, "timestamp": "2024-05-06T11:09:58.966Z", "free_bikes": 0, "empty_slots": null, "extra": {"uid": "29750264", "bike_uids": [""], "number": "47515"}}, {"id": "fda7681176dea70bb3306be012dae8fd", "name": "Albert, Palack\u00e9ho", "latitude": 50.034526, "longitude": 15.753609, "timestamp": "2024-05-06T11:09:59.074Z", "free_bikes": 0, "empty_slots": null, "extra": {"uid": "158046511", "bike_uids": [""], "number": "45388"}}]}