{"id": "nomago-zanaprej", "name": "Nomago Bikes - ZANAPREJ", "location": {"latitude": 46.1392, "longitude": 14.9785, "city": "Zagorje ob Savi", "country": "SI"}, "href": "/v2/networks/nomago-zanaprej", "company": ["Nextbike GmbH"], "system": "Nextbike", "stations": [{"id": "051703550aed890f66a92ae70fe19abe", "name": "Helfar", "latitude": 46.13201, "longitude": 14.995496, "timestamp": "2025-05-03T03:15:40.023441+00:00Z", "free_bikes": 2, "empty_slots": 8, "extra": {"uid": "51003977", "number": "5996", "slots": 10, "bike_uids": ["88704", "89706"], "virtual": false}}, {"id": "0b5d49a290aa88a0fbc69904f9623723", "name": "Izlake", "latitude": 46.153712, "longitude": 14.929158, "timestamp": "2025-05-03T03:15:40.023516+00:00Z", "free_bikes": 10, "empty_slots": 1, "extra": {"uid": "51009903", "number": "5999", "slots": 10, "bike_uids": ["88705", "88697", "88695", "88693", "88691", "88684", "88667", "88663", "88661", "88617"], "virtual": false}}, {"id": "4651141a5b10c5fe895540df3c08efbe", "name": "Toplice", "latitude": 46.138791, "longitude": 14.988994, "timestamp": "2025-05-03T03:15:40.023728+00:00Z", "free_bikes": 8, "empty_slots": 3, "extra": {"uid": "296028188", "number": "5963", "slots": 10, "bike_uids": ["88708", "88682", "88671", "88670", "88657", "88655", "88615", "89707"], "virtual": false}}, {"id": "4efbd43fe3763d03a7249ead8899d714", "name": "Mestna plo\u0161\u010dad", "latitude": 46.133951, "longitude": 14.995072, "timestamp": "2025-05-03T03:15:40.023688+00:00Z", "free_bikes": 1, "empty_slots": 8, "extra": {"uid": "116010907", "number": "5994", "slots": 10, "bike_uids": ["88685"], "virtual": false}}, {"id": "9651589f15b9f95edad81e8e22c65515", "name": "Evropark", "latitude": 46.142658, "longitude": 15.005846, "timestamp": "2025-05-03T03:15:40.023468+00:00Z", "free_bikes": 2, "empty_slots": 10, "extra": {"uid": "51007375", "number": "5997", "slots": 10, "bike_uids": ["88656", "89708"], "virtual": false}}, {"id": "bb175e69db01aeb29d4943c959802177", "name": "Kisovec", "latitude": 46.139977, "longitude": 14.962439, "timestamp": "2025-05-03T03:15:40.023491+00:00Z", "free_bikes": 14, "empty_slots": 1, "extra": {"uid": "51009276", "number": "5998", "slots": 10, "bike_uids": ["88703", "88694", "88692", "88689", "88688", "88687", "88681", "88677", "88666", "88658", "88654", "88619", "88711", "89705"], "virtual": false}}, {"id": "f227b00a8ab92f398b8d8dfccfe77b3c", "name": "\u017delezni\u0161ka postaja Zagorje", "latitude": 46.120675, "longitude": 14.990438, "timestamp": "2025-05-03T03:15:40.023388+00:00Z", "free_bikes": 2, "empty_slots": 7, "extra": {"uid": "51000257", "number": "5995", "slots": 10, "bike_uids": ["88673", "88668"], "virtual": false}}]}