{"id": "nubija-changwon", "name": "\ub204\ube44\uc790 (Nubija)", "location": {"latitude": 35.22369091380072, "longitude": 128.67059887227657, "city": "\ucc3d\uc6d0\uc2dc (Changwon)", "country": "KR"}, "href": "/v2/networks/nubija-changwon", "company": ["Changwon City"], "stations": [{"id": "001d6ca9b099f6a24d57529724d8433d", "name": "\uad6c\uc554\uc911\ud559\uad50", "latitude": 35.256414, "longitude": 128.597143, "timestamp": "2025-05-03T03:15:44.300918+00:00Z", "free_bikes": 0, "empty_slots": 26, "extra": {"uid": "249", "area": " \uacbd\ub0a8 \ucc3d\uc6d0\uc2dc \ub9c8\uc0b0\ud68c\uc6d0\uad6c \uad6c\uc554\ub3d9 "}}, {"id": "00671fa7ac14a98a862e4cc81214a9e9", "name": "\uc11d\ub3d9 \uacf5\uc601\uc8fc\ucc28\ube4c\ub529", "latitude": 35.1528353, "longitude": 128.7053396, "timestamp": "2025-05-03T03:15:45.776522+00:00Z", "free_bikes": 0, "empty_slots": 0, "extra": {"uid": "424", "area": " \uacbd\ub0a8 \ucc3d\uc6d0\uc2dc \uc9c4\ud574\uad6c \uc11d\ub3d9 "}}, {"id": "01c7352cf81e7c1fadec11dd2bfd749d", "name": "\ubc18\uc1a1\ub3d9\ud589\uc815\ubcf5\uc9c0\uc13c\ud130", "latitude": 35.2357239, "longitude": 128.6698151, "timestamp": "2025-05-03T03:15:45.305633+00:00Z", "free_bikes": 0, "empty_slots": 0, "extra": {"uid": "380", "area": " \uacbd\ub0a8 \ucc3d\uc6d0\uc2dc \uc131\uc0b0\uad6c \ubc18\ub9bc\ub3d9 "}}, {"id": "01f6d17feff2c4ebd94621835dd53bc4", "name": "\ub0b4\ub3d9\ubaa9\ub828\uc0c1\uac00", "latitude": 35.22275996983592, "longitude": 128.66114884614944, "timestamp": "2025-05-03T03:15:44.411219+00:00Z", "free_bikes": 0, "empty_slots": 15, "extra": {"uid": "45", "area": " \uacbd\ub0a8 \ucc3d\uc6d0\uc2dc \uc131\uc0b0\uad6c \ub0b4\ub3d9 "}}, {"id": "0334aedfa3dfeb31b169b1c54cabdd1a", "name": "\uc6c52\ub3d9 \uccad\uc548\uacf5\uc6d0", "latitude": 35.103536, "longitude": 128.8066426, "timestamp": "2025-05-03T03:15:45.959221+00:00Z", "free_bikes": 0, "empty_slots": 9, "extra": {"uid": "188", "area": " \uacbd\ub0a8 \ucc3d\uc6d0\uc2dc \uc9c4\ud574\uad6c \uc6a9\uc6d0\ub3d9 "}}, {"id": "03934e17e763c36394408a10bcc93148", "name": "\ub300\uc6d0\ubbfc\uc6d0\uc13c\ud130", "latitude": 35.23245737186452, "longitude": 128.65070164203644, "timestamp": "2025-05-03T03:15:44.591754+00:00Z", "free_bikes": 0, "empty_slots": 12, "extra": {"uid": "122", "area": " \uacbd\ub0a8 \ucc3d\uc6d0\uc2dc \uc131\uc0b0\uad6c \ub300\uc6d0\ub3d9 "}}, {"id": "0485880acdc7d67408e423132d353185", "name": "\uae08\uac15\uc0b0\uba74\uc625\ubcf8\uc810 \uc55e", "latitude": 35.15223164986517, "longitude": 128.66214394569397, "timestamp": "2025-05-03T03:15:44.301437+00:00Z", "free_bikes": 0, "empty_slots": 20, "extra": {"uid": "152", "area": " \uacbd\ub0a8 \ucc3d\uc6d0\uc2dc \uc9c4\ud574\uad6c \ucda9\ubb34\ub3d9 "}}, {"id": "04b829906b2165abfc2bd1979d69c782", "name": "\uc131\uc0b0\uad6c\uccad", "latitude": 35.198868656338476, "longitude": 128.70226979255676, "timestamp": "2025-05-03T03:15:45.777348+00:00Z", "free_bikes": 0, "empty_slots": 20, "extra": {"uid": "91", "area": " \uacbd\ub0a8 \ucc3d\uc6d0\uc2dc \uc131\uc0b0\uad6c \uc131\uc8fc\ub3d9 "}}, {"id": "04e4e6e974d856348e6165733712884a", "name": "\ucc3d\uc6d0\uae30\uacc4\uacf5\uad6c\uc0c1\uac00", "latitude": 35.2340786, "longitude": 128.6412194, "timestamp": "2025-05-03T03:15:46.163577+00:00Z", "free_bikes": 0, "empty_slots": 0, "extra": {"uid": "377", "area": " \uacbd\ub0a8 \ucc3d\uc6d0\uc2dc \uc758\ucc3d\uad6c \ud314\uc6a9\ub3d9 "}}, {"id": "05734c880f0a0930cda539be70ef8a20", "name": "\uc724\ubcd1\uc6d0 \uac74\ub108\ud3b8", "latitude": 35.261336754148815, "longitude": 128.6207601428032, "timestamp": "2025-05-03T03:15:45.973037+00:00Z", "free_bikes": 0, "empty_slots": 15, "extra": {"uid": "3", "area": " \uacbd\ub0a8 \ucc3d\uc6d0\uc2dc \uc758\ucc3d\uad6c \uc11c\uc0c1\ub3d9 "}}, {"id": "05b3fb002d38e877114a17039bdaffb1", "name": "\ub355\uc0b0\ub3d9 \ud574\uad70\uc544\ud30c\ud2b8 \ubc84\uc2a4\uc815\ub958\uc18c", "latitude": 35.145669804630415, "longitude": 128.70729088783264, "timestamp": "2025-05-03T03:15:44.592673+00:00Z", "free_bikes": 0, "empty_slots": 17, "extra": {"uid": "213", "area": " \uacbd\ub0a8 \ucc3d\uc6d0\uc2dc \uc9c4\ud574\uad6c \uc790\uc740\ub3d9 "}}, {"id": "05ba4f7a2669d51d99b5ec5caafb4023", "name": "\uc0c1\ub0a8\ub3c4\uc11c\uad00", "latitude": 35.2141204, "longitude": 128.6951881, "timestamp": "2025-05-03T03:15:45.722194+00:00Z", "free_bikes": 0, "empty_slots": 14, "extra": {"uid": "73", "area": " \uacbd\ub0a8 \ucc3d\uc6d0\uc2dc \uc131\uc0b0\uad6c \uac00\uc74c\uc815\ub3d9 "}}, {"id": "06aa97c03e59596be1de1af3fbb90b65", "name": "\ub86f\ub370\uc601\ud504\ub77c\uc790 \uc678\ubd80\uc8fc\ucc28\uc7a5\uc606", "latitude": 35.2246958, "longitude": 128.6835902, "timestamp": "2025-05-03T03:15:44.757533+00:00Z", "free_bikes": 0, "empty_slots": 0, "extra": {"uid": "394", "area": " \uacbd\ub0a8 \ucc3d\uc6d0\uc2dc \uc131\uc0b0\uad6c \uc0c1\ub0a8\ub3d9 "}}, {"id": "082aa7dcec7845261bda6315496b9cdb", "name": "\uc758\ucc3d\ub3d9 \ud0dc\uad11\uc8fc\uc720\uc18c", "latitude": 35.262101094397366, "longitude": 128.6147654056549, "timestamp": "2025-05-03T03:15:46.048789+00:00Z", "free_bikes": 0, "empty_slots": 14, "extra": {"uid": "118", "area": " \uacbd\ub0a8 \ucc3d\uc6d0\uc2dc \uc758\ucc3d\uad6c \uc11c\uc0c1\ub3d9 "}}, {"id": "0850f6397c9ff8533d5b959e2d3ad01f", "name": "\ucc3d\uc6d0\ucd95\uad6c\uc13c\ud130", "latitude": 35.222295447024074, "longitude": 128.7047642469406, "timestamp": "2025-05-03T03:15:46.173947+00:00Z", "free_bikes": 0, "empty_slots": 24, "extra": {"uid": "139", "area": " \uacbd\ub0a8 \ucc3d\uc6d0\uc2dc \uc131\uc0b0\uad6c \uc0ac\ud30c\uc815\ub3d9 "}}, {"id": "0928e734c5281d5fd7e9167aec47fdca", "name": "\ub3c4\uacc4\uad11\uc7a5\uad50\ucc28\ub85c", "latitude": 35.261568, "longitude": 128.6297216, "timestamp": "2025-05-03T03:15:44.593547+00:00Z", "free_bikes": 0, "empty_slots": 20, "extra": {"uid": "263", "area": " \uacbd\ub0a8 \ucc3d\uc6d0\uc2dc \uc758\ucc3d\uad6c \uc18c\ub2f5\ub3d9 "}}, {"id": "0ab72c9b68d8f490e4c7e908c5df47df", "name": "(\uad6c)\ubbf8\ub798\uc5ec\uc131\ubcd1\uc6d0\uc55e", "latitude": 35.2575034, "longitude": 128.6343368, "timestamp": "2025-05-03T03:15:43.365122+00:00Z", "free_bikes": 0, "empty_slots": 0, "extra": {"uid": "352", "area": " \uacbd\ub0a8 \ucc3d\uc6d0\uc2dc \uc758\ucc3d\uad6c \ub3c4\uacc4\ub3d9 "}}, {"id": "0b011327198011474b56e1aa12479987", "name": "\ubc18\uc9c0\ub3d9 \ud3c9\uc0dd\ud559\uc2b5\uc13c\ud130", "latitude": 35.2408173, "longitude": 128.6586463, "timestamp": "2025-05-03T03:15:45.306066+00:00Z", "free_bikes": 0, "empty_slots": 0, "extra": {"uid": "319", "area": " \uacbd\ub0a8 \ucc3d\uc6d0\uc2dc \uc131\uc0b0\uad6c \ubc18\uc9c0\ub3d9 "}}, {"id": "0b6f976d38a84c1f3a963393934480c7", "name": "\ud68c\uc6d0\ub3d9\ud314\uac70\ub9ac", "latitude": 35.21852219623962, "longitude": 128.5635781288147, "timestamp": "2025-05-03T03:15:46.242540+00:00Z", "free_bikes": 0, "empty_slots": 18, "extra": {"uid": "229", "area": " \uacbd\ub0a8 \ucc3d\uc6d0\uc2dc \ub9c8\uc0b0\ud68c\uc6d0\uad6c \ud68c\uc6d0\ub3d9 "}}, {"id": "0b8b23172e2e4ba5ea5e1e165561e9f0", "name": "\uc131\uc6d03\ucc28\uc544\ud30c\ud2b8 \ubc84\uc2a4\uc815\ub958\uc18c", "latitude": 35.21510157748079, "longitude": 128.7047454714775, "timestamp": "2025-05-03T03:15:45.778432+00:00Z", "free_bikes": 0, "empty_slots": 23, "extra": {"uid": "78", "area": " \uacbd\ub0a8 \ucc3d\uc6d0\uc2dc \uc131\uc0b0\uad6c \uc0ac\ud30c\uc815\ub3d9 "}}, {"id": "0bf7190fdae4a81a56d0ce23f1dbe85c", "name": "\ucc3d\uc6d0\uc911\uc559\uc911 \ubc84\uc2a4\uc815\ub958\uc18c", "latitude": 35.2391316, "longitude": 128.6585578, "timestamp": "2025-05-03T03:15:46.173711+00:00Z", "free_bikes": 0, "empty_slots": 0, "extra": {"uid": "318", "area": " \uacbd\ub0a8 \ucc3d\uc6d0\uc2dc \uc131\uc0b0\uad6c \ubc18\uc9c0\ub3d9 "}}, {"id": "0d48d1e523765d271d8efeee858d8927", "name": "\uc790\uc740\ub3d9\uc0ac\ud68c\ubcf5\uc9c0\uc13c\ud130 \ubc84\uc2a4\uc815\ub958\uc18c", "latitude": 35.14954732258688, "longitude": 128.70722651481628, "timestamp": "2025-05-03T03:15:46.075988+00:00Z", "free_bikes": 0, "empty_slots": 20, "extra": {"uid": "214", "area": " \uacbd\ub0a8 \ucc3d\uc6d0\uc2dc \uc9c4\ud574\uad6c \uc790\uc740\ub3d9 "}}, {"id": "0ed2c601e1b48f5220b763ac02dd4112", "name": "\uacbd\ub0a8\uc740\ud589 \ubcf8\uc810 \uc55e", "latitude": 35.2302314100841, "longitude": 128.57669949531555, "timestamp": "2025-05-03T03:15:44.140870+00:00Z", "free_bikes": 0, "empty_slots": 18, "extra": {"uid": "212", "area": " \uacbd\ub0a8 \ucc3d\uc6d0\uc2dc \ub9c8\uc0b0\ud68c\uc6d0\uad6c \uc11d\uc804\ub3d9 "}}, {"id": "0ed2fe515c5d88c400af8c5c4c4fc6c1", "name": "\ucc3d\uc6d0\ub0a8\uace0\uc0bc\uac70\ub9ac", "latitude": 35.21129073764753, "longitude": 128.68119299411774, "timestamp": "2025-05-03T03:15:46.163816+00:00Z", "free_bikes": 0, "empty_slots": 22, "extra": {"uid": "131", "area": " \uacbd\ub0a8 \ucc3d\uc6d0\uc2dc \uc131\uc0b0\uad6c \uc678\ub3d9 "}}, {"id": "0f25bc19b0514e0afdea2ba9083595da", "name": "\uacbd\ud654\uc5ed\uacf5\uc6d0(\uc911\uac04)", "latitude": 35.1586652, "longitude": 128.6849179, "timestamp": "2025-05-03T03:15:44.143510+00:00Z", "free_bikes": 0, "empty_slots": 0, "extra": {"uid": "435", "area": " \uacbd\ub0a8 \ucc3d\uc6d0\uc2dc \uc9c4\ud574\uad6c \uacbd\ud654\ub3d9 "}}, {"id": "0f7065b2bfb79d44c101773c47b389e9", "name": "\ub9c8\uc0b0\uc2dc\uc678\ubc84\uc2a4 \ud130\ubbf8\ub110", "latitude": 35.23873180151837, "longitude": 128.583083152771, "timestamp": "2025-05-03T03:15:44.758324+00:00Z", "free_bikes": 0, "empty_slots": 18, "extra": {"uid": "194", "area": " \uacbd\ub0a8 \ucc3d\uc6d0\uc2dc \ub9c8\uc0b0\ud68c\uc6d0\uad6c \ud569\uc131\ub3d9 "}}, {"id": "12c6909a0c6a3a1e26ba2468e040daaa", "name": "\uc5d0\ub108\uc9c0\ud658\uacbd \uacfc\ud559\uacf5\uc6d0", "latitude": 35.1440737, "longitude": 128.6898398, "timestamp": "2025-05-03T03:15:45.920637+00:00Z", "free_bikes": 0, "empty_slots": 0, "extra": {"uid": "442", "area": " \uacbd\ub0a8 \ucc3d\uc6d0\uc2dc \uc9c4\ud574\uad6c \ud48d\ud638\ub3d9 "}}, {"id": "12da035910e0436b0dd74e20c18c1ff8", "name": "\ud1f4\ucd0c2\ud638\uad50 \uc0bc\uac70\ub9ac", "latitude": 35.2421229, "longitude": 128.6855918, "timestamp": "2025-05-03T03:15:46.197490+00:00Z", "free_bikes": 0, "empty_slots": 10, "extra": {"uid": "285", "area": " \uacbd\ub0a8 \ucc3d\uc6d0\uc2dc \uc758\ucc3d\uad6c \uc0ac\ub9bc\ub3d9 "}}, {"id": "13bcd86bef79c1d7b00068cb9c0a60fa", "name": "\ub0b4\ub3d9\uacf5\ub2e8\uc0c1\uac00\uc606 \ubc84\uc2a4\uc815\ub958\uc18c", "latitude": 35.216223, "longitude": 128.6705017, "timestamp": "2025-05-03T03:15:44.345490+00:00Z", "free_bikes": 0, "empty_slots": 0, "extra": {"uid": "450", "area": " \uacbd\ub0a8 \ucc3d\uc6d0\uc2dc \uc131\uc0b0\uad6c \ub0b4\ub3d9 "}}, {"id": "1462796678cc548724ae5ce86e8b9e04", "name": "\ub355\uc0b0\uc544\ud30c\ud2b8 \uc55e", "latitude": 35.21198912623864, "longitude": 128.7057588775454, "timestamp": "2025-05-03T03:15:44.593025+00:00Z", "free_bikes": 0, "empty_slots": 24, "extra": {"uid": "80", "area": " \uacbd\ub0a8 \ucc3d\uc6d0\uc2dc \uc131\uc0b0\uad6c \ub300\ubc29\ub3d9 "}}, {"id": "15c6fa55e701a768800f50b815f27ece", "name": "\ub0b4\uc11c\ucf54\uc624\ub8712\ucc28\uc0c1\uac00\uc55e", "latitude": 35.26103890040936, "longitude": 128.52301239967346, "timestamp": "2025-05-03T03:15:44.459434+00:00Z", "free_bikes": 0, "empty_slots": 14, "extra": {"uid": "191", "area": " \uacbd\ub0a8 \ucc3d\uc6d0\uc2dc \ub9c8\uc0b0\ud68c\uc6d0\uad6c \ub0b4\uc11c\uc74d \ud638\uacc4\ub9ac"}}, {"id": "164e0062465129f8c3e8c8c578022d56", "name": "\ubd09\ub9bc\uc0c1\uac00\uc0ac\uac70\ub9ac", "latitude": 35.24588633741366, "longitude": 128.67105156183243, "timestamp": "2025-05-03T03:15:45.569266+00:00Z", "free_bikes": 0, "empty_slots": 22, "extra": {"uid": "35", "area": " \uacbd\ub0a8 \ucc3d\uc6d0\uc2dc \uc758\ucc3d\uad6c \ubd09\uace1\ub3d9 "}}, {"id": "16b77d4c86fec589786607965e205604", "name": "\uc9c4\ud5743\ud638\uad11\uc7a5 \uad50\ucc28\ub85c(\uc548\ubbfc\ud130\ub110\uc55e)", "latitude": 35.1594596, "longitude": 128.6984356, "timestamp": "2025-05-03T03:15:46.105441+00:00Z", "free_bikes": 0, "empty_slots": 0, "extra": {"uid": "419", "area": " \uacbd\ub0a8 \ucc3d\uc6d0\uc2dc \uc9c4\ud574\uad6c \uc11d\ub3d9 "}}, {"id": "174f71927fa3597ba0179a29d88ed2aa", "name": "\uc2e0\uc6d4\uc131\uc0b0\ubcf5\uc9c0\ud68c\uad00", "latitude": 35.23035191154726, "longitude": 128.6952906847, "timestamp": "2025-05-03T03:15:45.890785+00:00Z", "free_bikes": 0, "empty_slots": 15, "extra": {"uid": "135", "area": " \uacbd\ub0a8 \ucc3d\uc6d0\uc2dc \uc131\uc0b0\uad6c \uc2e0\uc6d4\ub3d9 "}}, {"id": "179151c223058c37605542e8cd3f6464", "name": "\uacbd\ud654\ub3d9 \uc8fc\ubbfc\uc13c\ud130", "latitude": 35.1542827, "longitude": 128.6869725, "timestamp": "2025-05-03T03:15:44.142978+00:00Z", "free_bikes": 0, "empty_slots": 0, "extra": {"uid": "449", "area": " \uacbd\ub0a8 \ucc3d\uc6d0\uc2dc \uc9c4\ud574\uad6c \uacbd\ud654\ub3d9 "}}, {"id": "1945c7ff0a67f7e2ef57e9690f118d1b", "name": "\ud589\uc554\ubb38\uc608\ub9c8\ub8e8 \uc8fc\ucc28\uc7a5", "latitude": 35.1176483, "longitude": 128.6994575, "timestamp": "2025-05-03T03:15:46.239973+00:00Z", "free_bikes": 0, "empty_slots": 0, "extra": {"uid": "444", "area": " \uacbd\ub0a8 \ucc3d\uc6d0\uc2dc \uc9c4\ud574\uad6c \ud589\uc554\ub3d9 "}}, {"id": "196e6037b3f5dcc7b043e6260511a927", "name": "\ub18d\uc5c5\uae30\uc220\uc13c\ud130\uc55e", "latitude": 35.23879971343002, "longitude": 128.64824205636978, "timestamp": "2025-05-03T03:15:44.486990+00:00Z", "free_bikes": 0, "empty_slots": 25, "extra": {"uid": "106", "area": " \uacbd\ub0a8 \ucc3d\uc6d0\uc2dc \uc758\ucc3d\uad6c \uba85\uc11c\ub3d9 "}}, {"id": "1a5e74d5a00167efc0fac41ce4c1147b", "name": "\ub86f\ub370\ub9c8\ud2b8\uc911\uc559\uc810(\ub85c\ud130\ub9ac\uc55e)", "latitude": 35.2257432, "longitude": 128.6807933, "timestamp": "2025-05-03T03:15:44.756854+00:00Z", "free_bikes": 0, "empty_slots": 25, "extra": {"uid": "149", "area": " \uacbd\ub0a8 \ucc3d\uc6d0\uc2dc \uc131\uc0b0\uad6c \uc911\uc559\ub3d9 "}}, {"id": "1a95fd2d8428c8da50dcb0f33427f769", "name": "\ucc3d\uc6d0\uc2dc\ub9bd\uacf0\ub450\ub9ac\uccb4\uc721\uc13c\ud130", "latitude": 35.2528826, "longitude": 128.6375177, "timestamp": "2025-05-03T03:15:46.171040+00:00Z", "free_bikes": 0, "empty_slots": 15, "extra": {"uid": "23", "area": " \uacbd\ub0a8 \ucc3d\uc6d0\uc2dc \uc758\ucc3d\uad6c \ub3c4\uacc4\ub3d9 "}}, {"id": "1c201ff1e5ee81f3d87777a3fbd12c23", "name": "\ud569\uc1311\ub3d9\uc8fc\ubbfc\uc6b4\ub3d9\uc7a5", "latitude": 35.2462045, "longitude": 128.5791544, "timestamp": "2025-05-03T03:15:46.222316+00:00Z", "free_bikes": 0, "empty_slots": 0, "extra": {"uid": "329", "area": " \uacbd\ub0a8 \ucc3d\uc6d0\uc2dc \ub9c8\uc0b0\ud68c\uc6d0\uad6c \ud569\uc131\ub3d9 "}}, {"id": "1c30173c47fe46a4aec49a4e212996e4", "name": "\ub300\ubc29\ub355\uc0b0\uc544\ud30c\ud2b8 \ubc84\uc2a4\uc815\ub958\uc18c", "latitude": 35.2127935, "longitude": 128.7054147, "timestamp": "2025-05-03T03:15:44.590762+00:00Z", "free_bikes": 0, "empty_slots": 0, "extra": {"uid": "383", "area": " \uacbd\ub0a8 \ucc3d\uc6d0\uc2dc \uc131\uc0b0\uad6c \ub300\ubc29\ub3d9 "}}, {"id": "1c96a32ccf2520e41f3ae424f8292cdc", "name": "\uc0ac\ub9bc\ub3d9 \uc0ac\uaca9\uc7a5", "latitude": 35.2489322, "longitude": 128.6847134, "timestamp": "2025-05-03T03:15:45.594672+00:00Z", "free_bikes": 0, "empty_slots": 20, "extra": {"uid": "162", "area": " \uacbd\ub0a8 \ucc3d\uc6d0\uc2dc \uc758\ucc3d\uad6c \uc0ac\ub9bc\ub3d9 "}}, {"id": "1ca128c8132cb917758e51bc730fbe65", "name": "\ucc3d\uc6d0\ubb38\uc131\ub300\uc815\ubb38", "latitude": 35.2332789, "longitude": 128.6616424, "timestamp": "2025-05-03T03:15:46.169669+00:00Z", "free_bikes": 0, "empty_slots": 0, "extra": {"uid": "316", "area": " \uacbd\ub0a8 \ucc3d\uc6d0\uc2dc \uc131\uc0b0\uad6c \uc911\uc559\ub3d9 "}}, {"id": "1e3917e1c0068c08239ec33d753ff4c7", "name": "\ub298\ud478\ub978\uc804\ub2f9", "latitude": 35.23018759132585, "longitude": 128.65393370389938, "timestamp": "2025-05-03T03:15:44.567232+00:00Z", "free_bikes": 0, "empty_slots": 0, "extra": {"uid": "16", "area": " \uacbd\ub0a8 \ucc3d\uc6d0\uc2dc \uc131\uc0b0\uad6c \uc0bc\ub3d9\ub3d9 "}}, {"id": "1e5035768961aeafb7a826ccf794aa22", "name": "\ub0b4\uc11c \ub86f\ub370\ub9c8\ud2b8 \uc55e", "latitude": 35.23263679670275, "longitude": 128.50461549930648, "timestamp": "2025-05-03T03:15:44.446040+00:00Z", "free_bikes": 0, "empty_slots": 29, "extra": {"uid": "159", "area": " \uacbd\ub0a8 \ucc3d\uc6d0\uc2dc \ub9c8\uc0b0\ud68c\uc6d0\uad6c \ub0b4\uc11c\uc74d \uc0bc\uacc4\ub9ac"}}, {"id": "1e528c3ad1710f15b62757123f657488", "name": "\uac00\uc74c\uc815\uc0ac\uac70\ub9ac(\uc7a5\ubbf8\uacf5\uc6d0\ucabd)", "latitude": 35.2058525, "longitude": 128.6915584, "timestamp": "2025-05-03T03:15:44.033269+00:00Z", "free_bikes": 0, "empty_slots": 0, "extra": {"uid": "390", "area": " \uacbd\ub0a8 \ucc3d\uc6d0\uc2dc \uc131\uc0b0\uad6c \uac00\uc74c\uc815\ub3d9 "}}, {"id": "1e95ce246ec67b816e4fff3b91fa28fd", "name": "\ub86f\ub370\ub9c8\ud2b8 \uac74\ub108\ud3b8 \ubc84\uc2a4\uc815\ub958\uc18c", "latitude": 35.158043, "longitude": 128.700977, "timestamp": "2025-05-03T03:15:44.756619+00:00Z", "free_bikes": 0, "empty_slots": 0, "extra": {"uid": "426", "area": " \uacbd\ub0a8 \ucc3d\uc6d0\uc2dc \uc9c4\ud574\uad6c \uc11d\ub3d9 "}}, {"id": "1f38d9dfcbb83820465610679b3908aa", "name": "\ubd09\ub9bc\ub3d9\uc8fc\ubbfc\uc13c\ud130", "latitude": 35.2517406, "longitude": 128.667416, "timestamp": "2025-05-03T03:15:45.542559+00:00Z", "free_bikes": 0, "empty_slots": 22, "extra": {"uid": "220", "area": " \uacbd\ub0a8 \ucc3d\uc6d0\uc2dc \uc758\ucc3d\uad6c \ubd09\ub9bc\ub3d9 "}}, {"id": "1feeb912430c3201874a5e860c4e42de", "name": "\uc131\uc6d0\uc911\uc559\uc0c1\uac00", "latitude": 35.21663988767354, "longitude": 128.6942419409752, "timestamp": "2025-05-03T03:15:45.778757+00:00Z", "free_bikes": 0, "empty_slots": 28, "extra": {"uid": "72", "area": " \uacbd\ub0a8 \ucc3d\uc6d0\uc2dc \uc131\uc0b0\uad6c \uc0c1\ub0a8\ub3d9 "}}, {"id": "20fb9fd32dcb29651bb6b42c9d336acb", "name": "\ub0b4\uc11c \ud604\ub300\ud504\ub77c\uc790 \uc55e", "latitude": 35.253583439913044, "longitude": 128.52120995521545, "timestamp": "2025-05-03T03:15:44.446566+00:00Z", "free_bikes": 0, "empty_slots": 13, "extra": {"uid": "192", "area": " \uacbd\ub0a8 \ucc3d\uc6d0\uc2dc \ub9c8\uc0b0\ud68c\uc6d0\uad6c \ub0b4\uc11c\uc74d \ud638\uacc4\ub9ac"}}, {"id": "222ef3237b813a1d0d1eadd6c45f48e4", "name": "\ucc3d\uc6d0\ub300\ub85c\ubcc0 \uad11\uc7a5", "latitude": 35.2536754, "longitude": 128.6069599, "timestamp": "2025-05-03T03:15:46.168688+00:00Z", "free_bikes": 0, "empty_slots": 0, "extra": {"uid": "305", "area": " \uacbd\ub0a8 \ucc3d\uc6d0\uc2dc \uc758\ucc3d\uad6c \ud314\uc6a9\ub3d9 "}}, {"id": "229236264929f42cabf15b3ca8816e4f", "name": "SM\ud0c0\uc6b4 \ucc3d\uc6d0", "latitude": 35.2351505, "longitude": 128.6406071, "timestamp": "2025-05-03T03:15:43.752513+00:00Z", "free_bikes": 0, "empty_slots": 0, "extra": {"uid": "378", "area": " \uacbd\ub0a8 \ucc3d\uc6d0\uc2dc \uc758\ucc3d\uad6c \ud314\uc6a9\ub3d9 "}}, {"id": "230f7caa0004ae83af5806dfbf60947c", "name": "\uc0ac\ud30c\ub3d9\uc8fc\ubbfc\uc13c\ud130\uc606", "latitude": 35.215506975446004, "longitude": 128.70914697647095, "timestamp": "2025-05-03T03:15:45.702743+00:00Z", "free_bikes": 0, "empty_slots": 21, "extra": {"uid": "79", "area": " \uacbd\ub0a8 \ucc3d\uc6d0\uc2dc \uc131\uc0b0\uad6c \ub300\ubc29\ub3d9 "}}, {"id": "251f6281218d32e80332dcf5ab95aeaa", "name": "\uacbd\uc0c1\ub300\ubcd1\uc6d0\ub3d9\ubb38", "latitude": 35.19851, "longitude": 128.709068, "timestamp": "2025-05-03T03:15:44.141895+00:00Z", "free_bikes": 0, "empty_slots": 23, "extra": {"uid": "246", "area": " \uacbd\ub0a8 \ucc3d\uc6d0\uc2dc \uc131\uc0b0\uad6c \uc0bc\uc815\uc790\ub3d9 "}}, {"id": "255c0411b3c2b4dc33c83fa135ef499d", "name": "\ub300\ubc29\ub3d9\uc131\uc544\ud30c\ud2b8 \ubc84\uc2a4\uc815\ub958\uc18c", "latitude": 35.20348880547842, "longitude": 128.7060785293579, "timestamp": "2025-05-03T03:15:44.591043+00:00Z", "free_bikes": 0, "empty_slots": 30, "extra": {"uid": "114", "area": " \uacbd\ub0a8 \ucc3d\uc6d0\uc2dc \uc131\uc0b0\uad6c \ub0a8\uc0b0\ub3d9 "}}, {"id": "25646b7ffdf5e2ec6b28edb594544adf", "name": "\uba85\uc11c\ucd08 \ub9de\uc740\ud3b8 \ubc84\uc2a4\uc815\ub958\uc18c", "latitude": 35.2480374, "longitude": 128.6417759, "timestamp": "2025-05-03T03:15:45.151434+00:00Z", "free_bikes": 0, "empty_slots": 0, "extra": {"uid": "360", "area": " \uacbd\ub0a8 \ucc3d\uc6d0\uc2dc \uc758\ucc3d\uad6c \uba85\uc11c\ub3d9 "}}, {"id": "25743dce637352aa08a3ed72c0c5e442", "name": "\ucc3d\uc6d0\uc0c1\uacf5\ud68c\uc758\uc18c", "latitude": 35.228312126289865, "longitude": 128.68427217006683, "timestamp": "2025-05-03T03:15:46.170846+00:00Z", "free_bikes": 0, "empty_slots": 15, "extra": {"uid": "134", "area": " \uacbd\ub0a8 \ucc3d\uc6d0\uc2dc \uc131\uc0b0\uad6c \uc2e0\uc6d4\ub3d9 "}}, {"id": "2827bfe55bec31ad1a292393b0d0899d", "name": "\ucc3d\uc6d0\uc5ed\uc8fc\ucc28\uc7a5\uc55e", "latitude": 35.256404, "longitude": 128.6063272, "timestamp": "2025-05-03T03:15:46.172551+00:00Z", "free_bikes": 0, "empty_slots": 0, "extra": {"uid": "375", "area": " \uacbd\ub0a8 \ucc3d\uc6d0\uc2dc \uc758\ucc3d\uad6c \uc18c\uacc4\ub3d9 "}}, {"id": "2949ad22c515f0dc685fe04652adb49a", "name": "\ub450\ub300\uad50\uc0ac\uac70\ub9ac(\ub300\uc6d0\uafc8\uc5d0\uadf8\ub9b0105\ub3d9\uc55e)", "latitude": 35.234298, "longitude": 128.6464676, "timestamp": "2025-05-03T03:15:44.641107+00:00Z", "free_bikes": 0, "empty_slots": 29, "extra": {"uid": "271", "area": " \uacbd\ub0a8 \ucc3d\uc6d0\uc2dc \uc131\uc0b0\uad6c \ub300\uc6d0\ub3d9 "}}, {"id": "29f66b09bf726496b2ffce11c02af8d1", "name": "\uac1c\ub098\ub9ac 4\ucc28\uc544\ud30c\ud2b8", "latitude": 35.2091211744546, "longitude": 128.7045630812645, "timestamp": "2025-05-03T03:15:44.116686+00:00Z", "free_bikes": 0, "empty_slots": 20, "extra": {"uid": "144", "area": " \uacbd\ub0a8 \ucc3d\uc6d0\uc2dc \uc131\uc0b0\uad6c \uac00\uc74c\ub3d9 "}}, {"id": "2a2e765dec8505cc9311ffe116282302", "name": "\ud569\uc131\ub3d9 \ub86f\ub370\uce90\uc2ac", "latitude": 35.2451788, "longitude": 128.5875195, "timestamp": "2025-05-03T03:15:46.222835+00:00Z", "free_bikes": 0, "empty_slots": 19, "extra": {"uid": "283", "area": " \uacbd\ub0a8 \ucc3d\uc6d0\uc2dc \ub9c8\uc0b0\ud68c\uc6d0\uad6c \ud569\uc131\ub3d9 "}}, {"id": "2b1865980a43f05d3790d5c3a5f21c13", "name": "\ud30c\ud2f0\ub9c8\ubcd1\uc6d0", "latitude": 35.23692444749236, "longitude": 128.64672392606735, "timestamp": "2025-05-03T03:15:46.219907+00:00Z", "free_bikes": 0, "empty_slots": 25, "extra": {"uid": "30", "area": " \uacbd\ub0a8 \ucc3d\uc6d0\uc2dc \uc758\ucc3d\uad6c \uba85\uc11c\ub3d9 "}}, {"id": "2c2c9e5c7cf7332cf8414ff6809d9819", "name": "\ub0a8\uc0b0\ubcf5\uc9c0\ud68c\uad00", "latitude": 35.20555332226285, "longitude": 128.7030503153801, "timestamp": "2025-05-03T03:15:44.344783+00:00Z", "free_bikes": 0, "empty_slots": 19, "extra": {"uid": "88", "area": " \uacbd\ub0a8 \ucc3d\uc6d0\uc2dc \uc131\uc0b0\uad6c \uac00\uc74c\ub3d9 "}}, {"id": "2c50db9a84dc8bb25e6b38d77ff52c60", "name": "\ud574\uc591\uc2e0\ub3c4\uc2dc \uc11c\ud56d1\uad50 \ubc84\uc2a4\uc815\ub958\uc18c", "latitude": 35.1926087, "longitude": 128.5683525, "timestamp": "2025-05-03T03:15:46.231715+00:00Z", "free_bikes": 0, "empty_slots": 0, "extra": {"uid": "336", "area": " \uacbd\ub0a8 \ucc3d\uc6d0\uc2dc \ub9c8\uc0b0\ud569\ud3ec\uad6c \uc6d4\ud3ec\ub3d9 "}}, {"id": "2ce55394179a0ca9ae674229deaf9c3d", "name": "\uc9c4\ud574\ud648\ud50c\ub7ec\uc2a4\uac74\ub108\ud3b8", "latitude": 35.1538106, "longitude": 128.6916053, "timestamp": "2025-05-03T03:15:46.156828+00:00Z", "free_bikes": 0, "empty_slots": 20, "extra": {"uid": "178", "area": " \uacbd\ub0a8 \ucc3d\uc6d0\uc2dc \uc9c4\ud574\uad6c \uacbd\ud654\ub3d9 "}}, {"id": "2decbaa46a5a1aaa14dc36f0ddb2fb63", "name": "\ucc3d\uc6d0\ub808\ud3ec\uce20\ud30c\ud06c(\ucc3d\uc6d0\uacbd\ub95c\uc7a5)", "latitude": 35.2329568903299, "longitude": 128.66814136505127, "timestamp": "2025-05-03T03:15:46.169395+00:00Z", "free_bikes": 0, "empty_slots": 40, "extra": {"uid": "19", "area": " \uacbd\ub0a8 \ucc3d\uc6d0\uc2dc \uc131\uc0b0\uad6c \uc911\uc559\ub3d9 "}}, {"id": "2e747fcd238c44790f6d18420daa8ecf", "name": "\uc624\ub3d9\ub3d9 \uc0bc\uc131\uc0dd\uba85\uc55e", "latitude": 35.20853165686361, "longitude": 128.5763669013977, "timestamp": "2025-05-03T03:15:45.921141+00:00Z", "free_bikes": 0, "empty_slots": 20, "extra": {"uid": "231", "area": " \uacbd\ub0a8 \ucc3d\uc6d0\uc2dc \ub9c8\uc0b0\ud569\ud3ec\uad6c \uc624\ub3d9\ub3d9 "}}, {"id": "2ea1e79bf67883a9d236f46ae5ba2043", "name": "\uc790\uc740\uc5d0\uc77c\ub9b0\uc758 \ub730", "latitude": 35.1549592, "longitude": 128.7211606, "timestamp": "2025-05-03T03:15:46.076585+00:00Z", "free_bikes": 0, "empty_slots": 0, "extra": {"uid": "340", "area": " \uacbd\ub0a8 \ucc3d\uc6d0\uc2dc \uc9c4\ud574\uad6c \uc790\uc740\ub3d9 "}}, {"id": "2f3002e28ab379ca0a03636b9789f0d5", "name": "\ub0a8\ubb38 \uc138\uc2a4\ud398\ub370\uc2a4\uacf5\uc6d0 \uc606", "latitude": 35.1054659, "longitude": 128.7510163, "timestamp": "2025-05-03T03:15:44.344257+00:00Z", "free_bikes": 0, "empty_slots": 20, "extra": {"uid": "292", "area": " \uacbd\ub0a8 \ucc3d\uc6d0\uc2dc \uc9c4\ud574\uad6c \ub0a8\ubb38\ub3d9 "}}, {"id": "2f522c174b2c449cc08ff7c1a0312475", "name": "\uc6b0\uc131\uc544\ud30c\ud2b8 \ubc84\uc2a4\uc815\ub958\uc18c \uc55e", "latitude": 35.13954610818116, "longitude": 128.7021517753601, "timestamp": "2025-05-03T03:15:45.959040+00:00Z", "free_bikes": 0, "empty_slots": 23, "extra": {"uid": "185", "area": " \uacbd\ub0a8 \ucc3d\uc6d0\uc2dc \uc9c4\ud574\uad6c \ud48d\ud638\ub3d9 "}}, {"id": "2f93c54444e4be4c609ec2366066c5f2", "name": "\uc18d\ucc9c\ud56d \uacf5\uc601\uc8fc\ucc28\uc7a5", "latitude": 35.1447837, "longitude": 128.6737183, "timestamp": "2025-05-03T03:15:45.889467+00:00Z", "free_bikes": 0, "empty_slots": 0, "extra": {"uid": "447", "area": " \uacbd\ub0a8 \ucc3d\uc6d0\uc2dc \uc9c4\ud574\uad6c \uc81c\ud669\uc0b0\ub3d9 "}}, {"id": "3046d58253e84b08af264f77993c1553", "name": "\ubd09\uc554\ubcc0\uc804\uc18c", "latitude": 35.2129814, "longitude": 128.6001232, "timestamp": "2025-05-03T03:15:45.593160+00:00Z", "free_bikes": 0, "empty_slots": 17, "extra": {"uid": "290", "area": " \uacbd\ub0a8 \ucc3d\uc6d0\uc2dc \ub9c8\uc0b0\ud68c\uc6d0\uad6c \ubd09\uc554\ub3d9 "}}, {"id": "3138c41c540081d41c9d553b3741f535", "name": "\uc9c4\ud574\ub86f\ub370\ub9c8\ud2b8", "latitude": 35.1580891, "longitude": 128.6995903, "timestamp": "2025-05-03T03:15:46.106974+00:00Z", "free_bikes": 0, "empty_slots": 0, "extra": {"uid": "422", "area": " \uacbd\ub0a8 \ucc3d\uc6d0\uc2dc \uc9c4\ud574\uad6c \uc11d\ub3d9 "}}, {"id": "315e11c28693e9f4673c79473b01f9a2", "name": "\uc0ac\ud30c\ub300\ub3d9\uc0c1\uac00", "latitude": 35.22225804057697, "longitude": 128.69452244215495, "timestamp": "2025-05-03T03:15:45.701770+00:00Z", "free_bikes": 0, "empty_slots": 30, "extra": {"uid": "138", "area": " \uacbd\ub0a8 \ucc3d\uc6d0\uc2dc \uc131\uc0b0\uad6c \uc0ac\ud30c\ub3d9 "}}, {"id": "31efabf154e562d8f80b29a4feae6550", "name": "\uac80\ucc30\uccad \ubc84\uc2a4\uc815\ub958\uc18c", "latitude": 35.2257766, "longitude": 128.6986542, "timestamp": "2025-05-03T03:15:44.116871+00:00Z", "free_bikes": 0, "empty_slots": 0, "extra": {"uid": "386", "area": " \uacbd\ub0a8 \ucc3d\uc6d0\uc2dc \uc131\uc0b0\uad6c \uc0ac\ud30c\ub3d9 "}}, {"id": "335028f8c29ee96bcd5e59418486c225", "name": "\ud0dc\ubc31\uc0ac\uac70\ub9ac", "latitude": 35.1524559, "longitude": 128.6753847, "timestamp": "2025-05-03T03:15:46.196511+00:00Z", "free_bikes": 0, "empty_slots": 0, "extra": {"uid": "337", "area": " \uacbd\ub0a8 \ucc3d\uc6d0\uc2dc \uc9c4\ud574\uad6c \uacbd\ud654\ub3d9 "}}, {"id": "3360c9b565ae230645b9c263662949b7", "name": "\uc911\uc559\uacf5\uc6d0", "latitude": 35.20138916876231, "longitude": 128.62819254398346, "timestamp": "2025-05-03T03:15:46.104098+00:00Z", "free_bikes": 0, "empty_slots": 10, "extra": {"uid": "95", "area": " \uacbd\ub0a8 \ucc3d\uc6d0\uc2dc \uc131\uc0b0\uad6c \uc2e0\ucd0c\ub3d9 "}}, {"id": "33e325e8e9f604e517d2eb89a6eae386", "name": "\uc0c8\ub86c\uc544\ud30c\ud2b8 \uc55e", "latitude": 35.20328717257582, "longitude": 128.58012199401855, "timestamp": "2025-05-03T03:15:45.775966+00:00Z", "free_bikes": 0, "empty_slots": 21, "extra": {"uid": "205", "area": " \uacbd\ub0a8 \ucc3d\uc6d0\uc2dc \ub9c8\uc0b0\ud569\ud3ec\uad6c \ub3d9\uc131\ub3d9 "}}, {"id": "354d58bd9f04c49ec45d5facd7401c73", "name": "\uc6c5\ucc9c\ub3d9\uc8fc\ubbfc\uc13c\ud130", "latitude": 35.1111448, "longitude": 128.7498012, "timestamp": "2025-05-03T03:15:45.960787+00:00Z", "free_bikes": 0, "empty_slots": 12, "extra": {"uid": "272", "area": " \uacbd\ub0a8 \ucc3d\uc6d0\uc2dc \uc9c4\ud574\uad6c \uc131\ub0b4\ub3d9 "}}, {"id": "35f0847b2196efc0516b52027c379b73", "name": "\ud55c\ub9bc\uc5d8\ub9ac\uc2dc\uc628\uc544\ud30c\ud2b8 \ubc84\uc2a4\uc815\ub958\uc18c", "latitude": 35.21348653954269, "longitude": 128.69675785303116, "timestamp": "2025-05-03T03:15:46.221907+00:00Z", "free_bikes": 0, "empty_slots": 14, "extra": {"uid": "83", "area": " \uacbd\ub0a8 \ucc3d\uc6d0\uc2dc \uc131\uc0b0\uad6c \uac00\uc74c\ub3d9 "}}, {"id": "36957f8993e1a1c95b593be74346bb7c", "name": "KBS\uc0ac\uac70\ub9ac(\uc131\uc0b0\uc544\ud2b8\ud640)", "latitude": 35.2298338, "longitude": 128.6847382, "timestamp": "2025-05-03T03:15:43.708371+00:00Z", "free_bikes": 0, "empty_slots": 0, "extra": {"uid": "398", "area": " \uacbd\ub0a8 \ucc3d\uc6d0\uc2dc \uc131\uc0b0\uad6c \uc6a9\ud638\ub3d9 "}}, {"id": "3709089f6fda74d955227a74abac42df", "name": "\uc6b0\ub9ac\uc740\ud589\ub9c8\uc0b0\uc9c0\uc810", "latitude": 35.2023426, "longitude": 128.5779105, "timestamp": "2025-05-03T03:15:45.958864+00:00Z", "free_bikes": 0, "empty_slots": 0, "extra": {"uid": "406", "area": " \uacbd\ub0a8 \ucc3d\uc6d0\uc2dc \ub9c8\uc0b0\ud569\ud3ec\uad6c \ub0a8\uc131\ub3d9 "}}, {"id": "387dcde96b0c2aedde717889d1a42a22", "name": "\ubd81\uba74\uacf5\uc124\uc6b4\ub3d9\uc7a5", "latitude": 35.3458632, "longitude": 128.6181001, "timestamp": "2025-05-03T03:15:45.593532+00:00Z", "free_bikes": 0, "empty_slots": 0, "extra": {"uid": "379", "area": " \uacbd\ub0a8 \ucc3d\uc6d0\uc2dc \uc758\ucc3d\uad6c \ubd81\uba74 \ub9c8\uc0b0\ub9ac"}}, {"id": "38d25209f2f4c3edba4e3e94c6d0d08a", "name": "\uae4c\uce581\ucc28\uc544\ud30c\ud2b8 \ubc84\uc2a4\uc815\ub958\uc18c", "latitude": 35.244212767080995, "longitude": 128.66589903831482, "timestamp": "2025-05-03T03:15:44.343668+00:00Z", "free_bikes": 0, "empty_slots": 15, "extra": {"uid": "40", "area": " \uacbd\ub0a8 \ucc3d\uc6d0\uc2dc \uc131\uc0b0\uad6c \ubc18\uc9c0\ub3d9 "}}, {"id": "3a7699dd5f9387dcfd96d13c3a9209ef", "name": "\uacbd\ub0a8\ucc3d\uc6d0\uacfc\ud559\uae30\uc220\uc9c4\ud765\uc6d0", "latitude": 35.2522419, "longitude": 128.6039534, "timestamp": "2025-05-03T03:15:44.141698+00:00Z", "free_bikes": 0, "empty_slots": 0, "extra": {"uid": "350", "area": " \uacbd\ub0a8 \ucc3d\uc6d0\uc2dc \uc758\ucc3d\uad6c \ud314\uc6a9\ub3d9 "}}, {"id": "3afbc52a101e5fcfcf5834e648e0599f", "name": "\uc11d\ub3d9 \uadfc\ub9b0\uacf5\uc6d0", "latitude": 35.1534055, "longitude": 128.7035801, "timestamp": "2025-05-03T03:15:45.776772+00:00Z", "free_bikes": 0, "empty_slots": 0, "extra": {"uid": "338", "area": " \uacbd\ub0a8 \ucc3d\uc6d0\uc2dc \uc9c4\ud574\uad6c \uc11d\ub3d9 "}}, {"id": "3c03d68c1a528ff80e2598dc639cc41a", "name": "\uc911\uc559\ub3d9 BNG\uc0ac\uc6d0\uc544\ud30c\ud2b8 \uc55e", "latitude": 35.219889526894775, "longitude": 128.66601705551147, "timestamp": "2025-05-03T03:15:46.104337+00:00Z", "free_bikes": 0, "empty_slots": 31, "extra": {"uid": "216", "area": " \uacbd\ub0a8 \ucc3d\uc6d0\uc2dc \uc131\uc0b0\uad6c \ub0b4\ub3d9 "}}, {"id": "3c64caa9314ff1d5588ca6a636f981d9", "name": "\uc62c\ub9bc\ud53d\uacf5\uc6d0 \uc8fc\ucc28\uc7a5", "latitude": 35.2247166, "longitude": 128.6622137, "timestamp": "2025-05-03T03:15:45.921500+00:00Z", "free_bikes": 0, "empty_slots": 0, "extra": {"uid": "344", "area": " \uacbd\ub0a8 \ucc3d\uc6d0\uc2dc \uc131\uc0b0\uad6c \uc911\uc559\ub3d9 "}}, {"id": "3e8fc6479094b55f28bbca5c66bc769c", "name": "\uc6a9\uc6d0\ub3d9 \uc560\ud50c\ud0c0\uc6b4\uc0c1\uac00 \uc606", "latitude": 35.0885845, "longitude": 128.8141018, "timestamp": "2025-05-03T03:15:45.934911+00:00Z", "free_bikes": 0, "empty_slots": 14, "extra": {"uid": "286", "area": " \uacbd\ub0a8 \ucc3d\uc6d0\uc2dc \uc9c4\ud574\uad6c \uc6a9\uc6d0\ub3d9 "}}, {"id": "3ee5f8aac1c46ff6047d73fdcfe072b4", "name": "\uc758\uc548\ubbfc\uc6d0\uc13c\ud130", "latitude": 35.26526569291852, "longitude": 128.62080305814743, "timestamp": "2025-05-03T03:15:46.045832+00:00Z", "free_bikes": 0, "empty_slots": 15, "extra": {"uid": "119", "area": " \uacbd\ub0a8 \ucc3d\uc6d0\uc2dc \uc758\ucc3d\uad6c \ubd81\ub3d9 "}}, {"id": "3f1b6a95fa282f425410fc8704ae7441", "name": "\uc0c1\ub0a8\uc624\uac70\ub9ac", "latitude": 35.21998594036648, "longitude": 128.68562936782837, "timestamp": "2025-05-03T03:15:45.761072+00:00Z", "free_bikes": 0, "empty_slots": 20, "extra": {"uid": "112", "area": " \uacbd\ub0a8 \ucc3d\uc6d0\uc2dc \uc131\uc0b0\uad6c \uc0c1\ub0a8\ub3d9 "}}, {"id": "3f59010f577689e86b6f085fd3bb5e4f", "name": "\ud589\uc554\ub3d9 \uc885\uc810", "latitude": 35.115001, "longitude": 128.6995695, "timestamp": "2025-05-03T03:15:46.239771+00:00Z", "free_bikes": 0, "empty_slots": 0, "extra": {"uid": "445", "area": " \uacbd\ub0a8 \ucc3d\uc6d0\uc2dc \uc9c4\ud574\uad6c \ud589\uc554\ub3d9 "}}, {"id": "3f84f15cf67a1bf2256fca5782d4b87b", "name": "\uc0bc\uc131\ucc3d\uc6d0\ubcd1\uc6d0 \uc55e \uc721\uad50", "latitude": 35.2424187, "longitude": 128.5909427, "timestamp": "2025-05-03T03:15:45.720990+00:00Z", "free_bikes": 0, "empty_slots": 0, "extra": {"uid": "416", "area": " \uacbd\ub0a8 \ucc3d\uc6d0\uc2dc \ub9c8\uc0b0\ud68c\uc6d0\uad6c \ud569\uc131\ub3d9 "}}, {"id": "3fda86f7cecef74bf63811a455fc5995", "name": "\ubd09\uc554\ub3d9\ud589\uc815\ubcf5\uc9c0\uc13c\ud130", "latitude": 35.2177509, "longitude": 128.6022677, "timestamp": "2025-05-03T03:15:45.592966+00:00Z", "free_bikes": 0, "empty_slots": 0, "extra": {"uid": "417", "area": " \uacbd\ub0a8 \ucc3d\uc6d0\uc2dc \ub9c8\uc0b0\ud68c\uc6d0\uad6c \ubd09\uc554\ub3d9 "}}, {"id": "3fdffd5e819a6500bbda443b6911ce29", "name": "\uac00\ud3ec\uc218\ubcc0\uacf5\uc6d0", "latitude": 35.1556648, "longitude": 128.5830121, "timestamp": "2025-05-03T03:15:44.035276+00:00Z", "free_bikes": 0, "empty_slots": 0, "extra": {"uid": "332", "area": " \uacbd\ub0a8 \ucc3d\uc6d0\uc2dc \ub9c8\uc0b0\ud569\ud3ec\uad6c \uac00\ud3ec\ub3d9 "}}, {"id": "40050e5a5cae03b8cd890c642b1e1d40", "name": "\uc0c1\ub0a8\ub3d9\uc8fc\ubbfc\uc13c\ud130", "latitude": 35.21621258221087, "longitude": 128.68752032518387, "timestamp": "2025-05-03T03:15:45.722730+00:00Z", "free_bikes": 0, "empty_slots": 19, "extra": {"uid": "70", "area": " \uacbd\ub0a8 \ucc3d\uc6d0\uc2dc \uc131\uc0b0\uad6c \uc0c1\ub0a8\ub3d9 "}}, {"id": "40561df7fc34eb6333571bb74d1b6e0d", "name": "\ud5c8\uc564\ub9ac\ubcd1\uc6d0 \ubc84\uc2a4\uc815\ub958\uc18c", "latitude": 35.24391485041587, "longitude": 128.6480811238289, "timestamp": "2025-05-03T03:15:46.240175+00:00Z", "free_bikes": 0, "empty_slots": 16, "extra": {"uid": "29", "area": " \uacbd\ub0a8 \ucc3d\uc6d0\uc2dc \uc758\ucc3d\uad6c \uba85\uc11c\ub3d9 "}}, {"id": "406e3c13d35a87f9e760b9d9efa53025", "name": "\uacbd\ud654\uc5ed\uacf5\uc6d0 \uc785\uad6c", "latitude": 35.1589541, "longitude": 128.68654, "timestamp": "2025-05-03T03:15:44.143336+00:00Z", "free_bikes": 0, "empty_slots": 0, "extra": {"uid": "436", "area": " \uacbd\ub0a8 \ucc3d\uc6d0\uc2dc \uc9c4\ud574\uad6c \uacbd\ud654\ub3d9 "}}, {"id": "408905100da0973dc3a2486397d0f178", "name": "\uc11d\uc804\ub3d9 \uba54\ud2b8\ub85c\uc2dc\ud2f0", "latitude": 35.2300627, "longitude": 128.5703661, "timestamp": "2025-05-03T03:15:45.777175+00:00Z", "free_bikes": 0, "empty_slots": 19, "extra": {"uid": "282", "area": " \uacbd\ub0a8 \ucc3d\uc6d0\uc2dc \ub9c8\uc0b0\ud68c\uc6d0\uad6c \uc11d\uc804\ub3d9 "}}, {"id": "40fc0114ce094685bb1610e00b5919fe", "name": "\uacbd\ub0a8\ub3c4\uccad", "latitude": 35.23754881070916, "longitude": 128.69120836257935, "timestamp": "2025-05-03T03:15:44.117575+00:00Z", "free_bikes": 0, "empty_slots": 20, "extra": {"uid": "38", "area": " \uacbd\ub0a8 \ucc3d\uc6d0\uc2dc \uc758\ucc3d\uad6c \uc0ac\ub9bc\ub3d9 "}}, {"id": "410c5a7c382b1c2c40a58ebfc706cd7b", "name": "\uc6a9\ud638\ub3d9 35\ubc88\uc9c0 \uacf5\uc6d0\uc606", "latitude": 35.23938462979881, "longitude": 128.68366330862045, "timestamp": "2025-05-03T03:15:45.958503+00:00Z", "free_bikes": 0, "empty_slots": 19, "extra": {"uid": "53", "area": " \uacbd\ub0a8 \ucc3d\uc6d0\uc2dc \uc131\uc0b0\uad6c \uc6a9\ud638\ub3d9 "}}, {"id": "41ac153e3d06392f671e5b1dbfc33f60", "name": "\uc9c4\ud574\uc0c1\uacf5\ud68c\uc758\uc18c\uc0ac\uac70\ub9ac(\uc721\uad50\uc704\ucabd)", "latitude": 35.1600714, "longitude": 128.694777, "timestamp": "2025-05-03T03:15:46.122631+00:00Z", "free_bikes": 0, "empty_slots": 0, "extra": {"uid": "420", "area": " \uacbd\ub0a8 \ucc3d\uc6d0\uc2dc \uc9c4\ud574\uad6c \uc11d\ub3d9 "}}, {"id": "41c6b5e0a73423a5a274ebe3b192a8fe", "name": "\ud604\ub3d9\ucd08\ub4f1\ud559\uad50 \uc55e", "latitude": 35.1467167, "longitude": 128.5576472, "timestamp": "2025-05-03T03:15:46.241483+00:00Z", "free_bikes": 0, "empty_slots": 15, "extra": {"uid": "256", "area": " \uacbd\ub0a8 \ucc3d\uc6d0\uc2dc \ub9c8\uc0b0\ud569\ud3ec\uad6c \ud604\ub3d9 "}}, {"id": "425211f6f8e211e94e741b824d19155e", "name": "\uc0c1\ub0a8\ubd84\uc218\uacf5\uc6d0", "latitude": 35.2209621, "longitude": 128.6831537, "timestamp": "2025-05-03T03:15:45.722912+00:00Z", "free_bikes": 0, "empty_slots": 40, "extra": {"uid": "68", "area": " \uacbd\ub0a8 \ucc3d\uc6d0\uc2dc \uc131\uc0b0\uad6c \uc0c1\ub0a8\ub3d9 "}}, {"id": "42916facc5dd31928b52c8856bc50395", "name": "\uc911\uc559\uace0 \ubc84\uc2a4\uc815\ub958\uc18c", "latitude": 35.23046584003872, "longitude": 128.67551743984222, "timestamp": "2025-05-03T03:15:46.103185+00:00Z", "free_bikes": 0, "empty_slots": 18, "extra": {"uid": "55", "area": " \uacbd\ub0a8 \ucc3d\uc6d0\uc2dc \uc131\uc0b0\uad6c \uc6a9\ud638\ub3d9 "}}, {"id": "4296c1924f336a1d40d5c5e247e7b4c5", "name": "\uc9c4\ud574\uace0\ub4f1\ud559\uad50", "latitude": 35.15975782074794, "longitude": 128.66280913352966, "timestamp": "2025-05-03T03:15:46.105983+00:00Z", "free_bikes": 0, "empty_slots": 25, "extra": {"uid": "222", "area": " \uacbd\ub0a8 \ucc3d\uc6d0\uc2dc \uc9c4\ud574\uad6c \uc5ec\uc88c\ub3d9 "}}, {"id": "4308bad95784b4ac7c30662461188509", "name": "\uc911\uc559\ub3d9 \uc5ec\uc6b0\ube44\uacf5\uc6d0(\uc911\uc559\uc2dc\uc7a5\uc606)", "latitude": 35.2273524673671, "longitude": 128.67483884096146, "timestamp": "2025-05-03T03:15:46.104717+00:00Z", "free_bikes": 0, "empty_slots": 10, "extra": {"uid": "46", "area": " \uacbd\ub0a8 \ucc3d\uc6d0\uc2dc \uc131\uc0b0\uad6c \uc911\uc559\ub3d9 "}}, {"id": "43a035ed07ccb54b48d09af4acdb4d8c", "name": "\ucc3d\uc6d0\ud648\ud50c\ub7ec\uc2a4", "latitude": 35.2346962, "longitude": 128.6439209, "timestamp": "2025-05-03T03:15:46.174422+00:00Z", "free_bikes": 0, "empty_slots": 25, "extra": {"uid": "13", "area": " \uacbd\ub0a8 \ucc3d\uc6d0\uc2dc \uc758\ucc3d\uad6c \ud314\uc6a9\ub3d9 "}}, {"id": "43b4cac9e32a5b44e1fc65ab053660d7", "name": "\uc9c4\ud574\ub3c4\uc11c\uad00", "latitude": 35.1522614, "longitude": 128.6664927, "timestamp": "2025-05-03T03:15:46.106601+00:00Z", "free_bikes": 0, "empty_slots": 20, "extra": {"uid": "151", "area": " \uacbd\ub0a8 \ucc3d\uc6d0\uc2dc \uc9c4\ud574\uad6c \uc5ec\uc88c\ub3d9 "}}, {"id": "4424e1e90a303317d3f7c7b6b9768e08", "name": "\ub3d9\uc74d\uc8fc\ubbfc\ubcf5\uc9c0\uad00", "latitude": 35.2839562, "longitude": 128.6818273, "timestamp": "2025-05-03T03:15:44.613210+00:00Z", "free_bikes": 0, "empty_slots": 12, "extra": {"uid": "289", "area": " \uacbd\ub0a8 \ucc3d\uc6d0\uc2dc \uc758\ucc3d\uad6c \ub3d9\uc74d \uc6a9\uc7a0\ub9ac"}}, {"id": "4547c44e11e16733e890ef790eb50143", "name": "\uc2dc\ubbfc\uc0dd\ud65c\uccb4\uc721\uad00", "latitude": 35.22271176476211, "longitude": 128.6881184577942, "timestamp": "2025-05-03T03:15:45.889704+00:00Z", "free_bikes": 0, "empty_slots": 32, "extra": {"uid": "69", "area": " \uacbd\ub0a8 \ucc3d\uc6d0\uc2dc \uc131\uc0b0\uad6c \uc0c1\ub0a8\ub3d9 "}}, {"id": "45b3929240187ce21710509ae858cf17", "name": "\ud604\ub3d9 \ub9c8\uc0b0\uc5b4\ub9b0\uc774 \uacf5\uc6d01", "latitude": 35.1488883, "longitude": 128.5522404, "timestamp": "2025-05-03T03:15:46.240701+00:00Z", "free_bikes": 0, "empty_slots": 0, "extra": {"uid": "405", "area": " \uacbd\ub0a8 \ucc3d\uc6d0\uc2dc \ub9c8\uc0b0\ud569\ud3ec\uad6c \ud604\ub3d9 "}}, {"id": "46930769c6b1146f781c313969e247cf", "name": "\uc131\uc0b0\ubc18\ub3c4\uc720\ubcf4\ub77c", "latitude": 35.2194398, "longitude": 128.7067296, "timestamp": "2025-05-03T03:15:45.777520+00:00Z", "free_bikes": 0, "empty_slots": 0, "extra": {"uid": "297", "area": " \uacbd\ub0a8 \ucc3d\uc6d0\uc2dc \uc131\uc0b0\uad6c \uc0ac\ud30c\uc815\ub3d9 "}}, {"id": "46cadda8cfcc9cf9d073bc56d77c563f", "name": "\ucc3d\uc6d0\uc5ed", "latitude": 35.2574865, "longitude": 128.6071935, "timestamp": "2025-05-03T03:15:46.172321+00:00Z", "free_bikes": 0, "empty_slots": 25, "extra": {"uid": "1", "area": " \uacbd\ub0a8 \ucc3d\uc6d0\uc2dc \uc758\ucc3d\uad6c \ub3d9\uc815\ub3d9 "}}, {"id": "48bc69852dc5d6a416aa9d48ce4c2970", "name": "\ub0b4\uc11c \uc232\uc18d\ub9c8\uc744 4\ucc28 \uc544\ud30c\ud2b8 \uc606", "latitude": 35.2313926, "longitude": 128.4959435, "timestamp": "2025-05-03T03:15:44.446403+00:00Z", "free_bikes": 0, "empty_slots": 20, "extra": {"uid": "193", "area": " \uacbd\ub0a8 \ucc3d\uc6d0\uc2dc \ub9c8\uc0b0\ud68c\uc6d0\uad6c \ub0b4\uc11c\uc74d \uc0bc\uacc4\ub9ac"}}, {"id": "49e098c34285a8acff74b028f8278198", "name": "\ub355\uc7ac\ubc84\uc2a4\uc815\ub958\uc18c", "latitude": 35.2448836, "longitude": 128.5875336, "timestamp": "2025-05-03T03:15:44.593378+00:00Z", "free_bikes": 0, "empty_slots": 0, "extra": {"uid": "329", "area": " \uacbd\ub0a8 \ucc3d\uc6d0\uc2dc \ub9c8\uc0b0\ud68c\uc6d0\uad6c \ud569\uc131\ub3d9 "}}, {"id": "4a1789f8b8ac7b5f5d9083ec35dda270", "name": "KT\ub9c8\uc0b0\uc9c0\uc810\uc55e", "latitude": 35.20299787231937, "longitude": 128.57112050056458, "timestamp": "2025-05-03T03:15:43.747875+00:00Z", "free_bikes": 0, "empty_slots": 20, "extra": {"uid": "204", "area": " \uacbd\ub0a8 \ucc3d\uc6d0\uc2dc \ub9c8\uc0b0\ud569\ud3ec\uad6c \uc11c\uc131\ub3d9 "}}, {"id": "4a293d3023912427a3089f3db17678c3", "name": "\ud604\ub3d9 \uad6c\uc0b0\uc911\ud559\uad50", "latitude": 35.1440835, "longitude": 128.5574647, "timestamp": "2025-05-03T03:15:46.240530+00:00Z", "free_bikes": 0, "empty_slots": 0, "extra": {"uid": "330", "area": " \uacbd\ub0a8 \ucc3d\uc6d0\uc2dc \ub9c8\uc0b0\ud569\ud3ec\uad6c \ud604\ub3d9 "}}, {"id": "4a6eee737cbd09fc562233205537a509", "name": "\uc2dc\ud2f0\uc138\ube10 \uac74\ub108\ud3b8", "latitude": 35.2413486, "longitude": 128.6531022, "timestamp": "2025-05-03T03:15:45.890140+00:00Z", "free_bikes": 0, "empty_slots": 18, "extra": {"uid": "127", "area": " \uacbd\ub0a8 \ucc3d\uc6d0\uc2dc \uc131\uc0b0\uad6c \ubc18\uc9c0\ub3d9 "}}, {"id": "4acf422c589ad7540399455c44648615", "name": "\uba85\uc11c1\ubbfc\uc6d0\uc13c\ud130", "latitude": 35.24585567020515, "longitude": 128.64936858415604, "timestamp": "2025-05-03T03:15:45.150122+00:00Z", "free_bikes": 0, "empty_slots": 10, "extra": {"uid": "28", "area": " \uacbd\ub0a8 \ucc3d\uc6d0\uc2dc \uc758\ucc3d\uad6c \uba85\uc11c\ub3d9 "}}, {"id": "4b2cca2ca0829dcc4954d33e9c45d320", "name": "NC\ud30c\ud06c \ubc84\uc2a4\uc815\ub958\uc18c", "latitude": 35.2219777, "longitude": 128.5839931, "timestamp": "2025-05-03T03:15:43.752164+00:00Z", "free_bikes": 0, "empty_slots": 0, "extra": {"uid": "328", "area": " \uacbd\ub0a8 \ucc3d\uc6d0\uc2dc \ub9c8\uc0b0\ud68c\uc6d0\uad6c \uc591\ub355\ub3d9 "}}, {"id": "4b3061e04496ccea4bbd71e4080d4b34", "name": "\ud314\uc6a9\ub3d9\uc11c\uc2dd\ud488", "latitude": 35.25073179850349, "longitude": 128.6130644221829, "timestamp": "2025-05-03T03:15:46.220300+00:00Z", "free_bikes": 0, "empty_slots": 15, "extra": {"uid": "121", "area": " \uacbd\ub0a8 \ucc3d\uc6d0\uc2dc \uc758\ucc3d\uad6c \ud314\uc6a9\ub3d9 "}}, {"id": "4ce522fc2bb1105e386184eb12dc3551", "name": "\ub86f\ub370\ub9c8\ud2b8\uc911\uc559\uc810(\uc774\ub9c8\ud2b8\uc0ac\uc774)", "latitude": 35.2259946, "longitude": 128.6803622, "timestamp": "2025-05-03T03:15:44.757076+00:00Z", "free_bikes": 0, "empty_slots": 15, "extra": {"uid": "150", "area": " \uacbd\ub0a8 \ucc3d\uc6d0\uc2dc \uc131\uc0b0\uad6c \uc911\uc559\ub3d9 "}}, {"id": "4d6cf6e4305fa635b18119c587396dc4", "name": "\uad6c\uc5542\ub3d9\ud589\uc815\ubcf5\uc9c0\uc13c\ud130", "latitude": 35.2491885, "longitude": 128.5984582, "timestamp": "2025-05-03T03:15:44.300244+00:00Z", "free_bikes": 0, "empty_slots": 0, "extra": {"uid": "415", "area": " \uacbd\ub0a8 \ucc3d\uc6d0\uc2dc \ub9c8\uc0b0\ud68c\uc6d0\uad6c \uad6c\uc554\ub3d9 "}}, {"id": "4ee13553ac9b1dd6dad8c9f95323a470", "name": "\ucc3d\uc2e0\uc911\ud559\uad50\uc55e", "latitude": 35.2229692, "longitude": 128.5972546, "timestamp": "2025-05-03T03:15:46.158151+00:00Z", "free_bikes": 0, "empty_slots": 0, "extra": {"uid": "327", "area": " \uacbd\ub0a8 \ucc3d\uc6d0\uc2dc \ub9c8\uc0b0\ud68c\uc6d0\uad6c \ubd09\uc554\ub3d9 "}}, {"id": "4eeef39dff686d56deaf723150601a2c", "name": "\ucc3d\uc6d0 \uc911\uc559\uc5ed", "latitude": 35.2411678319451, "longitude": 128.7016636133194, "timestamp": "2025-05-03T03:15:46.160272+00:00Z", "free_bikes": 0, "empty_slots": 27, "extra": {"uid": "148", "area": " \uacbd\ub0a8 \ucc3d\uc6d0\uc2dc \uc758\ucc3d\uad6c \uc6a9\ub3d9 "}}, {"id": "4f7a80f2318367d4f8ef094e3e88ed90", "name": "\uc131\uc8fc\ub3d9 \ud574\uc131\ub514\uc5d0\uc2a4 \uc815\ubb38", "latitude": 35.1990681, "longitude": 128.6892584, "timestamp": "2025-05-03T03:15:45.779472+00:00Z", "free_bikes": 0, "empty_slots": 23, "extra": {"uid": "294", "area": " \uacbd\ub0a8 \ucc3d\uc6d0\uc2dc \uc131\uc0b0\uad6c \ub0a8\uc0b0\ub3d9 "}}, {"id": "4f8107abbf0d8ed2c44651ff80c0d27c", "name": "\uc758\ucc3d\ub3d9 \ud658\uc2b9\uc13c\ud130(\ub0a8)", "latitude": 35.2611977, "longitude": 128.6242618, "timestamp": "2025-05-03T03:15:46.049146+00:00Z", "free_bikes": 0, "empty_slots": 0, "extra": {"uid": "370", "area": " \uacbd\ub0a8 \ucc3d\uc6d0\uc2dc \uc758\ucc3d\uad6c \uc11c\uc0c1\ub3d9 "}}, {"id": "50a686fa21624c87e3b128a23b61273b", "name": "\ucc3d\uc6d0\ud638\ud154\uc0bc\uac70\ub9ac", "latitude": 35.2205178, "longitude": 128.6741321, "timestamp": "2025-05-03T03:15:46.174148+00:00Z", "free_bikes": 0, "empty_slots": 19, "extra": {"uid": "48", "area": " \uacbd\ub0a8 \ucc3d\uc6d0\uc2dc \uc131\uc0b0\uad6c \uc911\uc559\ub3d9 "}}, {"id": "519b7ec00847dba900f70d7232a69eed", "name": "\ub0b4\uc11c\uc804\uc790\ub79c\ub4dc\uc55e", "latitude": 35.250092, "longitude": 128.5172322, "timestamp": "2025-05-03T03:15:44.459042+00:00Z", "free_bikes": 0, "empty_slots": 0, "extra": {"uid": "323", "area": " \uacbd\ub0a8 \ucc3d\uc6d0\uc2dc \ub9c8\uc0b0\ud68c\uc6d0\uad6c \ub0b4\uc11c\uc74d \uc911\ub9ac"}}, {"id": "53d5d7856044eeb9146be75a6d6283f6", "name": "\uc11c\ubd80\uacbd\ucc30\uc11c \ubc84\uc2a4\uc815\ub958\uc18c", "latitude": 35.25061332986268, "longitude": 128.63953828811646, "timestamp": "2025-05-03T03:15:45.776160+00:00Z", "free_bikes": 0, "empty_slots": 10, "extra": {"uid": "24", "area": " \uacbd\ub0a8 \ucc3d\uc6d0\uc2dc \uc758\ucc3d\uad6c \uba85\uc11c\ub3d9 "}}, {"id": "545c479aa0db1e857bb105fdf2f3d62c", "name": "\uc131\uc8fc\ub3d9\ud55c\ud654\ud14c\ud06c\uc708\uc815\ubb38", "latitude": 35.19827248891862, "longitude": 128.68603706359863, "timestamp": "2025-05-03T03:15:45.886996+00:00Z", "free_bikes": 0, "empty_slots": 15, "extra": {"uid": "89", "area": " \uacbd\ub0a8 \ucc3d\uc6d0\uc2dc \uc131\uc0b0\uad6c \uc131\uc8fc\ub3d9 "}}, {"id": "548784309df4e721075ca9e19bdff767", "name": "\ud604\ub3d9LH1\ub2e8\uc9c0\uc55e \uc0ac\uac70\ub9ac", "latitude": 35.1510772, "longitude": 128.5539188, "timestamp": "2025-05-03T03:15:46.240869+00:00Z", "free_bikes": 0, "empty_slots": 14, "extra": {"uid": "260", "area": " \uacbd\ub0a8 \ucc3d\uc6d0\uc2dc \ub9c8\uc0b0\ud569\ud3ec\uad6c \ud604\ub3d9 "}}, {"id": "550f797e7385ad06b9db9c0696493bd9", "name": "\uc9c4\ud574\ub8e8", "latitude": 35.1473608, "longitude": 128.6855596, "timestamp": "2025-05-03T03:15:46.107377+00:00Z", "free_bikes": 0, "empty_slots": 25, "extra": {"uid": "155", "area": " \uacbd\ub0a8 \ucc3d\uc6d0\uc2dc \uc9c4\ud574\uad6c \uacbd\ud654\ub3d9 "}}, {"id": "554a8cbc5e54b205fd3a34090a843f3a", "name": "\ub300\uc6d0\ud3c9\uc0dd\ud559\uc2b5\uc13c\ud130", "latitude": 35.235007512850316, "longitude": 128.65118712186813, "timestamp": "2025-05-03T03:15:44.591937+00:00Z", "free_bikes": 0, "empty_slots": 12, "extra": {"uid": "14", "area": " \uacbd\ub0a8 \ucc3d\uc6d0\uc2dc \uc131\uc0b0\uad6c \ub300\uc6d0\ub3d9 "}}, {"id": "555d9031943c0821ab78691dfe8a29c2", "name": "\uba85\uc11c\uc911\ud559\uad50 \uc815\ubb38", "latitude": 35.250914, "longitude": 128.6453954, "timestamp": "2025-05-03T03:15:45.151218+00:00Z", "free_bikes": 0, "empty_slots": 15, "extra": {"uid": "25", "area": " \uacbd\ub0a8 \ucc3d\uc6d0\uc2dc \uc758\ucc3d\uad6c \uba85\uc11c\ub3d9 "}}, {"id": "55b4ffd3f09c21c5e079ba6113749c70", "name": "\ud314\uc6a9\uc885\ud569\uc0c1\uac00", "latitude": 35.25548460367646, "longitude": 128.61345648765564, "timestamp": "2025-05-03T03:15:46.220839+00:00Z", "free_bikes": 0, "empty_slots": 24, "extra": {"uid": "7", "area": " \uacbd\ub0a8 \ucc3d\uc6d0\uc2dc \uc758\ucc3d\uad6c \ud314\uc6a9\ub3d9 "}}, {"id": "5761d700fc43e4c47798d4a702b9c2c9", "name": "\uc815\ubd80\uacbd\ub0a8\uc9c0\ubc29\ud569\ub3d9\uccad\uc0ac", "latitude": 35.195964, "longitude": 128.571611, "timestamp": "2025-05-03T03:15:46.089733+00:00Z", "free_bikes": 0, "empty_slots": 18, "extra": {"uid": "237", "area": " \uacbd\ub0a8 \ucc3d\uc6d0\uc2dc \ub9c8\uc0b0\ud569\ud3ec\uad6c \uc2e0\ud3ec\ub3d91\uac00 "}}, {"id": "5772f39a01bc6d323548b818df87514e", "name": "\ucc3d\uc6d0\ub300\ub3d9\ubb38 \ubc84\uc2a4\uc815\ub958\uc18c", "latitude": 35.2388638, "longitude": 128.6965594, "timestamp": "2025-05-03T03:15:46.168509+00:00Z", "free_bikes": 0, "empty_slots": 0, "extra": {"uid": "300", "area": " \uacbd\ub0a8 \ucc3d\uc6d0\uc2dc \uc758\ucc3d\uad6c \uc0ac\ub9bc\ub3d9 "}}, {"id": "581bedbf141eaf7ec029f3e0a811def2", "name": "KPE\ucc3d\uc6d0\uacf5\uc7a5 \ub9de\uc740\ud3b8", "latitude": 35.2469667, "longitude": 128.6152938, "timestamp": "2025-05-03T03:15:43.714770+00:00Z", "free_bikes": 0, "empty_slots": 12, "extra": {"uid": "9", "area": " \uacbd\ub0a8 \ucc3d\uc6d0\uc2dc \uc758\ucc3d\uad6c \ud314\uc6a9\ub3d9 "}}, {"id": "58414b8b034ba952947cabd97e9a2ca2", "name": "\ud0dc\ubc31\ub3d9\uc911\ucd08\uad50", "latitude": 35.15305622935392, "longitude": 128.67929935455322, "timestamp": "2025-05-03T03:15:46.196324+00:00Z", "free_bikes": 0, "empty_slots": 14, "extra": {"uid": "175", "area": " \uacbd\ub0a8 \ucc3d\uc6d0\uc2dc \uc9c4\ud574\uad6c \uacbd\ud654\ub3d9 "}}, {"id": "589ec0bd0f8ce6a7a730c680bb0e7d20", "name": "\uc11c\uc0c1\uc0bc\uac70\ub9ac", "latitude": 35.2601404, "longitude": 128.6104236, "timestamp": "2025-05-03T03:15:45.776344+00:00Z", "free_bikes": 0, "empty_slots": 0, "extra": {"uid": "374", "area": " \uacbd\ub0a8 \ucc3d\uc6d0\uc2dc \uc758\ucc3d\uad6c \ub3d9\uc815\ub3d9 "}}, {"id": "59d791923e0df513b9402e27ef568675", "name": "\uc131\uc6d0 \uadf8\ub79c\ub4dc\uc1fc\ud551 \uc55e", "latitude": 35.2195795, "longitude": 128.6920714, "timestamp": "2025-05-03T03:15:45.778265+00:00Z", "free_bikes": 0, "empty_slots": 29, "extra": {"uid": "71", "area": " \uacbd\ub0a8 \ucc3d\uc6d0\uc2dc \uc131\uc0b0\uad6c \uc0c1\ub0a8\ub3d9 "}}, {"id": "5a195e31a11f905f8732b67145313ef7", "name": "\uc740\uc544\uc544\ud30c\ud2b8 \uac74\ub108\ud3b8", "latitude": 35.2243299, "longitude": 128.6853323, "timestamp": "2025-05-03T03:15:46.044913+00:00Z", "free_bikes": 0, "empty_slots": 0, "extra": {"uid": "321", "area": " \uacbd\ub0a8 \ucc3d\uc6d0\uc2dc \uc131\uc0b0\uad6c \uc0c1\ub0a8\ub3d9 "}}, {"id": "5a7b9f9c4b760c2375b0affd7873362b", "name": "\uc6a9\ub3d9\uc800\uc218\uc9c0 \uacf5\uc6d0", "latitude": 35.2378659, "longitude": 128.7007409, "timestamp": "2025-05-03T03:15:45.921674+00:00Z", "free_bikes": 0, "empty_slots": 0, "extra": {"uid": "363", "area": " \uacbd\ub0a8 \ucc3d\uc6d0\uc2dc \uc758\ucc3d\uad6c \uc0ac\ub9bc\ub3d9 "}}, {"id": "5be08a8ffc7dceb69038bc71f3d74551", "name": "\uc131\uc8fc\ub3d9\uc8fc\ubbfc\uc13c\ud130", "latitude": 35.18896995699447, "longitude": 128.6943519115448, "timestamp": "2025-05-03T03:15:45.886436+00:00Z", "free_bikes": 0, "empty_slots": 15, "extra": {"uid": "92", "area": " \uacbd\ub0a8 \ucc3d\uc6d0\uc2dc \uc131\uc0b0\uad6c \uc131\uc8fc\ub3d9 "}}, {"id": "5c1bdda596ce12e36e1eb1d1f03d5202", "name": "\uc720\ub2c8\uc2dc\ud2f02\ub2e8\uc9c0 \uacf5\uc6d0", "latitude": 35.257951, "longitude": 128.6281847, "timestamp": "2025-05-03T03:15:45.972341+00:00Z", "free_bikes": 0, "empty_slots": 26, "extra": {"uid": "278", "area": " \uacbd\ub0a8 \ucc3d\uc6d0\uc2dc \uc758\ucc3d\uad6c \uc911\ub3d9 "}}, {"id": "5d62735caeddf3a5b3a77cab2fb573b2", "name": "\uc6d0\ud48d\ubcbd\uc0b0 \uc785\uad6c \ud558\ucc9c\uc606", "latitude": 35.25189688634859, "longitude": 128.61876994371414, "timestamp": "2025-05-03T03:15:45.971263+00:00Z", "free_bikes": 0, "empty_slots": 19, "extra": {"uid": "8", "area": " \uacbd\ub0a8 \ucc3d\uc6d0\uc2dc \uc758\ucc3d\uad6c \ud314\uc6a9\ub3d9 "}}, {"id": "5d90aea72eafb634c87e597bfecff4d9", "name": "\ub9c8\uc0b0\uc5ed \uc55e", "latitude": 35.23538871260491, "longitude": 128.57861459255219, "timestamp": "2025-05-03T03:15:44.759025+00:00Z", "free_bikes": 0, "empty_slots": 19, "extra": {"uid": "196", "area": " \uacbd\ub0a8 \ucc3d\uc6d0\uc2dc \ub9c8\uc0b0\ud68c\uc6d0\uad6c \uc11d\uc804\ub3d9 "}}, {"id": "5e714fa709a6d612b0ff0c8d22e521fb", "name": "\uac00\uc74c\uc815\uc0ac\uac70\ub9ac", "latitude": 35.20511061713951, "longitude": 128.6919754743576, "timestamp": "2025-05-03T03:15:44.033024+00:00Z", "free_bikes": 0, "empty_slots": 20, "extra": {"uid": "143", "area": " \uacbd\ub0a8 \ucc3d\uc6d0\uc2dc \uc131\uc0b0\uad6c \uac00\uc74c\uc815\ub3d9 "}}, {"id": "5e7f015a78438f5aeae0cb5bd0f61a51", "name": "\uc591\ub355\ub3d9 \uc0bc\uac01\uc9c0 \uacf5\uc6d0", "latitude": 35.22073094969483, "longitude": 128.58938097953796, "timestamp": "2025-05-03T03:15:45.919945+00:00Z", "free_bikes": 0, "empty_slots": 16, "extra": {"uid": "201", "area": " \uacbd\ub0a8 \ucc3d\uc6d0\uc2dc \ub9c8\uc0b0\ud68c\uc6d0\uad6c \uc591\ub355\ub3d9 "}}, {"id": "60e51f87df5cf07e438f5a206c078d45", "name": "\uc9c4\ud574\ubc9a\uaf43\uacf5\uc6d0", "latitude": 35.1233908, "longitude": 128.7075973, "timestamp": "2025-05-03T03:15:46.122432+00:00Z", "free_bikes": 0, "empty_slots": 0, "extra": {"uid": "443", "area": " \uacbd\ub0a8 \ucc3d\uc6d0\uc2dc \uc9c4\ud574\uad6c \uc7a5\ucc9c\ub3d9 "}}, {"id": "62ffe1829c1e160237b09a4489cf8dda", "name": "\uacbd\ud654\ub3d9 \ub450\uc0b0\uc704\ube0c", "latitude": 35.1598368, "longitude": 128.6847228, "timestamp": "2025-05-03T03:15:44.142276+00:00Z", "free_bikes": 0, "empty_slots": 18, "extra": {"uid": "284", "area": " \uacbd\ub0a8 \ucc3d\uc6d0\uc2dc \uc9c4\ud574\uad6c \uacbd\ud654\ub3d9 "}}, {"id": "63ff9a622094381a129c15416814d585", "name": "\uc6a9\uc9c0\ud638\uc218(\uc54c\ud30c\ubb38\uad6c\uc55e)", "latitude": 35.2306236, "longitude": 128.6811286, "timestamp": "2025-05-03T03:15:45.958325+00:00Z", "free_bikes": 0, "empty_slots": 0, "extra": {"uid": "399", "area": " \uacbd\ub0a8 \ucc3d\uc6d0\uc2dc \uc131\uc0b0\uad6c \uc6a9\ud638\ub3d9 "}}, {"id": "642d386d8955fc56d113ff14e2cc4e7b", "name": "\ub808\uc54c\uc8fc\ucc28\uc7a5 \uc606", "latitude": 35.2201119, "longitude": 128.681419, "timestamp": "2025-05-03T03:15:44.756330+00:00Z", "free_bikes": 0, "empty_slots": 20, "extra": {"uid": "67", "area": " \uacbd\ub0a8 \ucc3d\uc6d0\uc2dc \uc131\uc0b0\uad6c \uc0c1\ub0a8\ub3d9 "}}, {"id": "660657856ad0c9642ed1c8585bb5b5f9", "name": "\ubb18\ucd0c\uc785\uad6c \ubc84\uc2a4\uc815\ub958\uc18c", "latitude": 35.1398482, "longitude": 128.5608228, "timestamp": "2025-05-03T03:15:45.283487+00:00Z", "free_bikes": 0, "empty_slots": 0, "extra": {"uid": "331", "area": " \uacbd\ub0a8 \ucc3d\uc6d0\uc2dc \ub9c8\uc0b0\ud569\ud3ec\uad6c \ud604\ub3d9 "}}, {"id": "66e887c32111a770dde3f9292e35a49e", "name": "\ud574\uad70\uc758\uc9d1", "latitude": 35.15333912837021, "longitude": 128.65451037883759, "timestamp": "2025-05-03T03:15:46.231441+00:00Z", "free_bikes": 0, "empty_slots": 24, "extra": {"uid": "169", "area": " \uacbd\ub0a8 \ucc3d\uc6d0\uc2dc \uc9c4\ud574\uad6c \ub3c4\ucc9c\ub3d9 "}}, {"id": "66eaad5d20c38767ec0e17b6bd27ed02", "name": "\ub355\uc0b0\ucd08\ub4f1\ud559\uad50", "latitude": 35.1448638, "longitude": 128.705005, "timestamp": "2025-05-03T03:15:44.593204+00:00Z", "free_bikes": 0, "empty_slots": 0, "extra": {"uid": "440", "area": " \uacbd\ub0a8 \ucc3d\uc6d0\uc2dc \uc9c4\ud574\uad6c \ub355\uc0b0\ub3d9 "}}, {"id": "6828cc45cb548691d73c2598b6075752", "name": "\ub0c9\ucc9c\ub85c \uc548\uc804\uc9c0\ub300", "latitude": 35.1505100939441, "longitude": 128.7007623910904, "timestamp": "2025-05-03T03:15:44.468883+00:00Z", "free_bikes": 0, "empty_slots": 18, "extra": {"uid": "182", "area": " \uacbd\ub0a8 \ucc3d\uc6d0\uc2dc \uc9c4\ud574\uad6c \uc774\ub3d9 "}}, {"id": "689c6a9fa91c22f4c8528a8ce7958f90", "name": "\uba54\ud2b8\ub85c\uc2dc\ud2f02\ub2e8\uc9c0\ubd81\uce21(201\ub3d9\uc55e)", "latitude": 35.2271621, "longitude": 128.5857686, "timestamp": "2025-05-03T03:15:45.149467+00:00Z", "free_bikes": 0, "empty_slots": 19, "extra": {"uid": "261", "area": " \uacbd\ub0a8 \ucc3d\uc6d0\uc2dc \ub9c8\uc0b0\ud68c\uc6d0\uad6c \uc591\ub355\ub3d9 "}}, {"id": "6a3ea4ef843bc0f6d28aa3a3633a3a65", "name": "\uc9c4\ud574\ub3d9\ubd80\ub3c4\uc11c\uad00", "latitude": 35.10063496417548, "longitude": 128.81787300109863, "timestamp": "2025-05-03T03:15:46.106793+00:00Z", "free_bikes": 0, "empty_slots": 8, "extra": {"uid": "189", "area": " \uacbd\ub0a8 \ucc3d\uc6d0\uc2dc \uc9c4\ud574\uad6c \uc6a9\uc6d0\ub3d9 "}}, {"id": "6a6bd1c33efb85b413aa358540c4cf83", "name": "\ucc3d\uc6d0\ub300\ud559\uad50\uc55e", "latitude": 35.2430543837628, "longitude": 128.69152799382667, "timestamp": "2025-05-03T03:15:46.169045+00:00Z", "free_bikes": 0, "empty_slots": 25, "extra": {"uid": "37", "area": " \uacbd\ub0a8 \ucc3d\uc6d0\uc2dc \uc758\ucc3d\uad6c \ud1f4\ucd0c\ub3d9 "}}, {"id": "6aaf14ac4741e064e516712e8225dd1c", "name": "\ud1a0\uc6d4\uc9c0\ud558\ucc28\ub3c4(\ub3c4\uccad\ubc29\ud5a5)", "latitude": 35.231305, "longitude": 128.6947516, "timestamp": "2025-05-03T03:15:46.196694+00:00Z", "free_bikes": 0, "empty_slots": 0, "extra": {"uid": "453", "area": " \uacbd\ub0a8 \ucc3d\uc6d0\uc2dc \uc131\uc0b0\uad6c \uc2e0\uc6d4\ub3d9 "}}, {"id": "6b45b608d167ee8fc21c34be6416847b", "name": "\ucc9c\uc120\uc77c\ubc18\uc0b0\uc5c5\ub2e8\uc9c0", "latitude": 35.1865948, "longitude": 128.7071776, "timestamp": "2025-05-03T03:15:46.174712+00:00Z", "free_bikes": 0, "empty_slots": 0, "extra": {"uid": "322", "area": " \uacbd\ub0a8 \ucc3d\uc6d0\uc2dc \uc131\uc0b0\uad6c \uc131\uc8fc\ub3d9 "}}, {"id": "6b944f1394636069c9334711149e4d02", "name": "\uad50\uc721\ub2e8\uc9c0\uc0ac\uac70\ub9ac", "latitude": 35.2205239, "longitude": 128.665899, "timestamp": "2025-05-03T03:15:44.299437+00:00Z", "free_bikes": 0, "empty_slots": 0, "extra": {"uid": "431", "area": " \uacbd\ub0a8 \ucc3d\uc6d0\uc2dc \uc131\uc0b0\uad6c \ub0b4\ub3d9 "}}, {"id": "6c1d82956e9d55ecf75d871abf1a2c22", "name": "\uc18d\ucc9c\uc885\uc810", "latitude": 35.14392398396914, "longitude": 128.66989016532898, "timestamp": "2025-05-03T03:15:45.889235+00:00Z", "free_bikes": 0, "empty_slots": 18, "extra": {"uid": "173", "area": " \uacbd\ub0a8 \ucc3d\uc6d0\uc2dc \uc9c4\ud574\uad6c \ud0dc\ud3c9\ub3d9 "}}, {"id": "6c33602375349119c2292ac6edd81add", "name": "LG\uc0ac\uc6d0\uc544\ud30c\ud2b8 \uc55e", "latitude": 35.210387855765845, "longitude": 128.6958646774292, "timestamp": "2025-05-03T03:15:43.751767+00:00Z", "free_bikes": 0, "empty_slots": 20, "extra": {"uid": "84", "area": " \uacbd\ub0a8 \ucc3d\uc6d0\uc2dc \uc131\uc0b0\uad6c \uac00\uc74c\ub3d9 "}}, {"id": "6c3ccf92e188ba412b25777cd76390d4", "name": "\uacbd\ub0a8\uc804\uc790\uace0 \uc0ac\uac70\ub9ac", "latitude": 35.2151454, "longitude": 128.5763602, "timestamp": "2025-05-03T03:15:44.141128+00:00Z", "free_bikes": 0, "empty_slots": 0, "extra": {"uid": "325", "area": " \uacbd\ub0a8 \ucc3d\uc6d0\uc2dc \ub9c8\uc0b0\ud68c\uc6d0\uad6c \ud68c\uc6d0\ub3d9 "}}, {"id": "6c41b26f41c67c5d5871bdbb83369ad9", "name": "\uc5b4\uc2dc\uc7a5 \uc815\ubb38", "latitude": 35.20107794450455, "longitude": 128.57590556144714, "timestamp": "2025-05-03T03:15:45.920463+00:00Z", "free_bikes": 0, "empty_slots": 20, "extra": {"uid": "206", "area": " \uacbd\ub0a8 \ucc3d\uc6d0\uc2dc \ub9c8\uc0b0\ud569\ud3ec\uad6c \uc2e0\ud3ec\ub3d92\uac00 "}}, {"id": "6cfbb26d9f8992d7ea581798b9382e1f", "name": "\ubd09\ub9bc\ud734\uba3c\uc2dc\uc5441\ub2e8\uc9c0\uc55e\uacf5\uc6d0", "latitude": 35.2539761, "longitude": 128.6689648, "timestamp": "2025-05-03T03:15:45.592584+00:00Z", "free_bikes": 0, "empty_slots": 14, "extra": {"uid": "236", "area": " \uacbd\ub0a8 \ucc3d\uc6d0\uc2dc \uc758\ucc3d\uad6c \ubd09\ub9bc\ub3d9 "}}, {"id": "6d1adeb9bd695adf840ab0e0c5755078", "name": "\uc9c4\ud574\ub9c8\ub9b0\ud478\ub974\uc9c0\uc624\uc55e", "latitude": 35.135001, "longitude": 128.70451, "timestamp": "2025-05-03T03:15:46.122225+00:00Z", "free_bikes": 0, "empty_slots": 20, "extra": {"uid": "252", "area": " \uacbd\ub0a8 \ucc3d\uc6d0\uc2dc \uc9c4\ud574\uad6c \ud48d\ud638\ub3d9 "}}, {"id": "6d573353b71810a2bed12a4a68963384", "name": "\ub0b4\uc11c \uc0c1\uace1\uad50\ucc28\ub85c \uc55e", "latitude": 35.24202655904057, "longitude": 128.50480556488037, "timestamp": "2025-05-03T03:15:44.446232+00:00Z", "free_bikes": 0, "empty_slots": 20, "extra": {"uid": "158", "area": " \uacbd\ub0a8 \ucc3d\uc6d0\uc2dc \ub9c8\uc0b0\ud68c\uc6d0\uad6c \ub0b4\uc11c\uc74d \uc911\ub9ac"}}, {"id": "6e1393e9fd7f67076862a11354543392", "name": "\uc0ac\ud30c\ubb34\uad81\ud654\uc544\ud30c\ud2b8", "latitude": 35.2196058, "longitude": 128.6927171, "timestamp": "2025-05-03T03:15:45.719476+00:00Z", "free_bikes": 0, "empty_slots": 15, "extra": {"uid": "137", "area": " \uacbd\ub0a8 \ucc3d\uc6d0\uc2dc \uc131\uc0b0\uad6c \uc0ac\ud30c\ub3d9 "}}, {"id": "6e14f1e9c22ec573332f37f4fe5dd348", "name": "\uba85\uc11c\ucd08 \ubc84\uc2a4\uc815\ub958\uc18c", "latitude": 35.249176423407725, "longitude": 128.6413836479187, "timestamp": "2025-05-03T03:15:45.261438+00:00Z", "free_bikes": 0, "empty_slots": 20, "extra": {"uid": "105", "area": " \uacbd\ub0a8 \ucc3d\uc6d0\uc2dc \uc758\ucc3d\uad6c \uba85\uc11c\ub3d9 "}}, {"id": "6e2a669f32c94ad7dc0d8444d0d67c27", "name": "\ubb38\uc131\uace0 \ub9de\uc740\ud3b8", "latitude": 35.23756633662483, "longitude": 128.66203665733337, "timestamp": "2025-05-03T03:15:45.305365+00:00Z", "free_bikes": 0, "empty_slots": 15, "extra": {"uid": "128", "area": " \uacbd\ub0a8 \ucc3d\uc6d0\uc2dc \uc131\uc0b0\uad6c \ubc18\uc9c0\ub3d9 "}}, {"id": "6f7b650cb2af9d757c87faea8a5ad9c0", "name": "\uad50\ud1b5\ubb38\ud654\uc5f0\uc218\uc6d0\uc55e", "latitude": 35.23604594935408, "longitude": 128.67269039154053, "timestamp": "2025-05-03T03:15:44.299759+00:00Z", "free_bikes": 0, "empty_slots": 21, "extra": {"uid": "44", "area": " \uacbd\ub0a8 \ucc3d\uc6d0\uc2dc \uc131\uc0b0\uad6c \ubc18\ub9bc\ub3d9 "}}, {"id": "6ffe16e58116434e33be1b33f796791b", "name": "\uba85\uace1\ub3d9\ud589\uc815\ubcf5\uc9c0\uc13c\ud130", "latitude": 35.253822182972065, "longitude": 128.63995671272278, "timestamp": "2025-05-03T03:15:45.149675+00:00Z", "free_bikes": 0, "empty_slots": 15, "extra": {"uid": "22", "area": " \uacbd\ub0a8 \ucc3d\uc6d0\uc2dc \uc758\ucc3d\uad6c \ub3c4\uacc4\ub3d9 "}}, {"id": "705743465a10cdcd202b1a9c06b26f98", "name": "\uc7a5\ubbf8\uacf5\uc6d0(\uc81c2\uc8fc\ucc28\uc7a5)", "latitude": 35.2089858, "longitude": 128.6889426, "timestamp": "2025-05-03T03:15:46.077294+00:00Z", "free_bikes": 0, "empty_slots": 0, "extra": {"uid": "397", "area": " \uacbd\ub0a8 \ucc3d\uc6d0\uc2dc \uc131\uc0b0\uad6c \uac00\uc74c\ub3d9 "}}, {"id": "706c9157797b5ee1abcc1da2367bfea5", "name": "\uacbd\ub0a8\ub3c4\uc758\ud68c \uc606 \uacf5\uc6d0", "latitude": 35.2355333, "longitude": 128.6942339, "timestamp": "2025-05-03T03:15:44.117403+00:00Z", "free_bikes": 0, "empty_slots": 0, "extra": {"uid": "365", "area": " \uacbd\ub0a8 \ucc3d\uc6d0\uc2dc \uc758\ucc3d\uad6c \uc0ac\ub9bc\ub3d9 "}}, {"id": "71c7963f5a2f839e28cef7c096538793", "name": "\uc18c\uacc4\ub3d9 SK\uc8fc\uc720\uc18c\uc55e", "latitude": 35.25584599497012, "longitude": 128.6003378033638, "timestamp": "2025-05-03T03:15:45.888211+00:00Z", "free_bikes": 0, "empty_slots": 20, "extra": {"uid": "101", "area": " \uacbd\ub0a8 \ucc3d\uc6d0\uc2dc \uc758\ucc3d\uad6c \uc18c\uacc4\ub3d9 "}}, {"id": "723b8636cc9780341180d19566d29e27", "name": "\ub3c4\uacc4\ucd08\uad50 \uc55e \ub178\uc678\uc8fc\ucc28\uc7a5", "latitude": 35.2596591, "longitude": 128.638562, "timestamp": "2025-05-03T03:15:44.611713+00:00Z", "free_bikes": 0, "empty_slots": 22, "extra": {"uid": "21", "area": " \uacbd\ub0a8 \ucc3d\uc6d0\uc2dc \uc758\ucc3d\uad6c \ub3c4\uacc4\ub3d9 "}}, {"id": "732d6d214af41fced5561abf38b20d70", "name": "\uc790\uc740\uc13c\ud2b8\ub7f4\ube4c\ub9ac\uc9c0", "latitude": 35.15631, "longitude": 128.717333, "timestamp": "2025-05-03T03:15:46.076404+00:00Z", "free_bikes": 0, "empty_slots": 23, "extra": {"uid": "273", "area": " \uacbd\ub0a8 \ucc3d\uc6d0\uc2dc \uc9c4\ud574\uad6c \uc790\uc740\ub3d9 "}}, {"id": "7418b0b1e59bf897cebf6ad45a595f75", "name": "\ubb34\ub3d9\uc785\uad6c \ubc84\uc2a4\uc815\ub958\uc18c", "latitude": 35.3164022, "longitude": 128.5848223, "timestamp": "2025-05-03T03:15:45.304272+00:00Z", "free_bikes": 0, "empty_slots": 0, "extra": {"uid": "309", "area": " \uacbd\ub0a8 \ucc3d\uc6d0\uc2dc \uc758\ucc3d\uad6c \ubd81\uba74 \ubb34\ub3d9\ub9ac"}}, {"id": "74997f7cfa24fd221172ab29d2f86641", "name": "\ucc3d\uc6d0\ubcf5\ud569\ubb38\ud654\uc13c\ud130", "latitude": 35.2280875, "longitude": 128.6517705, "timestamp": "2025-05-03T03:15:46.170644+00:00Z", "free_bikes": 0, "empty_slots": 0, "extra": {"uid": "430", "area": " \uacbd\ub0a8 \ucc3d\uc6d0\uc2dc \uc131\uc0b0\uad6c \ub300\uc6d0\ub3d9 "}}, {"id": "7504ec32bfae5f8cc3ddb8dfb104a5df", "name": "\uc2e0\uc6d4\ubbfc\uc6d0\uc13c\ud130 \ubc84\uc2a4\uc815\ub958\uc18c", "latitude": 35.2284217, "longitude": 128.6920828, "timestamp": "2025-05-03T03:15:45.890355+00:00Z", "free_bikes": 0, "empty_slots": 0, "extra": {"uid": "111", "area": " \uacbd\ub0a8 \ucc3d\uc6d0\uc2dc \uc131\uc0b0\uad6c \uc2e0\uc6d4\ub3d9 "}}, {"id": "7523abd56d70b039246bc6ca752bd65e", "name": "\ub3d9\uc6b0\uae30\uacc4 \ubc84\uc2a4\uc815\ub958\uc18c", "latitude": 35.2477088, "longitude": 128.6174872, "timestamp": "2025-05-03T03:15:44.612648+00:00Z", "free_bikes": 0, "empty_slots": 0, "extra": {"uid": "355", "area": " \uacbd\ub0a8 \ucc3d\uc6d0\uc2dc \uc758\ucc3d\uad6c \ud314\uc6a9\ub3d9 "}}, {"id": "7550095b9a6484ff9b3c4f62e61905cf", "name": "\uc2e0\ud765\ub3d9 \ud574\uad70\uc544\ud30c\ud2b8 \uc55e", "latitude": 35.147711665451915, "longitude": 128.6573588848114, "timestamp": "2025-05-03T03:15:45.918674+00:00Z", "free_bikes": 0, "empty_slots": 20, "extra": {"uid": "154", "area": " \uacbd\ub0a8 \ucc3d\uc6d0\uc2dc \uc9c4\ud574\uad6c \uc2e0\ud765\ub3d9 "}}, {"id": "7562ad73a2b7cc813fb145eefc2d9c11", "name": "\uc758\uc548\uc5b4\ub9b0\uc774\uc9d1 \uc8fc\ucc28\uc7a5", "latitude": 35.266365060848436, "longitude": 128.62381517887115, "timestamp": "2025-05-03T03:15:46.046411+00:00Z", "free_bikes": 0, "empty_slots": 8, "extra": {"uid": "4", "area": " \uacbd\ub0a8 \ucc3d\uc6d0\uc2dc \uc758\ucc3d\uad6c \uc18c\ub2f5\ub3d9 "}}, {"id": "76114e9ca285d658a85db4f3ca9fba11", "name": "\ub9c8\uc0b0\uc2e0\uc138\uacc4\ubc31\ud654\uc810 \uc55e", "latitude": 35.2199859, "longitude": 128.5869107, "timestamp": "2025-05-03T03:15:44.758682+00:00Z", "free_bikes": 0, "empty_slots": 0, "extra": {"uid": "335", "area": " \uacbd\ub0a8 \ucc3d\uc6d0\uc2dc \ub9c8\uc0b0\ud569\ud3ec\uad6c \uc0b0\ud638\ub3d9 "}}, {"id": "76456a380519b39ca30e12fac1568a56", "name": "\ucc3d\ubd81\uc911\ud559\uad50 \uc0ac\uac70\ub9ac", "latitude": 35.3163908, "longitude": 128.5802038, "timestamp": "2025-05-03T03:15:46.157871+00:00Z", "free_bikes": 0, "empty_slots": 0, "extra": {"uid": "308", "area": " \uacbd\ub0a8 \ucc3d\uc6d0\uc2dc \uc758\ucc3d\uad6c \ubd81\uba74 \ubb34\ub3d9\ub9ac"}}, {"id": "777c45eedbb9a8bbeb0da79bb07ef282", "name": "\uc740\uc544\uc544\ud30c\ud2b8 \uc815\ubb38", "latitude": 35.22451067106695, "longitude": 128.6858519911766, "timestamp": "2025-05-03T03:15:46.045146+00:00Z", "free_bikes": 0, "empty_slots": 25, "extra": {"uid": "63", "area": " \uacbd\ub0a8 \ucc3d\uc6d0\uc2dc \uc131\uc0b0\uad6c \uc2e0\uc6d4\ub3d9 "}}, {"id": "77d1a9715471ed64a6bd17e6d6848a57", "name": "\uc608\uc77c\uba54\ub514\uceec \uc55e", "latitude": 35.2309342, "longitude": 128.5765627, "timestamp": "2025-05-03T03:15:45.920813+00:00Z", "free_bikes": 0, "empty_slots": 0, "extra": {"uid": "418", "area": " \uacbd\ub0a8 \ucc3d\uc6d0\uc2dc \ub9c8\uc0b0\ud68c\uc6d0\uad6c \uc11d\uc804\ub3d9 "}}, {"id": "780587f09fd0f7e31e40a8b4690ad8a2", "name": "\ub300\ubc29\ucd08\ub4f1\ud559\uad50 \ubc84\uc2a4\uc815\ub958\uc18c", "latitude": 35.2110853, "longitude": 128.7058894, "timestamp": "2025-05-03T03:15:44.591296+00:00Z", "free_bikes": 0, "empty_slots": 0, "extra": {"uid": "382", "area": " \uacbd\ub0a8 \ucc3d\uc6d0\uc2dc \uc131\uc0b0\uad6c \ub300\ubc29\ub3d9 "}}, {"id": "787231a5633def202ae0fa60ce87e951", "name": "\uad6c\uc554\ub3d9KT\uc55e", "latitude": 35.250262867221934, "longitude": 128.5983395576477, "timestamp": "2025-05-03T03:15:44.300470+00:00Z", "free_bikes": 0, "empty_slots": 22, "extra": {"uid": "226", "area": " \uacbd\ub0a8 \ucc3d\uc6d0\uc2dc \ub9c8\uc0b0\ud68c\uc6d0\uad6c \uad6c\uc554\ub3d9 "}}, {"id": "7984f2eb38493e7343830ca3178bbc49", "name": "\ud604\ub3d9\ucd08\uad50\uc815\ubb38 \uc0ac\uac70\ub9ac", "latitude": 35.1457444, "longitude": 128.5559687, "timestamp": "2025-05-03T03:15:46.241036+00:00Z", "free_bikes": 0, "empty_slots": 0, "extra": {"uid": "403", "area": " \uacbd\ub0a8 \ucc3d\uc6d0\uc2dc \ub9c8\uc0b0\ud569\ud3ec\uad6c \ud604\ub3d9 "}}, {"id": "7b42f1778e195c613e4439dc893ca813", "name": "\uc740\uc544\uc0c1\uac00", "latitude": 35.22696465677406, "longitude": 128.68679344654083, "timestamp": "2025-05-03T03:15:46.044657+00:00Z", "free_bikes": 0, "empty_slots": 20, "extra": {"uid": "62", "area": " \uacbd\ub0a8 \ucc3d\uc6d0\uc2dc \uc131\uc0b0\uad6c \uc2e0\uc6d4\ub3d9 "}}, {"id": "7bd52d6d8b2b6612de9dd1c414ecc1ef", "name": "\uc6c5\ucc9c\ub0a8\ubb38\uc9c0\uad6c(\uc2dc\ud2f0\ud504\ub77c\ub514\uc6c0\uc0ac\uac70\ub9ac)", "latitude": 35.1053123, "longitude": 128.7551345, "timestamp": "2025-05-03T03:15:45.960605+00:00Z", "free_bikes": 0, "empty_slots": 15, "extra": {"uid": "270", "area": " \uacbd\ub0a8 \ucc3d\uc6d0\uc2dc \uc9c4\ud574\uad6c \ub0a8\ubb38\ub3d9 "}}, {"id": "7cca2f143e0c0786cc4ea3e58bf64128", "name": "\ub0c9\ucc9c\uc0ac\uac70\ub9ac\ubc84\uc2a4\uc815\ub958\uc18c", "latitude": 35.1516877737139, "longitude": 128.70606780052185, "timestamp": "2025-05-03T03:15:44.469687+00:00Z", "free_bikes": 0, "empty_slots": 18, "extra": {"uid": "181", "area": " \uacbd\ub0a8 \ucc3d\uc6d0\uc2dc \uc9c4\ud574\uad6c \uc11d\ub3d9 "}}, {"id": "7cef6f4cd44549d8419cefd0f7239bcd", "name": "\uac00\uc74c\uc815 \ubbfc\uc6d0\uc13c\ud130 \uc55e", "latitude": 35.2088505, "longitude": 128.697018, "timestamp": "2025-05-03T03:15:43.914861+00:00Z", "free_bikes": 0, "empty_slots": 0, "extra": {"uid": "296", "area": " \uacbd\ub0a8 \ucc3d\uc6d0\uc2dc \uc131\uc0b0\uad6c \uac00\uc74c\ub3d9 "}}, {"id": "7d37bc7d69ad0633e2d8e75c85381b61", "name": "\uc774\ub3d9\uc6b0\uccb4\uad6d", "latitude": 35.150121916430265, "longitude": 128.69747936725616, "timestamp": "2025-05-03T03:15:46.053264+00:00Z", "free_bikes": 0, "empty_slots": 19, "extra": {"uid": "183", "area": " \uacbd\ub0a8 \ucc3d\uc6d0\uc2dc \uc9c4\ud574\uad6c \uc774\ub3d9 "}}, {"id": "7d9e4a3302edbbe8e0003bc5ea8a4721", "name": "\uc9c4\ud574\uc5ec\uc911\uc606", "latitude": 35.15534570943905, "longitude": 128.65931153297424, "timestamp": "2025-05-03T03:15:46.155446+00:00Z", "free_bikes": 0, "empty_slots": 15, "extra": {"uid": "170", "area": " \uacbd\ub0a8 \ucc3d\uc6d0\uc2dc \uc9c4\ud574\uad6c \uc5ec\uc88c\ub3d9 "}}, {"id": "7e2aca104aef6a75414bf517c32db1cc", "name": "\uac15\ub9bc\uc911\uacf5\uc5c5\uc55e", "latitude": 35.21120307965251, "longitude": 128.65946173667908, "timestamp": "2025-05-03T03:15:44.116401+00:00Z", "free_bikes": 0, "empty_slots": 0, "extra": {"uid": "96", "area": " \uacbd\ub0a8 \ucc3d\uc6d0\uc2dc \uc131\uc0b0\uad6c \uc6c5\ub0a8\ub3d9 "}}, {"id": "7ebb39ec2c965b26df6e848656d10f71", "name": "\ub0a8\uc591\ub3d9\uc131\uc544\ud30c\ud2b8", "latitude": 35.2147093256305, "longitude": 128.70434045791626, "timestamp": "2025-05-03T03:15:44.345316+00:00Z", "free_bikes": 0, "empty_slots": 20, "extra": {"uid": "141", "area": " \uacbd\ub0a8 \ucc3d\uc6d0\uc2dc \uc131\uc0b0\uad6c \ub300\ubc29\ub3d9 "}}, {"id": "7f4635c62ef0e0fd74cda14e08a8abb8", "name": "\uc2e0\ud56d\uc911\ud559\uad50", "latitude": 35.0885854, "longitude": 128.8100118, "timestamp": "2025-05-03T03:15:45.918475+00:00Z", "free_bikes": 0, "empty_slots": 14, "extra": {"uid": "274", "area": " \uacbd\ub0a8 \ucc3d\uc6d0\uc2dc \uc9c4\ud574\uad6c \uc6a9\uc6d0\ub3d9 "}}, {"id": "7f87f28f66497423b6dbc1152c9ac6eb", "name": "\uac00\uc74c\ub3d9 \uc740\uc544\uc544\ud30c\ud2b8", "latitude": 35.20800349806335, "longitude": 128.69430363178253, "timestamp": "2025-05-03T03:15:43.914338+00:00Z", "free_bikes": 0, "empty_slots": 16, "extra": {"uid": "142", "area": " \uacbd\ub0a8 \ucc3d\uc6d0\uc2dc \uc131\uc0b0\uad6c \uac00\uc74c\ub3d9 "}}, {"id": "801ae1392bdd07da68a6bb74300ab8e4", "name": "\ub9c8\uc0b0\ub204\ub9ac\uacf5\uc6d0", "latitude": 35.1860293, "longitude": 128.5635003, "timestamp": "2025-05-03T03:15:44.758099+00:00Z", "free_bikes": 0, "empty_slots": 0, "extra": {"uid": "337", "area": " \uacbd\ub0a8 \ucc3d\uc6d0\uc2dc \ub9c8\uc0b0\ud569\ud3ec\uad6c \uc6d4\ub0a8\ub3d91\uac00 "}}, {"id": "8077db62794d495a3ca85bc985513e2e", "name": "\uc0ac\ud30c\uc911\ubc84\uc2a4\uc815\ub958\uc18c", "latitude": 35.2212968, "longitude": 128.700757, "timestamp": "2025-05-03T03:15:45.720217+00:00Z", "free_bikes": 0, "empty_slots": 0, "extra": {"uid": "384", "area": " \uacbd\ub0a8 \ucc3d\uc6d0\uc2dc \uc131\uc0b0\uad6c \uc0ac\ud30c\ub3d9 "}}, {"id": "819698721b39689fb614a1ce0f0d49d1", "name": "\ub18d\uc5c5\uae30\uc220\uc13c\ud130 \ubc84\uc2a4\uc815\ub958\uc18c(\ub354\ud070\ubcd1\uc6d0 \uc55e)", "latitude": 35.2394777, "longitude": 128.6487812, "timestamp": "2025-05-03T03:15:44.475368+00:00Z", "free_bikes": 0, "empty_slots": 0, "extra": {"uid": "358", "area": " \uacbd\ub0a8 \ucc3d\uc6d0\uc2dc \uc758\ucc3d\uad6c \uba85\uc11c\ub3d9 "}}, {"id": "819f5797c89777166fe68d1d15e0717c", "name": "\uc8fc\ub0a8\uc800\uc218\uc9c0 \uc8fc\ucc28\uc7a5", "latitude": 35.3060586, "longitude": 128.6782436, "timestamp": "2025-05-03T03:15:46.090076+00:00Z", "free_bikes": 0, "empty_slots": 15, "extra": {"uid": "276", "area": " \uacbd\ub0a8 \ucc3d\uc6d0\uc2dc \uc758\ucc3d\uad6c \ub3d9\uc74d \uc6d4\uc7a0\ub9ac"}}, {"id": "81a16d89bb9b012bbc3c8d7231b3b646", "name": "\ub300\uc6d0\ub3d9 \ub300\ub3d9\uc544\ud30c\ud2b8", "latitude": 35.22625257035038, "longitude": 128.65490198135376, "timestamp": "2025-05-03T03:15:44.591487+00:00Z", "free_bikes": 0, "empty_slots": 19, "extra": {"uid": "102", "area": " \uacbd\ub0a8 \ucc3d\uc6d0\uc2dc \uc131\uc0b0\uad6c \uc0bc\ub3d9\ub3d9 "}}, {"id": "822dff017c7c97104ffa86d1fd7c91c1", "name": "\ucc3d\uc6d0\ub300\uc55e(\ud1f4\ucd0c3\ud638\uad50\uc606)", "latitude": 35.2416235, "longitude": 128.6884618, "timestamp": "2025-05-03T03:15:46.168867+00:00Z", "free_bikes": 0, "empty_slots": 0, "extra": {"uid": "302", "area": " \uacbd\ub0a8 \ucc3d\uc6d0\uc2dc \uc758\ucc3d\uad6c \uc0ac\ub9bc\ub3d9 "}}, {"id": "82e3b4963f393d911beee551eb528742", "name": "\uba85\uc11c\uc804\ud1b5\uc2dc\uc7a5 \uc8fc\ucc28\uc7a5", "latitude": 35.2500389, "longitude": 128.6461043, "timestamp": "2025-05-03T03:15:45.151004+00:00Z", "free_bikes": 0, "empty_slots": 0, "extra": {"uid": "361", "area": " \uacbd\ub0a8 \ucc3d\uc6d0\uc2dc \uc758\ucc3d\uad6c \uba85\uc11c\ub3d9 "}}, {"id": "8493516f27fd236adb83bd4825bc2926", "name": "\ud2b8\ub9ac\ube44\uc559\uc0c1\uac00 \uc8fc\ucc28\uc7a5", "latitude": 35.23506666465379, "longitude": 128.6702173948288, "timestamp": "2025-05-03T03:15:46.197689+00:00Z", "free_bikes": 0, "empty_slots": 9, "extra": {"uid": "43", "area": " \uacbd\ub0a8 \ucc3d\uc6d0\uc2dc \uc131\uc0b0\uad6c \ubc18\ub9bc\ub3d9 "}}, {"id": "85077d8a06e264bdb52494c9958fe7cd", "name": "\ucc3d\uc6d0\uc2dc\uccad", "latitude": 35.22773370309257, "longitude": 128.6821961402893, "timestamp": "2025-05-03T03:15:46.171514+00:00Z", "free_bikes": 0, "empty_slots": 35, "extra": {"uid": "59", "area": " \uacbd\ub0a8 \ucc3d\uc6d0\uc2dc \uc131\uc0b0\uad6c \uc6a9\ud638\ub3d9 "}}, {"id": "853721f8e4107288702068989d2ad96a", "name": "\uc9c0\uadc0\uc0c1\uac00", "latitude": 35.24470126042049, "longitude": 128.6588716506958, "timestamp": "2025-05-03T03:15:46.104890+00:00Z", "free_bikes": 0, "empty_slots": 15, "extra": {"uid": "33", "area": " \uacbd\ub0a8 \ucc3d\uc6d0\uc2dc \uc758\ucc3d\uad6c \ubd09\uace1\ub3d9 "}}, {"id": "856552d8fc3c0a31ad33892ebccfc4fd", "name": "\uc6c5\ub0a8\ub3d9 \ucc3d\uace1\uc0bc\uac70\ub9ac", "latitude": 35.21588826681978, "longitude": 128.64687144756317, "timestamp": "2025-05-03T03:15:45.959933+00:00Z", "free_bikes": 0, "empty_slots": 19, "extra": {"uid": "165", "area": " \uacbd\ub0a8 \ucc3d\uc6d0\uc2dc \uc131\uc0b0\uad6c \uc6c5\ub0a8\ub3d9 "}}, {"id": "862ee73694688f8c31df16a89ab62ad6", "name": "\uba85\uc11c2\ubbfc\uc6d0\uc13c\ud130", "latitude": 35.24322262805608, "longitude": 128.64180743694305, "timestamp": "2025-05-03T03:15:45.150354+00:00Z", "free_bikes": 0, "empty_slots": 18, "extra": {"uid": "27", "area": " \uacbd\ub0a8 \ucc3d\uc6d0\uc2dc \uc758\ucc3d\uad6c \uba85\uc11c\ub3d9 "}}, {"id": "86646e5528320328f7634f5e82a1a82c", "name": "\ub0a8\uc0b0\uc911\ud559\uad50 \uac74\ub108\ud3b8", "latitude": 35.2038121, "longitude": 128.6979534, "timestamp": "2025-05-03T03:15:44.344955+00:00Z", "free_bikes": 0, "empty_slots": 0, "extra": {"uid": "315", "area": " \uacbd\ub0a8 \ucc3d\uc6d0\uc2dc \uc131\uc0b0\uad6c \uac00\uc74c\ub3d9 "}}, {"id": "86f73739e06481a5e3fc02905c4bff21", "name": "\uac00\uc74c\uc815 \uc790\uc728\ubc29\ubc94\ub300\uc55e", "latitude": 35.206977852073656, "longitude": 128.70022058486938, "timestamp": "2025-05-03T03:15:43.915093+00:00Z", "free_bikes": 0, "empty_slots": 15, "extra": {"uid": "87", "area": " \uacbd\ub0a8 \ucc3d\uc6d0\uc2dc \uc131\uc0b0\uad6c \uac00\uc74c\ub3d9 "}}, {"id": "87008fde022e0c3e3477d4b7c13de421", "name": "\uc9c4\ud574\ub86f\ub370\ub9c8\ud2b8\uc606\uc2dc\ub0b4\ubc84\uc2a4\uc815\ub958\uc7a5", "latitude": 35.15784125706155, "longitude": 128.70067656040192, "timestamp": "2025-05-03T03:15:46.107193+00:00Z", "free_bikes": 0, "empty_slots": 24, "extra": {"uid": "179", "area": " \uacbd\ub0a8 \ucc3d\uc6d0\uc2dc \uc9c4\ud574\uad6c \uc11d\ub3d9 "}}, {"id": "87eea55111d1cc9509a71bc2dab13c75", "name": "\ubc95\uc6d0 \uc55e", "latitude": 35.22332089949872, "longitude": 128.69992554187775, "timestamp": "2025-05-03T03:15:45.306605+00:00Z", "free_bikes": 0, "empty_slots": 12, "extra": {"uid": "75", "area": " \uacbd\ub0a8 \ucc3d\uc6d0\uc2dc \uc131\uc0b0\uad6c \uc0ac\ud30c\ub3d9 "}}, {"id": "8a1c5389cbda7455b8ac722c553f2c85", "name": "\uc724\ubcd1\uc6d0\uc55e", "latitude": 35.2618147, "longitude": 128.6198609, "timestamp": "2025-05-03T03:15:46.036685+00:00Z", "free_bikes": 0, "empty_slots": 0, "extra": {"uid": "372", "area": " \uacbd\ub0a8 \ucc3d\uc6d0\uc2dc \uc758\ucc3d\uad6c \uc11c\uc0c1\ub3d9 "}}, {"id": "8aaf6bdd4f4fb86204351b4ea5656f42", "name": "\uc6d4\uc601\uad11\uc7a5", "latitude": 35.1802934, "longitude": 128.5587072, "timestamp": "2025-05-03T03:15:45.971472+00:00Z", "free_bikes": 0, "empty_slots": 20, "extra": {"uid": "210", "area": " \uacbd\ub0a8 \ucc3d\uc6d0\uc2dc \ub9c8\uc0b0\ud569\ud3ec\uad6c \ud574\uc6b4\ub3d9 "}}, {"id": "8aeb0662d57ce532f648e765870a3dff", "name": "\ubd81\uc6d0\ub85c\ud130\ub9ac", "latitude": 35.1532202, "longitude": 128.6566454, "timestamp": "2025-05-03T03:15:45.594309+00:00Z", "free_bikes": 0, "empty_slots": 0, "extra": {"uid": "434", "area": " \uacbd\ub0a8 \ucc3d\uc6d0\uc2dc \uc9c4\ud574\uad6c \uc5ec\uc88c\ub3d9 "}}, {"id": "8b599e7def48c6182c291765980f9448", "name": "\ub9c8\uc0b0\uc885\ud569\uc6b4\ub3d9\uc7a5\uc0ac\uac70\ub9ac(\ub86f\ub370\ub9c8\ud2b8\ucabd)", "latitude": 35.2231856, "longitude": 128.5845317, "timestamp": "2025-05-03T03:15:45.148324+00:00Z", "free_bikes": 0, "empty_slots": 33, "extra": {"uid": "200", "area": " \uacbd\ub0a8 \ucc3d\uc6d0\uc2dc \ub9c8\uc0b0\ud68c\uc6d0\uad6c \uc591\ub355\ub3d9 "}}, {"id": "8b730ec77c109685ea2e6b51ec1a82df", "name": "\ub0c9\ucc9c\uc0ac\uac70\ub9ac(\uc54c\ub730\uc8fc\uc720\uc18c\uc606)", "latitude": 35.1532541, "longitude": 128.705467, "timestamp": "2025-05-03T03:15:44.469292+00:00Z", "free_bikes": 0, "empty_slots": 0, "extra": {"uid": "425", "area": " \uacbd\ub0a8 \ucc3d\uc6d0\uc2dc \uc9c4\ud574\uad6c \uc11d\ub3d9 "}}, {"id": "8c25992df4d6ad8ac745f0820d05e789", "name": "\ub178\ube14\ud30c\ud06c\uc544\ud30c\ud2b8 \uc815\ubb38(\uc11c\ubb38)", "latitude": 35.2376244, "longitude": 128.6654176, "timestamp": "2025-05-03T03:15:44.474842+00:00Z", "free_bikes": 0, "empty_slots": 0, "extra": {"uid": "455", "area": " \uacbd\ub0a8 \ucc3d\uc6d0\uc2dc \uc131\uc0b0\uad6c \ubc18\ub9bc\ub3d9 "}}, {"id": "8cd104fa41b0586e24dc2250bea250f0", "name": "\ub0b4\uc11c\ub9e5\ub3c4\ub0a0\ub4dc\uc55e", "latitude": 35.2484236, "longitude": 128.5105025, "timestamp": "2025-05-03T03:15:44.446729+00:00Z", "free_bikes": 0, "empty_slots": 20, "extra": {"uid": "156", "area": " \uacbd\ub0a8 \ucc3d\uc6d0\uc2dc \ub9c8\uc0b0\ud68c\uc6d0\uad6c \ub0b4\uc11c\uc74d \uc911\ub9ac"}}, {"id": "8d5189fbc9f41545782b56e59657d196", "name": "\uc138\uacc4\ub85c\uc57d\uad6d\uc55e", "latitude": 35.2374606, "longitude": 128.5816193, "timestamp": "2025-05-03T03:15:45.887606+00:00Z", "free_bikes": 0, "empty_slots": 0, "extra": {"uid": "412", "area": " \uacbd\ub0a8 \ucc3d\uc6d0\uc2dc \ub9c8\uc0b0\ud68c\uc6d0\uad6c \ud569\uc131\ub3d9 "}}, {"id": "8d833b07f66befee82f5bbba5e94ebd3", "name": "\uac10\uacc4\ud478\ub974\uc9c0\uc624 \ubc84\uc2a4\uc815\ub958\uc18c", "latitude": 35.3001907, "longitude": 128.5863152, "timestamp": "2025-05-03T03:15:44.116222+00:00Z", "free_bikes": 0, "empty_slots": 0, "extra": {"uid": "312", "area": " \uacbd\ub0a8 \ucc3d\uc6d0\uc2dc \uc758\ucc3d\uad6c \ubd81\uba74 \uac10\uacc4\ub9ac"}}, {"id": "8e62f99df30a388ce7cb2c93b78fd485", "name": "\uc7a5\ubbf8\uacf5\uc6d0", "latitude": 35.2072031, "longitude": 128.693152, "timestamp": "2025-05-03T03:15:46.076822+00:00Z", "free_bikes": 0, "empty_slots": 20, "extra": {"uid": "230", "area": " \uacbd\ub0a8 \ucc3d\uc6d0\uc2dc \uc131\uc0b0\uad6c \uac00\uc74c\ub3d9 "}}, {"id": "8ed44d7f1bce2997aa9fc39c954708d7", "name": "\uc911\uc559\ub3d9 \ub9ac\uc81c\uc2a4\ud0c0\uc6cc \uc55e", "latitude": 35.2225781, "longitude": 128.67861, "timestamp": "2025-05-03T03:15:46.104531+00:00Z", "free_bikes": 0, "empty_slots": 0, "extra": {"uid": "345", "area": " \uacbd\ub0a8 \ucc3d\uc6d0\uc2dc \uc131\uc0b0\uad6c \uc911\uc559\ub3d9 "}}, {"id": "8efaa446a3747fe5e7309c206c52e74c", "name": "\ubb34\ub3d9 \ud734\uba3c\ube4c1\ub2e8\uc9c0", "latitude": 35.3186609, "longitude": 128.5854714, "timestamp": "2025-05-03T03:15:45.289854+00:00Z", "free_bikes": 0, "empty_slots": 0, "extra": {"uid": "311", "area": " \uacbd\ub0a8 \ucc3d\uc6d0\uc2dc \uc758\ucc3d\uad6c \ubd81\uba74 \ubb34\ub3d9\ub9ac"}}, {"id": "8f23b21b5376cd9a5de0bb91947ccace", "name": "\ub9c8\uc0b0\ud569\ud3ec\uc6b0\uccb4\uad6d", "latitude": 35.191907252261885, "longitude": 128.56443643569946, "timestamp": "2025-05-03T03:15:45.149022+00:00Z", "free_bikes": 0, "empty_slots": 13, "extra": {"uid": "228", "area": " \uacbd\ub0a8 \ucc3d\uc6d0\uc2dc \ub9c8\uc0b0\ud569\ud3ec\uad6c \uc911\uc559\ub3d92\uac00 "}}, {"id": "8f54dea54466ee126dff35306e6def5f", "name": "\uc9c4\ud574\uc2dc\uc678\ubc84\uc2a4\ud130\ubbf8\ub110 \uc606(\ud669\uc2e4\ubdd4\ud398\uc55e)", "latitude": 35.1450008, "longitude": 128.6618006, "timestamp": "2025-05-03T03:15:46.122836+00:00Z", "free_bikes": 0, "empty_slots": 20, "extra": {"uid": "262", "area": " \uacbd\ub0a8 \ucc3d\uc6d0\uc2dc \uc9c4\ud574\uad6c \uc778\uc758\ub3d9 "}}, {"id": "9124a44a31ff069717d19ae48bd15fa6", "name": "\uad6d\ubbfc\uc5f0\uae08\uad00\ub9ac\uacf5\ub2e8", "latitude": 35.234271397909794, "longitude": 128.68945956230164, "timestamp": "2025-05-03T03:15:44.301209+00:00Z", "free_bikes": 0, "empty_slots": 18, "extra": {"uid": "60", "area": " \uacbd\ub0a8 \ucc3d\uc6d0\uc2dc \uc131\uc0b0\uad6c \uc2e0\uc6d4\ub3d9 "}}, {"id": "914b28fbbbabf9595715302197cbe73e", "name": "\ub300\uc815\uad50\uc0ac\uac70\ub9ac(\uc2e0\uc9c4\uae30\uacc4\uacf5\uc5c5\uc606)", "latitude": 35.2237284, "longitude": 128.6374743, "timestamp": "2025-05-03T03:15:44.592113+00:00Z", "free_bikes": 0, "empty_slots": 0, "extra": {"uid": "304", "area": " \uacbd\ub0a8 \ucc3d\uc6d0\uc2dc \uc131\uc0b0\uad6c \ub300\uc6d0\ub3d9 "}}, {"id": "91a7e75eea8a631d9591672eb8bed5eb", "name": "\ucc3d\uc6d0\uc2dc\uccad \ud6c4\ubb38 \ubc84\uc2a4\uc815\ub958\uc18c", "latitude": 35.2290949, "longitude": 128.6814109, "timestamp": "2025-05-03T03:15:46.171810+00:00Z", "free_bikes": 0, "empty_slots": 0, "extra": {"uid": "400", "area": " \uacbd\ub0a8 \ucc3d\uc6d0\uc2dc \uc131\uc0b0\uad6c \uc6a9\ud638\ub3d9 "}}, {"id": "91ee3b15f370f4fadbbb3e3c846a2ebc", "name": "\uc62c\ub9bc\ud53d\uacf5\uc6d0 \ubc84\uc2a4\uc815\ub958\uc18c", "latitude": 35.2237279, "longitude": 128.6602932, "timestamp": "2025-05-03T03:15:45.921321+00:00Z", "free_bikes": 0, "empty_slots": 0, "extra": {"uid": "402", "area": " \uacbd\ub0a8 \ucc3d\uc6d0\uc2dc \uc131\uc0b0\uad6c \uc911\uc559\ub3d9 "}}, {"id": "9204a6f961247cac33302f6394671a83", "name": "\ud55c\uad6d\uc804\ub825\uacf5\uc0ac", "latitude": 35.23085801573808, "longitude": 128.6887890100479, "timestamp": "2025-05-03T03:15:46.221387+00:00Z", "free_bikes": 0, "empty_slots": 19, "extra": {"uid": "61", "area": " \uacbd\ub0a8 \ucc3d\uc6d0\uc2dc \uc131\uc0b0\uad6c \uc2e0\uc6d4\ub3d9 "}}, {"id": "9246f6091d00430bbc6b20391bb217cc", "name": "LG\uc815\ubb38", "latitude": 35.209329367376675, "longitude": 128.66493344306946, "timestamp": "2025-05-03T03:15:43.751982+00:00Z", "free_bikes": 0, "empty_slots": 31, "extra": {"uid": "97", "area": " \uacbd\ub0a8 \ucc3d\uc6d0\uc2dc \uc131\uc0b0\uad6c \uc6c5\ub0a8\ub3d9 "}}, {"id": "927d5c261346798ad934554970f4d728", "name": "\ucf54\uc624\ub871\uc544\ud30c\ud2b8 \ubc84\uc2a4\uc815\ub958\uc18c", "latitude": 35.247183111615335, "longitude": 128.65549743175507, "timestamp": "2025-05-03T03:15:46.196133+00:00Z", "free_bikes": 0, "empty_slots": 21, "extra": {"uid": "32", "area": " \uacbd\ub0a8 \ucc3d\uc6d0\uc2dc \uc758\ucc3d\uad6c \ubd09\uace1\ub3d9 "}}, {"id": "929b5696227fd1f20d6ad03ef1403ff7", "name": "KT\uc55e(\ub300\uc6b0\uc544\ud30c\ud2b8\ub9de\uc740\ud3b8)", "latitude": 35.218869, "longitude": 128.6786409, "timestamp": "2025-05-03T03:15:43.751217+00:00Z", "free_bikes": 0, "empty_slots": 15, "extra": {"uid": "110", "area": " \uacbd\ub0a8 \ucc3d\uc6d0\uc2dc \uc131\uc0b0\uad6c \uc0c1\ub0a8\ub3d9 "}}, {"id": "92e29e8a04b5337c283f22562f90ea02", "name": "\uc9c4\ud574\uc911\uc559\uace0\uc0bc\uac70\ub9ac", "latitude": 35.15957362208046, "longitude": 128.69022130966187, "timestamp": "2025-05-03T03:15:46.156501+00:00Z", "free_bikes": 0, "empty_slots": 23, "extra": {"uid": "177", "area": " \uacbd\ub0a8 \ucc3d\uc6d0\uc2dc \uc9c4\ud574\uad6c \uacbd\ud654\ub3d9 "}}, {"id": "92fe1d9e7443e9c340127ff358143069", "name": "\u321cK.A.T \uc55e \ubcf4\ub3c4", "latitude": 35.24762558725598, "longitude": 128.62323582172394, "timestamp": "2025-05-03T03:15:43.752700+00:00Z", "free_bikes": 0, "empty_slots": 10, "extra": {"uid": "10", "area": " \uacbd\ub0a8 \ucc3d\uc6d0\uc2dc \uc758\ucc3d\uad6c \ud314\uc6a9\ub3d9 "}}, {"id": "936c8f868ade8c27fc449348cc492a80", "name": "\uc9c4\ud574\ub8e8\uacf5\uc6d0(\uc7a0\uc218\uc815\uc606)", "latitude": 35.1475494, "longitude": 128.6883055, "timestamp": "2025-05-03T03:15:46.122023+00:00Z", "free_bikes": 0, "empty_slots": 0, "extra": {"uid": "448", "area": " \uacbd\ub0a8 \ucc3d\uc6d0\uc2dc \uc9c4\ud574\uad6c \uacbd\ud654\ub3d9 "}}, {"id": "9392b1a103d2e7a778ab49d5a663d970", "name": "\ubd09\ub9bc\uc911\uc0bc\uac70\ub9ac", "latitude": 35.2449696, "longitude": 128.673829, "timestamp": "2025-05-03T03:15:45.592354+00:00Z", "free_bikes": 0, "empty_slots": 0, "extra": {"uid": "366", "area": " \uacbd\ub0a8 \ucc3d\uc6d0\uc2dc \uc758\ucc3d\uad6c \ubd09\uace1\ub3d9 "}}, {"id": "94812fae7bcec501f6dfe3a8abcd8327", "name": "\uc18d\ucc9c\uc218\ud611\uc606 \uacf5\uc6d0", "latitude": 35.1413973, "longitude": 128.6714217, "timestamp": "2025-05-03T03:15:45.888999+00:00Z", "free_bikes": 0, "empty_slots": 0, "extra": {"uid": "339", "area": " \uacbd\ub0a8 \ucc3d\uc6d0\uc2dc \uc9c4\ud574\uad6c \uc18d\ucc9c\ub3d9 "}}, {"id": "949ae8e4b1a0f3b23b1fd7deff784bab", "name": "\uc131\uc0b0\uc2a4\ud3ec\uce20\uc13c\ud130", "latitude": 35.2063152, "longitude": 128.7065469, "timestamp": "2025-05-03T03:15:45.777756+00:00Z", "free_bikes": 0, "empty_slots": 27, "extra": {"uid": "259", "area": " \uacbd\ub0a8 \ucc3d\uc6d0\uc2dc \uc131\uc0b0\uad6c \ub0a8\uc591\ub3d9 "}}, {"id": "964b042f5534aaeb3f10e7b20980fe66", "name": "\ub0b4\uc11c\ud604\ub300\uc544\uc774\ud30c\ud06c", "latitude": 35.2520535, "longitude": 128.5207761, "timestamp": "2025-05-03T03:15:44.459688+00:00Z", "free_bikes": 0, "empty_slots": 0, "extra": {"uid": "432", "area": " \uacbd\ub0a8 \ucc3d\uc6d0\uc2dc \ub9c8\uc0b0\ud68c\uc6d0\uad6c \ub0b4\uc11c\uc74d \uc911\ub9ac"}}, {"id": "96d382e274e37751d72356ce99539888", "name": "\ub0b4\uc11c\uc6b4\ub3d9\uc7a5", "latitude": 35.226274480795055, "longitude": 128.50370049476624, "timestamp": "2025-05-03T03:15:44.448161+00:00Z", "free_bikes": 0, "empty_slots": 25, "extra": {"uid": "160", "area": " \uacbd\ub0a8 \ucc3d\uc6d0\uc2dc \ub9c8\uc0b0\ud68c\uc6d0\uad6c \ub0b4\uc11c\uc74d \uc0bc\uacc4\ub9ac"}}, {"id": "9705a8a6ebfe22ff879b249075bf6ec8", "name": "\uac00\uc74c\uc815\ub354\uc0f5\uc13c\ud2b8\ub7f4\ud30c\ud06c2\ub2e8\uc9c0", "latitude": 35.209718406561, "longitude": 128.6994019763016, "timestamp": "2025-05-03T03:15:44.031799+00:00Z", "free_bikes": 0, "empty_slots": 18, "extra": {"uid": "86", "area": " \uacbd\ub0a8 \ucc3d\uc6d0\uc2dc \uc131\uc0b0\uad6c \uac00\uc74c\ub3d9 "}}, {"id": "9798a6901e1f5edbcb082c44ed81f93d", "name": "\ub300\ub3d9\ud669\ud1a0\ubc29\uc544\ud30c\ud2b8 \uc55e \ubc84\uc2a4\uc815\ub958\uc18c", "latitude": 35.20807362723048, "longitude": 128.70669543743134, "timestamp": "2025-05-03T03:15:44.570767+00:00Z", "free_bikes": 0, "empty_slots": 26, "extra": {"uid": "81", "area": " \uacbd\ub0a8 \ucc3d\uc6d0\uc2dc \uc131\uc0b0\uad6c \ub300\ubc29\ub3d9 "}}, {"id": "9935adf041281fc4f8376a3ac65aaedc", "name": "\uc528\ud2f0\ud574\uc624\ub984\uc544\ud30c\ud2b8 \ubc84\uc2a4\uc815\ub958\uc18c", "latitude": 35.1792805, "longitude": 128.5663676, "timestamp": "2025-05-03T03:15:45.918863+00:00Z", "free_bikes": 0, "empty_slots": 0, "extra": {"uid": "342", "area": " \uacbd\ub0a8 \ucc3d\uc6d0\uc2dc \ub9c8\uc0b0\ud569\ud3ec\uad6c \ud574\uc6b4\ub3d9 "}}, {"id": "996a853d9f079de3deb3c0a76a2074e8", "name": "\uc790\uc740\ubcf8\ub3d9\uad50\ucc28\ub85c \ubc84\uc2a4\uc815\ub958\uc18c", "latitude": 35.1415497, "longitude": 128.7071756, "timestamp": "2025-05-03T03:15:46.076217+00:00Z", "free_bikes": 0, "empty_slots": 0, "extra": {"uid": "341", "area": " \uacbd\ub0a8 \ucc3d\uc6d0\uc2dc \uc9c4\ud574\uad6c \uc790\uc740\ub3d9 "}}, {"id": "99e445b41acd4ddc03313211258dc30a", "name": "\uac00\ud3ec\ubcf8\ub3d9 \ubc84\uc2a4\uc815\ub958\uc18c", "latitude": 35.1560595, "longitude": 128.5802521, "timestamp": "2025-05-03T03:15:44.034411+00:00Z", "free_bikes": 0, "empty_slots": 0, "extra": {"uid": "333", "area": " \uacbd\ub0a8 \ucc3d\uc6d0\uc2dc \ub9c8\uc0b0\ud569\ud3ec\uad6c \uac00\ud3ec\ub3d9 "}}, {"id": "9a358560ccc19e6dfd4061e849b07118", "name": "\ub0a8\uc0b0\ub3d9 \ubc84\uc2a4\uc815\ub958\uc18c", "latitude": 35.2033929, "longitude": 128.6958325, "timestamp": "2025-05-03T03:15:44.344613+00:00Z", "free_bikes": 0, "empty_slots": 0, "extra": {"uid": "396", "area": " \uacbd\ub0a8 \ucc3d\uc6d0\uc2dc \uc131\uc0b0\uad6c \uac00\uc74c\ub3d9 "}}, {"id": "9a78afa8992cd31ce40caac7b238978f", "name": "\ub3c4\uccad \uc815\ubb38 \ubc84\uc2a4\uc815\ub958\uc18c", "latitude": 35.2356949, "longitude": 128.6917106, "timestamp": "2025-05-03T03:15:44.611871+00:00Z", "free_bikes": 0, "empty_slots": 0, "extra": {"uid": "362", "area": " \uacbd\ub0a8 \ucc3d\uc6d0\uc2dc \uc758\ucc3d\uad6c \uc0ac\ub9bc\ub3d9 "}}, {"id": "9af85a9146d1fb3e52dd182bdd516e12", "name": "\ucc3d\uc6d0\ub0a8\uc911 \ubc84\uc2a4\uc815\ub958\uc18c", "latitude": 35.2122298, "longitude": 128.6803776, "timestamp": "2025-05-03T03:15:46.168125+00:00Z", "free_bikes": 0, "empty_slots": 0, "extra": {"uid": "391", "area": " \uacbd\ub0a8 \ucc3d\uc6d0\uc2dc \uc131\uc0b0\uad6c \uc0c1\ub0a8\ub3d9 "}}, {"id": "9b83afaa9561c21a506ea64e33dc1d61", "name": "\uc548\ubbfc\ub3d9 \uc815\uc790\ub098\ubb34", "latitude": 35.186795413291094, "longitude": 128.69165360927582, "timestamp": "2025-05-03T03:15:45.919224+00:00Z", "free_bikes": 0, "empty_slots": 14, "extra": {"uid": "147", "area": " \uacbd\ub0a8 \ucc3d\uc6d0\uc2dc \uc131\uc0b0\uad6c \uc548\ubbfc\ub3d9 "}}, {"id": "9c2317bb4e5c2a9f8eeb7bb1d3aef9b4", "name": "\ucd5c\uc724\ub355\ub3c4\uc11c\uad00", "latitude": 35.3224404, "longitude": 128.5801944, "timestamp": "2025-05-03T03:15:46.175272+00:00Z", "free_bikes": 0, "empty_slots": 0, "extra": {"uid": "451", "area": " \uacbd\ub0a8 \ucc3d\uc6d0\uc2dc \uc758\ucc3d\uad6c \ubd81\uba74 \ubb34\ub3d9\ub9ac"}}, {"id": "9c8b62c89bba7bd2c13b45f840d4ba5f", "name": "\uc7ac\ub8cc\uc5f0\uad6c\uc6d0 \ubc84\uc2a4\uc815\ub958\uc18c", "latitude": 35.2146041, "longitude": 128.6762369, "timestamp": "2025-05-03T03:15:46.089542+00:00Z", "free_bikes": 0, "empty_slots": 0, "extra": {"uid": "392", "area": " \uacbd\ub0a8 \ucc3d\uc6d0\uc2dc \uc131\uc0b0\uad6c \uc0c1\ub0a8\ub3d9 "}}, {"id": "9ca67d643162fd625e186eacf623d16f", "name": "\ub0b4\uc11c\ucf54\uc624\ub8711\ucc28\uc0c1\uac00 \uc815\ub958\uc18c \uc55e", "latitude": 35.26565113038488, "longitude": 128.52601647377014, "timestamp": "2025-05-03T03:15:44.459238+00:00Z", "free_bikes": 0, "empty_slots": 20, "extra": {"uid": "190", "area": " \uacbd\ub0a8 \ucc3d\uc6d0\uc2dc \ub9c8\uc0b0\ud68c\uc6d0\uad6c \ub0b4\uc11c\uc74d \ud638\uacc4\ub9ac"}}, {"id": "9d227759122a1ea5899e3772674b2a9f", "name": "\ub86f\ub370\ubc31\ud654\uc810", "latitude": 35.2242499, "longitude": 128.680855, "timestamp": "2025-05-03T03:15:44.757296+00:00Z", "free_bikes": 0, "empty_slots": 20, "extra": {"uid": "50", "area": " \uacbd\ub0a8 \ucc3d\uc6d0\uc2dc \uc131\uc0b0\uad6c \uc0c1\ub0a8\ub3d9 "}}, {"id": "9dc1b87a4e1ac88ea6130132f96ff25d", "name": "\uae30\uc801\uc758 \ub3c4\uc11c\uad00", "latitude": 35.15627990406907, "longitude": 128.7064003944397, "timestamp": "2025-05-03T03:15:44.341875+00:00Z", "free_bikes": 0, "empty_slots": 19, "extra": {"uid": "180", "area": " \uacbd\ub0a8 \ucc3d\uc6d0\uc2dc \uc9c4\ud574\uad6c \uc11d\ub3d9 "}}, {"id": "9f400ff8e449d4b8a2ca6115f49f4036", "name": "\uc591\ub355\ub3d9 \ubd80\uc124 \uc8fc\ucc28\uc7a5", "latitude": 35.2243825, "longitude": 128.5834339, "timestamp": "2025-05-03T03:15:45.919769+00:00Z", "free_bikes": 0, "empty_slots": 0, "extra": {"uid": "433", "area": " \uacbd\ub0a8 \ucc3d\uc6d0\uc2dc \ub9c8\uc0b0\ud68c\uc6d0\uad6c \uc591\ub355\ub3d9 "}}, {"id": "9f4361d437953f34b1521fd381ae561e", "name": "\uc2e0\ucd0c\ub2e8\uc9c0\uc785\uad6c(\ud55c\uad6d\ucca0\uac15\ub9de\uc740\ud3b8)", "latitude": 35.2123193, "longitude": 128.6355703, "timestamp": "2025-05-03T03:15:45.891469+00:00Z", "free_bikes": 0, "empty_slots": 14, "extra": {"uid": "267", "area": " \uacbd\ub0a8 \ucc3d\uc6d0\uc2dc \uc131\uc0b0\uad6c \uc2e0\ucd0c\ub3d9 "}}, {"id": "9fa8defd5df33ddd58b48a0714a9ba04", "name": "\ub9c8\uc0b0\ud569\ud3ec\uad6c\uccad \uc55e", "latitude": 35.19728617291773, "longitude": 128.5672527551651, "timestamp": "2025-05-03T03:15:45.148556+00:00Z", "free_bikes": 0, "empty_slots": 3, "extra": {"uid": "207", "area": " \uacbd\ub0a8 \ucc3d\uc6d0\uc2dc \ub9c8\uc0b0\ud569\ud3ec\uad6c \uc911\uc559\ub3d91\uac00 "}}, {"id": "a0d0c149478d053cfa5d1864d834cb3b", "name": "\ub3d9\ub0a8\uacf5\ub2e8", "latitude": 35.2161123, "longitude": 128.6727745, "timestamp": "2025-05-03T03:15:44.612274+00:00Z", "free_bikes": 0, "empty_slots": 15, "extra": {"uid": "233", "area": " \uacbd\ub0a8 \ucc3d\uc6d0\uc2dc \uc131\uc0b0\uad6c \uc678\ub3d9 "}}, {"id": "a1e4eec7e2804343471626fb0ddf43bf", "name": "\ub9c8\uc0b0\uc774\ube44\uc778\ud6c4\uacfc \uc55e(\uc7a5\uc560\uc778\uc2b9\uac15\uae30\uc606)", "latitude": 35.2382559, "longitude": 128.5822349, "timestamp": "2025-05-03T03:15:45.147891+00:00Z", "free_bikes": 0, "empty_slots": 0, "extra": {"uid": "411", "area": " \uacbd\ub0a8 \ucc3d\uc6d0\uc2dc \ub9c8\uc0b0\ud68c\uc6d0\uad6c \ud569\uc131\ub3d9 "}}, {"id": "a248b7f28c9bb771edffd53dc6e2a2d8", "name": "\ucc3d\uc6d0\uc885\ud569\ud130\ubbf8\ub110 \uac74\ub108\ud3b8 \ubc84\uc2a4\uc815\ub958\uc18c", "latitude": 35.2357004, "longitude": 128.6384044, "timestamp": "2025-05-03T03:15:46.173142+00:00Z", "free_bikes": 0, "empty_slots": 0, "extra": {"uid": "376", "area": " \uacbd\ub0a8 \ucc3d\uc6d0\uc2dc \uc758\ucc3d\uad6c \ud314\uc6a9\ub3d9 "}}, {"id": "a2b25daa0b8dc6899ee79fa7d6112dd1", "name": "\uc6a9\uc9c0\uc544\uc774\ud30c\ud06c \uac74\ub108\ud3b8", "latitude": 35.22969243771292, "longitude": 128.67616921663284, "timestamp": "2025-05-03T03:15:45.957964+00:00Z", "free_bikes": 0, "empty_slots": 15, "extra": {"uid": "130", "area": " \uacbd\ub0a8 \ucc3d\uc6d0\uc2dc \uc131\uc0b0\uad6c \uc911\uc559\ub3d9 "}}, {"id": "a381949a109abe325651df2e092df416", "name": "\uc131\uc8fc\ub3d9 \ub8e8\uc774\uc820\ud558\uc6b0\uc2a4 \uc815\ub958\uc18c", "latitude": 35.19665054070458, "longitude": 128.707355260849, "timestamp": "2025-05-03T03:15:45.779124+00:00Z", "free_bikes": 0, "empty_slots": 17, "extra": {"uid": "167", "area": " \uacbd\ub0a8 \ucc3d\uc6d0\uc2dc \uc131\uc0b0\uad6c \uc0bc\uc815\uc790\ub3d9 "}}, {"id": "a3c37fd68b2fef87c8bfa9852e147c1c", "name": "\uc9c4\ud574 \uc911\uc6d0\uc27c\ud130", "latitude": 35.149836813122, "longitude": 128.66027176380157, "timestamp": "2025-05-03T03:15:46.105244+00:00Z", "free_bikes": 0, "empty_slots": 20, "extra": {"uid": "153", "area": " \uacbd\ub0a8 \ucc3d\uc6d0\uc2dc \uc9c4\ud574\uad6c \ud3c9\uc548\ub3d9 "}}, {"id": "a3e14d01af15850e7063b1cfb3756fc5", "name": "\ubd09\uace1\uc911\uc559\uc5b4\ub9b0\uc774\uacf5\uc6d0", "latitude": 35.24748539721533, "longitude": 128.6655557155609, "timestamp": "2025-05-03T03:15:45.445701+00:00Z", "free_bikes": 0, "empty_slots": 0, "extra": {"uid": "34", "area": " \uacbd\ub0a8 \ucc3d\uc6d0\uc2dc \uc758\ucc3d\uad6c \ubd09\uace1\ub3d9 "}}, {"id": "a40d64c84422fc46bc67779e72bfc719", "name": "\uacbd\ud654\ub3d9 \uc721\uad50 \ubc11", "latitude": 35.15771845510299, "longitude": 128.68147194385529, "timestamp": "2025-05-03T03:15:44.142777+00:00Z", "free_bikes": 0, "empty_slots": 19, "extra": {"uid": "176", "area": " \uacbd\ub0a8 \ucc3d\uc6d0\uc2dc \uc9c4\ud574\uad6c \uacbd\ud654\ub3d9 "}}, {"id": "a5065b939ede7605c538a5b2568b5729", "name": "\ubc18\uc9c0\ubbfc\uc6d0\uc13c\ud130", "latitude": 35.24064864814255, "longitude": 128.66285473108292, "timestamp": "2025-05-03T03:15:45.306335+00:00Z", "free_bikes": 0, "empty_slots": 23, "extra": {"uid": "39", "area": " \uacbd\ub0a8 \ucc3d\uc6d0\uc2dc \uc131\uc0b0\uad6c \ubc18\uc9c0\ub3d9 "}}, {"id": "a50917f6d448d887a8b32554595ce8b6", "name": "\uacbd\ub0a8\ub3c4\uad50\uc721\uccad", "latitude": 35.232904309583645, "longitude": 128.6873996257782, "timestamp": "2025-05-03T03:15:44.117224+00:00Z", "free_bikes": 0, "empty_slots": 20, "extra": {"uid": "132", "area": " \uacbd\ub0a8 \ucc3d\uc6d0\uc2dc \uc131\uc0b0\uad6c \uc6a9\ud638\ub3d9 "}}, {"id": "a55a65833fc08e6b00cf6490455e55fc", "name": "\uc758\ucc3d\uc2a4\ud3ec\uce20\uc13c\ud130", "latitude": 35.25572553138459, "longitude": 128.63320291042328, "timestamp": "2025-05-03T03:15:46.050920+00:00Z", "free_bikes": 0, "empty_slots": 25, "extra": {"uid": "103", "area": " \uacbd\ub0a8 \ucc3d\uc6d0\uc2dc \uc758\ucc3d\uad6c \ub3c4\uacc4\ub3d9 "}},