{"id": "parma", "name": "Mi Muovo in Bici", "location": {"latitude": 44.801485, "longitude": 10.3279036, "city": "Parma", "country": "IT"}, "href": "/v2/networks/parma", "company": ["Comunicare S.r.l."], "system": "Bicincitt\u00e0", "source": "http://www.mimuovoinbici.it/frmLeStazioni.aspx?ID=58", "stations": [{"id": "0829fd1916ad59d63148e2d85e21a626", "name": "41. Carmignani", "latitude": 44.78139588828707, "longitude": 10.31936526193004, "timestamp": "2025-05-03T03:15:50.586509+00:00Z", "free_bikes": 0, "empty_slots": 8, "extra": {"uid": "1798", "number": 41, "status": "offline", "score": 1.0, "reviews": 1}}, {"id": "08f17069bdb11d0a8d61170a0a2793c3", "name": "38. Stazione FF.SS. 2", "latitude": 44.80997760049305, "longitude": 10.327757594137173, "timestamp": "2025-05-03T03:15:50.586477+00:00Z", "free_bikes": 0, "empty_slots": 29, "extra": {"uid": "1795", "number": 38, "status": "offline", "score": 4.3, "reviews": 6}}, {"id": "16516540e3de4d493d5b9e71ba9d40b1", "name": "26. Palasport", "latitude": 44.79497256970454, "longitude": 10.304889647885147, "timestamp": "2025-05-03T03:15:50.586346+00:00Z", "free_bikes": 0, "empty_slots": 10, "extra": {"uid": "1517", "number": 26, "status": "offline", "score": 2.8, "reviews": 2}}, {"id": "1c9c44e7d92fd2abe9d9e2e541502e0b", "name": "24. Campus", "latitude": 44.76646635739822, "longitude": 10.319646294165068, "timestamp": "2025-05-03T03:15:50.586323+00:00Z", "free_bikes": 0, "empty_slots": 9, "extra": {"uid": "1395", "number": 24, "status": "offline", "score": 1.8, "reviews": 5}}, {"id": "1f19c46d59ff20cbb7f3743d49b259a6", "name": "06. Ponte di Mezzo", "latitude": 44.80202845964042, "longitude": 10.324243306948519, "timestamp": "2025-05-03T03:15:50.586122+00:00Z", "free_bikes": 1, "empty_slots": 9, "extra": {"uid": "484", "number": 6, "status": "offline", "score": 2.0, "reviews": 7}}, {"id": "23842ee5e44943df0d0d7d9b10220816", "name": "33. Cavagnari", "latitude": 44.786319841837596, "longitude": 10.297678691887654, "timestamp": "2025-05-03T03:15:50.586421+00:00Z", "free_bikes": 0, "empty_slots": 9, "extra": {"uid": "1551", "number": 33, "status": "offline", "score": 4.1, "reviews": 5}}, {"id": "332ace80b9c4e1de2e083843ff6d75b4", "name": "42. Pastrengo", "latitude": 44.783464264201704, "longitude": 10.328950287294171, "timestamp": "2025-05-03T03:15:50.586519+00:00Z", "free_bikes": 0, "empty_slots": 10, "extra": {"uid": "1799", "number": 42, "status": "offline", "score": 1.0, "reviews": 1}}, {"id": "3809f3834bf24d47327697928ba2c12a", "name": "07. Santa Croce", "latitude": 44.80406447882609, "longitude": 10.314442813396454, "timestamp": "2025-05-03T03:15:50.586133+00:00Z", "free_bikes": 1, "empty_slots": 13, "extra": {"uid": "485", "number": 7, "status": "offline", "score": 2.8, "reviews": 12}}, {"id": "3c48942ba52ee656839ceefd4673f820", "name": "14. Garibaldi", "latitude": 44.80123737983608, "longitude": 10.328924059867859, "timestamp": "2025-05-03T03:15:50.586207+00:00Z", "free_bikes": 0, "empty_slots": 10, "extra": {"uid": "492", "number": 14, "status": "offline", "score": 2.4, "reviews": 8}}, {"id": "3c606bbb4f1d25dfba2a53a8690b43cc", "name": "03. Traversetolo", "latitude": 44.78159516206973, "longitude": 10.344491600990295, "timestamp": "2025-05-03T03:15:50.586090+00:00Z", "free_bikes": 0, "empty_slots": 4, "extra": {"uid": "481", "number": 3, "status": "offline", "score": 3.7, "reviews": 11}}, {"id": "3f621792c858ea7af6d342a28dbbb2e3", "name": "28. Bizzozero", "latitude": 44.78740328811436, "longitude": 10.329432725794959, "timestamp": "2025-05-03T03:15:50.586367+00:00Z", "free_bikes": 0, "empty_slots": 10, "extra": {"uid": "1546", "number": 28, "status": "offline", "score": 1.0, "reviews": 1}}, {"id": "412b8cf5827a59ab8b0a77231508a250", "name": "39. Rustici", "latitude": 44.79171289811527, "longitude": 10.32494187704341, "timestamp": "2025-05-03T03:15:50.586487+00:00Z", "free_bikes": 1, "empty_slots": 9, "extra": {"uid": "1796", "number": 39, "status": "offline", "score": 1.0, "reviews": 1}}, {"id": "5089a2277a37c704b647d02b17ae7488", "name": "08. Bixio", "latitude": 44.79634967606434, "longitude": 10.317876620021252, "timestamp": "2025-05-03T03:15:50.586143+00:00Z", "free_bikes": 0, "empty_slots": 9, "extra": {"uid": "486", "number": 8, "status": "offline", "score": 2.8, "reviews": 17}}, {"id": "56f902385918d31e61df694627c5a18a", "name": "01. Duc", "latitude": 44.807117535291866, "longitude": 10.332933962345123, "timestamp": "2025-05-03T03:15:50.586055+00:00Z", "free_bikes": 1, "empty_slots": 8, "extra": {"uid": "479", "number": 1, "status": "offline", "score": 2.6, "reviews": 67}}, {"id": "5f5ccbc5ea7762302885cccd7187a99a", "name": "17. Rondani", "latitude": 44.79825794247251, "longitude": 10.322102087243366, "timestamp": "2025-05-03T03:15:50.586247+00:00Z", "free_bikes": 3, "empty_slots": 7, "extra": {"uid": "1205", "number": 17, "status": "offline", "score": 2.0, "reviews": 4}}, {"id": "659b99730181a13126b2545c14457621", "name": "40. Langhirano", "latitude": 44.78256949125511, "longitude": 10.324213505846453, "timestamp": "2025-05-03T03:15:50.586499+00:00Z", "free_bikes": 0, "empty_slots": 10, "extra": {"uid": "1797", "number": 40, "status": "offline", "score": 1.0, "reviews": 1}}, {"id": "798b8d7eed8a3e5a9f08d7ca582c7d0b", "name": "46. Lubiana", "latitude": 44.791958649754264, "longitude": 10.352602601051332, "timestamp": "2025-05-03T03:15:50.586560+00:00Z", "free_bikes": 0, "empty_slots": 7, "extra": {"uid": "1858", "number": 46, "status": "offline", "score": 4.4, "reviews": 9}}, {"id": "79e76204d78c8cc38649a5c28da39ea3", "name": "23. Vittoria", "latitude": 44.80057561836474, "longitude": 10.313930499162666, "timestamp": "2025-05-03T03:15:50.586313+00:00Z", "free_bikes": 0, "empty_slots": 8, "extra": {"uid": "1394", "number": 23, "status": "offline", "score": 2.9, "reviews": 3}}, {"id": "7bd4dae1d753a27541d9b186cb180074", "name": "05. Stazione FF.SS.", "latitude": 44.80988763032787, "longitude": 10.327692925930023, "timestamp": "2025-05-03T03:15:50.586112+00:00Z", "free_bikes": 0, "empty_slots": 19, "extra": {"uid": "483", "number": 5, "status": "offline", "score": 4.0, "reviews": 15}}, {"id": "7da3bd643d024f079c53ffcbf7b048bf", "name": "10. Barilla Center", "latitude": 44.79841565101591, "longitude": 10.340687531816116, "timestamp": "2025-05-03T03:15:50.586164+00:00Z", "free_bikes": 0, "empty_slots": 7, "extra": {"uid": "488", "number": 10, "status": "offline", "score": 1.7, "reviews": 6}}, {"id": "7da6fd2c5ac209f80704d4cffcd8376c", "name": "15. Repubblica", "latitude": 44.800086898347026, "longitude": 10.33481553196907, "timestamp": "2025-05-03T03:15:50.586218+00:00Z", "free_bikes": 0, "empty_slots": 7, "extra": {"uid": "493", "number": 15, "status": "offline", "score": 1.7, "reviews": 8}}, {"id": "8919e698d056ae17bca794e2f13b3bde", "name": "27. Ostello Gioventu`", "latitude": 44.82233870132576, "longitude": 10.334896087944003, "timestamp": "2025-05-03T03:15:50.586356+00:00Z", "free_bikes": 0, "empty_slots": 10, "extra": {"uid": "1545", "number": 27, "status": "offline", "score": 3.4, "reviews": 3}}, {"id": "8e9ae78ceb4227e7f975bc1c1e7144be", "name": "18. Crocetta", "latitude": 44.807424535882014, "longitude": 10.297198236896861, "timestamp": "2025-05-03T03:15:50.586259+00:00Z", "free_bikes": 0, "empty_slots": 9, "extra": {"uid": "1206", "number": 18, "status": "offline", "score": 2.4, "reviews": 9}}, {"id": "8f220ff5690c8787fb5567caf0913c30", "name": "30. Auditorium Paganini", "latitude": 44.80317673977864, "longitude": 10.344601967042536, "timestamp": "2025-05-03T03:15:50.586389+00:00Z", "free_bikes": 0, "empty_slots": 10, "extra": {"uid": "1548", "number": 30, "status": "offline", "score": 4.1, "reviews": 5}}, {"id": "a3a3150fceed32a22c1aaea017e92929", "name": "25. Ospedale \u2022 viale Osacca", "latitude": 44.805347141635174, "longitude": 10.309866973558655, "timestamp": "2025-05-03T03:15:50.586335+00:00Z", "free_bikes": 0, "empty_slots": 15, "extra": {"uid": "1516", "number": 25, "status": "offline", "score": 2.5, "reviews": 4}}, {"id": "a78868462f3de37bf541ca189ca175af", "name": "21. Kennedy", "latitude": 44.80472873089977, "longitude": 10.317976961393697, "timestamp": "2025-05-03T03:15:50.586291+00:00Z", "free_bikes": 0, "empty_slots": 9, "extra": {"uid": "1209", "number": 21, "status": "offline", "score": 3.8, "reviews": 5}}, {"id": "aa46c0a692efefd94a12188806bc6911", "name": "02. Ospedale Maggiore", "latitude": 44.80226318269335, "longitude": 10.306275486946106, "timestamp": "2025-05-03T03:15:50.586078+00:00Z", "free_bikes": 0, "empty_slots": 9, "extra": {"uid": "480", "number": 2, "status": "offline", "score": 1.5, "reviews": 11}}, {"id": "b064e1229664f06be19adc779948ae22", "name": "37. Campus Mensa", "latitude": 44.765261157301914, "longitude": 10.306991392826605, "timestamp": "2025-05-03T03:15:50.586466+00:00Z", "free_bikes": 0, "empty_slots": 9, "extra": {"uid": "1698", "number": 37, "status": "offline", "score": 1.0, "reviews": 1}}, {"id": "b5cd35774c61b4d4d0ab616e3de2baa5", "name": "04. Campus Chimica", "latitude": 44.76643302086223, "longitude": 10.314547419548035, "timestamp": "2025-05-03T03:15:50.586101+00:00Z", "free_bikes": 0, "empty_slots": 9, "extra": {"uid": "482", "number": 4, "status": "offline", "score": 3.7, "reviews": 6}}, {"id": "bb1e71627e8466f2bbd0c4c7b143d85a", "name": "44. Vasari", "latitude": 44.81435828748132, "longitude": 10.319906473159792, "timestamp": "2025-05-03T03:15:50.586541+00:00Z", "free_bikes": 1, "empty_slots": 9, "extra": {"uid": "1856", "number": 44, "status": "offline", "score": 1.7, "reviews": 4}}, {"id": "be7a73824da682dfa3111b7ff9c9dd38", "name": "35. Marsala", "latitude": 44.794380252093795, "longitude": 10.321992638066774, "timestamp": "2025-05-03T03:15:50.586444+00:00Z", "free_bikes": 0, "empty_slots": 10, "extra": {"uid": "1696", "number": 35, "status": "offline", "score": 3.5, "reviews": 3}}, {"id": "c20324325c2347f92c660b6e2adcca59", "name": "16. Toschi", "latitude": 44.805984009085144, "longitude": 10.325475922614942, "timestamp": "2025-05-03T03:15:50.586234+00:00Z", "free_bikes": 0, "empty_slots": 10, "extra": {"uid": "1204", "number": 16, "status": "offline", "score": 3.4, "reviews": 7}}, {"id": "c55c2d440d51c505e5a2396baf6e87a2", "name": "31. Lauro Grossi", "latitude": 44.788515129490634, "longitude": 10.321014193778979, "timestamp": "2025-05-03T03:15:50.586400+00:00Z", "free_bikes": 0, "empty_slots": 10, "extra": {"uid": "1549", "number": 31, "status": "offline", "score": 3.0, "reviews": 4}}, {"id": "ca9ab779b60637eab3e662c7b7aa65ca", "name": "09. Farini", "latitude": 44.795387317466826, "longitude": 10.327643521108257, "timestamp": "2025-05-03T03:15:50.586153+00:00Z", "free_bikes": 0, "empty_slots": 6, "extra": {"uid": "487", "number": 9, "status": "offline", "score": 3.3, "reviews": 9}}, {"id": "cb8d5c7a4545fa9b89b8ad66fffd344d", "name": "36. Campus Ingegneria", "latitude": 44.76509738171332, "longitude": 10.310802567910287, "timestamp": "2025-05-03T03:15:50.586455+00:00Z", "free_bikes": 0, "empty_slots": 10, "extra": {"uid": "1697", "number": 36, "status": "offline", "score": 1.0, "reviews": 1}}, {"id": "d0bac37ca4dc3f03b5f376f421e2698c", "name": "43. Del Taglio", "latitude": 44.81881814540119, "longitude": 10.309896469116213, "timestamp": "2025-05-03T03:15:50.586530+00:00Z", "free_bikes": 2, "empty_slots": 6, "extra": {"uid": "1855", "number": 43, "status": "offline", "score": 1.0, "reviews": 1}}, {"id": "d1e0577db2c3066569dc7e3914bf07d6", "name": "19. Boito", "latitude": 44.79980823818546, "longitude": 10.325119255560253, "timestamp": "2025-05-03T03:15:50.586270+00:00Z", "free_bikes": 0, "empty_slots": 10, "extra": {"uid": "1207", "number": 19, "status": "offline", "score": 1.8, "reviews": 4}}, {"id": "d2491770ce2d10e2c416e405b5895258", "name": "13. Borgo XX Marzo", "latitude": 44.80276722630655, "longitude": 10.33050388097763, "timestamp": "2025-05-03T03:15:50.586196+00:00Z", "free_bikes": 0, "empty_slots": 9, "extra": {"uid": "491", "number": 13, "status": "offline", "score": 2.9, "reviews": 2}}, {"id": "d2de7cc798b4805c5f5c3f351cedcccd", "name": "29. Villetta", "latitude": 44.79133530494237, "longitude": 10.314940380460712, "timestamp": "2025-05-03T03:15:50.586378+00:00Z", "free_bikes": 1, "empty_slots": 9, "extra": {"uid": "1547", "number": 29, "status": "offline", "score": 2.9, "reviews": 2}}, {"id": "da7a950666b9535405dd4b3c29e933e4", "name": "45. Passo della Cisa", "latitude": 44.79646465074762, "longitude": 10.354549884796144, "timestamp": "2025-05-03T03:15:50.586551+00:00Z", "free_bikes": 0, "empty_slots": 9, "extra": {"uid": "1857", "number": 45, "status": "offline", "score": 3.6, "reviews": 3}}, {"id": "e0b71df5e612ed33260b8f17410ae9ec", "name": "11. Dus", "latitude": 44.80597482052397, "longitude": 10.33607937843476, "timestamp": "2025-05-03T03:15:50.586175+00:00Z", "free_bikes": 0, "empty_slots": 12, "extra": {"uid": "489", "number": 11, "status": "offline", "score": 3.2, "reviews": 5}}, {"id": "e3b886b3bed7c299fec364bb28ed4799", "name": "32. Stadio", "latitude": 44.796161335820514, "longitude": 10.336588422723366, "timestamp": "2025-05-03T03:15:50.586410+00:00Z", "free_bikes": 1, "empty_slots": 9, "extra": {"uid": "1550", "number": 32, "status": "offline", "score": 3.0, "reviews": 2}}, {"id": "ec4519f54f697c72751fb0f747c72576", "name": "34. Ospedale \u2022 via Volturno", "latitude": 44.7978691786981, "longitude": 10.308025262602316, "timestamp": "2025-05-03T03:15:50.586433+00:00Z", "free_bikes": 3, "empty_slots": 7, "extra": {"uid": "1695", "number": 34, "status": "offline", "score": 1.0, "reviews": 1}}, {"id": "ee30ff06aef789a1f8676f1cc6fa32f4", "name": "22. Cittadella", "latitude": 44.79395874575078, "longitude": 10.330952507427128, "timestamp": "2025-05-03T03:15:50.586302+00:00Z", "free_bikes": 0, "empty_slots": 10, "extra": {"uid": "1393", "number": 22, "status": "offline", "score": 1.9, "reviews": 4}}, {"id": "f650b12733614a643a9e0515028c2f4c", "name": "12. Barezzi", "latitude": 44.802875991282086, "longitude": 10.32688558101654, "timestamp": "2025-05-03T03:15:50.586186+00:00Z", "free_bikes": 0, "empty_slots": 10, "extra": {"uid": "490", "number": 12, "status": "offline", "score": 3.0, "reviews": 2}}, {"id": "f8f2a4f9a8945ffb2242bc4de6aa97b4", "name": "20. Efsa", "latitude": 44.80942430247727, "longitude": 10.321884651546839, "timestamp": "2025-05-03T03:15:50.586280+00:00Z", "free_bikes": 0, "empty_slots": 9, "extra": {"uid": "1208", "number": 20, "status": "offline", "score": 3.3, "reviews": 8}}]}