{"id": "pavia-in-bici", "name": "Pavia in bici", "location": {"latitude": 45.1847248, "longitude": 9.1582069, "city": "Pavia", "country": "IT"}, "href": "/v2/networks/pavia-in-bici", "company": ["Comunicare S.r.l."], "system": "Bicincitt\u00e0", "source": "https://www.bicincitta.com/frmLeStazioni.aspx?ID=45", "stations": [{"id": "0bf221f08ea65feebeff6fe78f3dd8b3", "name": "Da Vinci", "latitude": 45.186610940276886, "longitude": 9.157326415344187, "timestamp": "2025-05-03T03:15:50.565387+00:00Z", "free_bikes": 5, "empty_slots": 3, "extra": {"uid": "1376", "number": 4, "status": "offline", "score": 1.0, "reviews": 1}}, {"id": "1125772c4fb4365cca981f631d5301b2", "name": "Indipendenza", "latitude": 45.195016553904004, "longitude": 9.153667712164292, "timestamp": "2025-05-03T03:15:50.565407+00:00Z", "free_bikes": 5, "empty_slots": 3, "extra": {"uid": "1378", "number": 6, "status": "offline", "score": 1.0, "reviews": 1}}, {"id": "550c574d4b9152db11674defd7af7499", "name": "Vittoria", "latitude": 45.18491812489748, "longitude": 9.154333677246086, "timestamp": "2025-05-03T03:15:50.565376+00:00Z", "free_bikes": 5, "empty_slots": 3, "extra": {"uid": "423", "number": 3, "status": "offline", "score": 2.0, "reviews": 4}}, {"id": "5a604def45ff1330d66933f2a72a433c", "name": "Policlinico", "latitude": 45.19568514622511, "longitude": 9.148757021812344, "timestamp": "2025-05-03T03:15:50.565364+00:00Z", "free_bikes": 5, "empty_slots": 3, "extra": {"uid": "422", "number": 2, "status": "offline", "score": 1.5, "reviews": 4}}, {"id": "8d4175a615fb02bb380b7aeded1c7499", "name": "Ghinaglia", "latitude": 45.17976917557315, "longitude": 9.151923100524868, "timestamp": "2025-05-03T03:15:50.565397+00:00Z", "free_bikes": 5, "empty_slots": 3, "extra": {"uid": "1377", "number": 5, "status": "offline", "score": 1.0, "reviews": 1}}, {"id": "dd96355307ac9e01ec601af6bd5006ba", "name": "Universita`", "latitude": 45.201826605233656, "longitude": 9.139541132540899, "timestamp": "2025-05-03T03:15:50.565418+00:00Z", "free_bikes": 5, "empty_slots": 3, "extra": {"uid": "1379", "number": 7, "status": "offline", "score": 1.0, "reviews": 1}}, {"id": "f4150fde16ecb7c7cf77ddb0f79115d1", "name": "Stazione FF.SS.", "latitude": 45.18861235739361, "longitude": 9.145165851520574, "timestamp": "2025-05-03T03:15:50.565336+00:00Z", "free_bikes": 5, "empty_slots": 3, "extra": {"uid": "421", "number": 1, "status": "offline", "score": 2.1, "reviews": 23}}]}