{"id": "pinerolo", "name": "Pinerolo", "location": {"latitude": 44.8850256, "longitude": 7.3499953, "city": "Pinerolo", "country": "IT"}, "href": "/v2/networks/pinerolo", "company": ["Comunicare S.r.l."], "system": "Bicincitt\u00e0", "source": "https://www.bicincitta.com/frmLeStazioni.aspx?ID=71", "stations": [{"id": "1fc6ce71512428b049f4b6e561b83572", "name": "Abbadia", "latitude": 44.88494486771653, "longitude": 7.305135726928711, "timestamp": "2025-05-03T03:15:50.574911+00:00Z", "free_bikes": 5, "empty_slots": 3, "extra": {"uid": "562", "number": 8, "status": "offline", "score": 0.5, "reviews": 2}}, {"id": "6e96c2c62aa812d5804113ebca208e8b", "name": "Stazione Olimpica", "latitude": 44.89148191669116, "longitude": 7.347707748413086, "timestamp": "2025-05-03T03:15:50.574875+00:00Z", "free_bikes": 5, "empty_slots": 3, "extra": {"uid": "559", "number": 5, "status": "offline", "score": 0.3, "reviews": 3}}, {"id": "97d9feb2f978d0fd5f0fb17bf659bfb1", "name": "Municipio", "latitude": 44.88707329080843, "longitude": 7.332472801208496, "timestamp": "2025-05-03T03:15:50.574823+00:00Z", "free_bikes": 5, "empty_slots": 3, "extra": {"uid": "556", "number": 2, "status": "offline", "score": 0.5, "reviews": 2}}, {"id": "a633a77aeec55d9097c89b870a28c9f3", "name": "Stazione di test - non operativa", "latitude": 44.8847027, "longitude": 7.3308568, "timestamp": "2025-05-03T03:15:50.574922+00:00Z", "free_bikes": 5, "empty_slots": 3, "extra": {"uid": "1163", "number": 999, "status": "offline", "score": 1.0, "reviews": 1}}, {"id": "a6774e600fa6b1c7e964300d557d4c07", "name": "Cavour", "latitude": 44.885248932979806, "longitude": 7.331528663635254, "timestamp": "2025-05-03T03:15:50.574837+00:00Z", "free_bikes": 5, "empty_slots": 3, "extra": {"uid": "557", "number": 3, "status": "offline", "score": 0.7, "reviews": 2}}, {"id": "a8d5c10013ed503ae5b02b599932e5ec", "name": "Tabona", "latitude": 44.878498305929305, "longitude": 7.327022552490234, "timestamp": "2025-05-03T03:15:50.574901+00:00Z", "free_bikes": 5, "empty_slots": 3, "extra": {"uid": "561", "number": 7, "status": "offline", "score": 0.8, "reviews": 9}}, {"id": "cc491858aa5ad7533638f767ff9a81dd", "name": "Ospedale", "latitude": 44.8830292196003, "longitude": 7.320284843444824, "timestamp": "2025-05-03T03:15:50.574852+00:00Z", "free_bikes": 5, "empty_slots": 3, "extra": {"uid": "558", "number": 4, "status": "offline", "score": 0.5, "reviews": 2}}, {"id": "f693253ccdde9ce1ac79857f015a0ee4", "name": "Avis", "latitude": 44.89485656746446, "longitude": 7.342815399169922, "timestamp": "2025-05-03T03:15:50.574889+00:00Z", "free_bikes": 5, "empty_slots": 3, "extra": {"uid": "560", "number": 6, "status": "offline", "score": 0.5, "reviews": 2}}, {"id": "fe3e512892ff0c210d418cd9c72f4769", "name": "Stazione FF.SS.", "latitude": 44.887894232954764, "longitude": 7.337150573730469, "timestamp": "2025-05-03T03:15:50.574802+00:00Z", "free_bikes": 5, "empty_slots": 3, "extra": {"uid": "555", "number": 1, "status": "offline", "score": 0.6, "reviews": 4}}]}