{"id": "publibike-lausanne-morges", "name": "PubliBike Lausanne-Morges", "location": {"latitude": 46.516649, "longitude": 6.62948, "city": "Lausanne", "country": "CH"}, "href": "/v2/networks/publibike-lausanne-morges", "company": ["PubliBike AG"], "system": "PubliBike", "source": "https://api.publibike.ch/v1/static/api.html", "stations": [{"id": "0716b2a9387ae7b419e71289c285265a", "name": "Gare de Renens", "latitude": 46.5367962297447, "longitude": 6.57834071739537, "timestamp": "2025-05-03T03:15:34.431071+00:00Z", "free_bikes": 0, "empty_slots": 22, "extra": {"uid": 18, "address": "Place de la gare", "zip": "1020", "city": "Renens", "slots": 22, "ebikes": 0}}, {"id": "0962f61a41fb6416e9a62e08ede3751c", "name": "Paudex", "latitude": 46.5058, "longitude": 6.6711, "timestamp": "2025-05-03T03:15:34.431083+00:00Z", "free_bikes": 1, "empty_slots": 12, "extra": {"uid": 29, "address": "Route du Lac", "zip": "1094", "city": "Paudex", "slots": 13, "ebikes": 0}}, {"id": "0c5feec99dacf968c723adff8732720e", "name": "Gare de Pully sud", "latitude": 46.51061054877812, "longitude": 6.659367730704223, "timestamp": "2025-05-03T03:15:34.431160+00:00Z", "free_bikes": 0, "empty_slots": 80, "extra": {"uid": 853, "address": "Place de la Gare 1", "zip": "1009", "city": "Pully", "slots": 80, "ebikes": 0}}, {"id": "1023e2e8ac7ac839533ca7dcc7ddc987", "name": "Caf\u00e9 de Chavannes", "latitude": 46.5275155987152, "longitude": 6.5727380643235245, "timestamp": "2025-05-03T03:15:34.430751+00:00Z", "free_bikes": 0, "empty_slots": 13, "extra": {"uid": 786, "address": "Route de la Maladi\u00e8re 40", "zip": "1022", "city": "Chavannes-pr\u00e8s-Renens", "slots": 13, "ebikes": 0}}, {"id": "110af6180ac6d12ed70a28d0e243df2e", "name": "EHL Hospitality Business School - North Entrance", "latitude": 46.561365, "longitude": 6.682146, "timestamp": "2025-05-03T03:15:34.430993+00:00Z", "free_bikes": 0, "empty_slots": 19, "extra": {"uid": 910, "address": "Route de Cojonnex 18", "zip": "1000", "city": "Lausanne", "slots": 19, "ebikes": 0}}, {"id": "16771a0d6a71d57dd688982ff08a8420", "name": "CHUV Cery", "latitude": 46.547024950077954, "longitude": 6.607627798721679, "timestamp": "2025-05-03T03:15:34.431068+00:00Z", "free_bikes": 0, "empty_slots": 19, "extra": {"uid": 808, "address": "Route de Cery 60", "zip": "1008", "city": "Prilly", "slots": 19, "ebikes": 0}}, {"id": "1761937f2742b3b10e4d678b7b37d16b", "name": "Piscine de Fleur-de-Lys", "latitude": 46.54405624882997, "longitude": 6.6034499977507615, "timestamp": "2025-05-03T03:15:34.430798+00:00Z", "free_bikes": 0, "empty_slots": 80, "extra": {"uid": 859, "address": "Sentier de la Fleur-de-Lys 2", "zip": "1008", "city": "Prilly", "slots": 80, "ebikes": 0}}, {"id": "1df1613ac6f9f8a71dfec4ca935ccd0e", "name": "Cr\u00e9sentine", "latitude": 46.55951, "longitude": 6.573065, "timestamp": "2025-05-03T03:15:34.431108+00:00Z", "free_bikes": 0, "empty_slots": 16, "extra": {"uid": 905, "address": "Chemin de la Pierre 2", "zip": "1023", "city": "Crissier", "slots": 16, "ebikes": 0}}, {"id": "21cb269aca5a4cadbcf5ea18fa3ce0ea", "name": "Avenue de la Gare, TX Group SA", "latitude": 46.517009, "longitude": 6.635237, "timestamp": "2025-05-03T03:15:34.430810+00:00Z", "free_bikes": 0, "empty_slots": 18, "extra": {"uid": 488, "address": "Avenue de la Gare 12A", "zip": "1003", "city": "Lausanne", "slots": 18, "ebikes": 0}}, {"id": "240d6aee4eb3364e8026818a1ec3014c", "name": "Mouline", "latitude": 46.526079, "longitude": 6.579268, "timestamp": "2025-05-03T03:15:34.431118+00:00Z", "free_bikes": 1, "empty_slots": 21, "extra": {"uid": 10, "address": "Rue de la Mouline", "zip": "1022", "city": "Chavannes-pr\u00e8s-Renens", "slots": 22, "ebikes": 0}}, {"id": "28ddf85f9748b2b6453587ba60e1cbef", "name": "Lausanne Gare CFF Sud", "latitude": 46.515862, "longitude": 6.630461, "timestamp": "2025-05-03T03:15:34.430734+00:00Z", "free_bikes": 0, "empty_slots": 29, "extra": {"uid": 28, "address": "Passage des Saugettes 7", "zip": "1003", "city": "Lausanne", "slots": 29, "ebikes": 0}}, {"id": "2abca8d6f411ca991973806f6be339ee", "name": "Baumettes", "latitude": 46.544314905605354, "longitude": 6.586897691005923, "timestamp": "2025-05-03T03:15:34.430776+00:00Z", "free_bikes": 0, "empty_slots": 14, "extra": {"uid": 806, "address": "Av. des Baumettes 9", "zip": "1020", "city": "Renens", "slots": 14, "ebikes": 0}}, {"id": "2f8ec7e40720d7b3640847529392a4a0", "name": "Si\u00e8ge du CIO", "latitude": 46.517338, "longitude": 6.59775, "timestamp": "2025-05-03T03:15:34.431095+00:00Z", "free_bikes": 0, "empty_slots": 22, "extra": {"uid": 543, "address": "Chemin du Camping 3", "zip": "1007", "city": "Lausanne", "slots": 22, "ebikes": 0}}, {"id": "33a72bbfd9ecd19207ed6da4e395cde2", "name": "Beausobre", "latitude": 46.51569970026471, "longitude": 6.499234489270572, "timestamp": "2025-05-03T03:15:34.431152+00:00Z", "free_bikes": 1, "empty_slots": 26, "extra": {"uid": 849, "address": "Avenue de Vertou 2", "zip": "1110", "city": "Morges", "slots": 27, "ebikes": 1}}, {"id": "343baa4dbc108d5f9e12c8f502dc6a45", "name": "Station temporairement ferm\u00e9e", "latitude": 46.526347, "longitude": 6.603215, "timestamp": "2025-05-03T03:15:34.430772+00:00Z", "free_bikes": 0, "empty_slots": 22, "extra": {"uid": 38, "address": "Avenue du Chablais", "zip": "1008", "city": "Prilly", "slots": 22, "ebikes": 0}}, {"id": "40ece306abe53dad58013bce91d47276", "name": "Croisettes-Biop\u00f4le", "latitude": 46.543261033642686, "longitude": 6.661545646440144, "timestamp": "2025-05-03T03:15:34.431055+00:00Z", "free_bikes": 0, "empty_slots": 22, "extra": {"uid": 757, "address": "Route de la Corniche 2", "zip": "1066", "city": "Epalinges", "slots": 22, "ebikes": 0}}, {"id": "415eef1782a67e2ee58ccdc926e524d4", "name": "Ours", "latitude": 46.52112812235608, "longitude": 6.64036369203716, "timestamp": "2025-05-03T03:15:34.430820+00:00Z", "free_bikes": 0, "empty_slots": 19, "extra": {"uid": 790, "address": "Passage Perdonnet 1", "zip": "1005", "city": "Lausanne", "slots": 19, "ebikes": 0}}, {"id": "4a05f2065939dffdc88bac5e7e55e6ce", "name": "Vallaire", "latitude": 46.51649685275541, "longitude": 6.550408183414197, "timestamp": "2025-05-03T03:15:34.431125+00:00Z", "free_bikes": 0, "empty_slots": 14, "extra": {"uid": 763, "address": "Champs-Courbes", "zip": "1024", "city": "Ecublens", "slots": 14, "ebikes": 0}}, {"id": "509f543d165df142c4f852489bffdc78", "name": "Lausanne Gare CFF Nord", "latitude": 46.51729603169255, "longitude": 6.630497103216617, "timestamp": "2025-05-03T03:15:34.431048+00:00Z", "free_bikes": 0, "empty_slots": 26, "extra": {"uid": 25, "address": "Avenue de la Gare", "zip": "1003", "city": "Lausanne", "slots": 26, "ebikes": 0}}, {"id": "529ed58bb97656b997bbc51c251ed1c8", "name": "Cerisaie", "latitude": 46.52864, "longitude": 6.566695, "timestamp": "2025-05-03T03:15:34.431030+00:00Z", "free_bikes": 1, "empty_slots": 12, "extra": {"uid": 544, "address": "Avenue du Tir F\u00e9d\u00e9ral 88", "zip": "1024", "city": "Ecublens", "slots": 13, "ebikes": 1}}, {"id": "594b07584812735a495f4c8a3f457bb0", "name": "Sablon", "latitude": 46.510581, "longitude": 6.496026, "timestamp": "2025-05-03T03:15:34.431038+00:00Z", "free_bikes": 0, "empty_slots": 16, "extra": {"uid": 32, "address": "Rue Centrale", "zip": "1110", "city": "Morges", "slots": 16, "ebikes": 0}}, {"id": "5bc58250b43b7414e3bf041459af5092", "name": "SEVELIN.CH", "latitude": 46.52285180329474, "longitude": 6.616691677562492, "timestamp": "2025-05-03T03:15:34.430747+00:00Z", "free_bikes": 1, "empty_slots": 20, "extra": {"uid": 788, "address": "Avenue de S\u00e9velin", "zip": "1004", "city": "Lausanne", "slots": 21, "ebikes": 0}}, {"id": "5fa06d4d5f5ce3d48b869da9ac19d6f0", "name": "FERMETURE POUR FESTIVAL UNILIVE - Dorigny", "latitude": 46.522591, "longitude": 6.584961, "timestamp": "2025-05-03T03:15:34.430754+00:00Z", "free_bikes": 0, "empty_slots": 22, "extra": {"uid": 7, "address": "UNIL Dorigny B\u00e2timent Extranef", "zip": "1015", "city": "Ecublens", "slots": 22, "ebikes": 0}}, {"id": "6f311a4c41af355ef3d99a5e79b504bc", "name": "Mongevon", "latitude": 46.54873, "longitude": 6.57476, "timestamp": "2025-05-03T03:15:34.431077+00:00Z", "free_bikes": 0, "empty_slots": 22, "extra": {"uid": 335, "address": "Chemin de Mongevon 4", "zip": "1023", "city": "Crissier", "slots": 22, "ebikes": 0}}, {"id": "71aa536c9e73565f6cbac06ac539b80d", "name": "Place du March\u00e9", "latitude": 46.538908, "longitude": 6.581072, "timestamp": "2025-05-03T03:15:34.430999+00:00Z", "free_bikes": 0, "empty_slots": 22, "extra": {"uid": 37, "address": "Av. du Quatorze-Avril 12", "zip": "1020", "city": "Renens", "slots": 22, "ebikes": 0}}, {"id": "71c20d3be065ab12dcf5ab97a2a2947f", "name": "FERMETURE POUR BALELEC - Quartier Nord", "latitude": 46.5224054, "longitude": 6.5655126, "timestamp": "2025-05-03T03:15:34.431099+00:00Z", "free_bikes": 0, "empty_slots": 32, "extra": {"uid": 14, "address": "Campus", "zip": "1000", "city": "Ecublens", "slots": 32, "ebikes": 0}}, {"id": "727cbcb00607392add0546fe69217bb2", "name": "Vaudoise Assurances", "latitude": 46.514554, "longitude": 6.619263, "timestamp": "2025-05-03T03:15:34.431116+00:00Z", "free_bikes": 0, "empty_slots": 21, "extra": {"uid": 581, "address": "Avenue de Cour 43", "zip": "1007", "city": "Lausanne", "slots": 21, "ebikes": 0}}, {"id": "7afceb8cbd3e9d18e915d45a28828d22", "name": "Denens village", "latitude": 46.5183879308213, "longitude": 6.4569022616279925, "timestamp": "2025-05-03T03:15:34.430788+00:00Z", "free_bikes": 0, "empty_slots": 16, "extra": {"uid": 852, "address": "Rue de la Cit\u00e9 2", "zip": "1135", "city": "Denens", "slots": 16, "ebikes": 0}}, {"id": "7eeeff1bace0957fa8fc64cd4e4fe436", "name": "Chocolaterie", "latitude": 46.53439438272029, "longitude": 6.5780125706014605, "timestamp": "2025-05-03T03:15:34.431044+00:00Z", "free_bikes": 1, "empty_slots": 12, "extra": {"uid": 787, "address": "Avenue de la gare 22", "zip": "1022", "city": "Chavanne-pr\u00e8s-Renens", "slots": 13, "ebikes": 0}}, {"id": "7ff03fcf5ae1fac8ee832ad582ac21df", "name": "FERMETURE POUR BALELEC - Place Alan Turing", "latitude": 46.518951, "longitude": 6.562162, "timestamp": "2025-05-03T03:15:34.430827+00:00Z", "free_bikes": 0, "empty_slots": 32, "extra": {"uid": 8, "address": "Chemin Alan Turing", "zip": "1015", "city": "Ecublens", "slots": 32, "ebikes": 0}}, {"id": "82b4f441b7dbf3632d62b1308b5115bd", "name": "Place Centrale", "latitude": 46.549139, "longitude": 6.579048, "timestamp": "2025-05-03T03:15:34.431079+00:00Z", "free_bikes": 1, "empty_slots": 15, "extra": {"uid": 906, "address": "Rue des Alpes 6", "zip": "1023", "city": "Crissier", "slots": 16, "ebikes": 1}}, {"id": "84a32d382fc93deaa279d37ff2719508", "name": "Station temporairement ferm\u00e9e", "latitude": 46.512991, "longitude": 6.614122, "timestamp": "2025-05-03T03:15:34.430816+00:00Z", "free_bikes": 0, "empty_slots": 16, "extra": {"uid": 33, "address": "Avenue de Rhodanie 40", "zip": "1007", "city": "Lausanne", "slots": 16, "ebikes": 0}}, {"id": "84c950452a67fd3da2bb8a3aa8966df3", "name": "Croset", "latitude": 46.532879, "longitude": 6.566487, "timestamp": "2025-05-03T03:15:34.431144+00:00Z", "free_bikes": 0, "empty_slots": 13, "extra": {"uid": 34, "address": "Route du Bois 29a", "zip": "1024", "city": "Ecublens", "slots": 13, "ebikes": 0}}, {"id": "851516b2d7f80665c7fba982bbc7ea27", "name": "Epalinges, Croix-Blanche", "latitude": 46.547872289288286, "longitude": 6.671632436126663, "timestamp": "2025-05-03T03:15:34.431017+00:00Z", "free_bikes": 0, "empty_slots": 26, "extra": {"uid": 758, "address": "Rte de la Croix-Blanche 25", "zip": "1066", "city": "Epalinges", "slots": 26, "ebikes": 0}}, {"id": "86372b94dd04acb66a6df09cd4ed46aa", "name": "Unil Centre", "latitude": 46.521668, "longitude": 6.581345, "timestamp": "2025-05-03T03:15:34.431122+00:00Z", "free_bikes": 0, "empty_slots": 24, "extra": {"uid": 26, "address": "Unicentre", "zip": "1015", "city": "Ecublens", "slots": 24, "ebikes": 0}}, {"id": "865064dfeca2d64d4780a265c1db0c77", "name": "FERMETURE POUR BALELEC - Forel", "latitude": 46.520202, "longitude": 6.571784, "timestamp": "2025-05-03T03:15:34.430832+00:00Z", "free_bikes": 0, "empty_slots": 24, "extra": {"uid": 334, "address": "Avenue Forel", "zip": "1015", "city": "Ecublens", "slots": 24, "ebikes": 0}}, {"id": "89d1c7b0b4c62fb9d5fb90ef1974af4d", "name": "Temple", "latitude": 46.510562, "longitude": 6.499863, "timestamp": "2025-05-03T03:15:34.431104+00:00Z", "free_bikes": 0, "empty_slots": 10, "extra": {"uid": 35, "address": "Grand-Rue", "zip": "1110", "city": "Morges", "slots": 10, "ebikes": 0}}, {"id": "8b8f60e0cc2f9f1bcd3fe0c5f10b42f5", "name": "Pr\u00e9verenges", "latitude": 46.5175143, "longitude": 6.5261484, "timestamp": "2025-05-03T03:15:34.431023+00:00Z", "free_bikes": 1, "empty_slots": 10, "extra": {"uid": 23, "address": "Route de Gen\u00e8ve", "zip": "1028", "city": "Pr\u00e9verenges", "slots": 11, "ebikes": 0}}, {"id": "8c50d26dc3cf2af0ef8a395efbc52ad6", "name": "Sicpa", "latitude": 46.530875, "longitude": 6.601074, "timestamp": "2025-05-03T03:15:34.430743+00:00Z", "free_bikes": 0, "empty_slots": 16, "extra": {"uid": 700, "address": "Route des Flumeaux 40", "zip": "1008", "city": "Prilly", "slots": 16, "ebikes": 0}}, {"id": "8cbc8404fba1c9aa5e4618519c7bf9a5", "name": "Starling Esplanade", "latitude": 46.51673942261787, "longitude": 6.566454652605652, "timestamp": "2025-05-03T03:15:34.430759+00:00Z", "free_bikes": 1, "empty_slots": 7, "extra": {"uid": 817, "address": "Route Cantonal 31", "zip": "1025", "city": "Saint-Sulpice", "slots": 8, "ebikes": 1}}, {"id": "8d6aa173d9323a6f8b57cbcab40e1665", "name": "Casino", "latitude": 46.508486, "longitude": 6.499667, "timestamp": "2025-05-03T03:15:34.431064+00:00Z", "free_bikes": 1, "empty_slots": 10, "extra": {"uid": 22, "address": "Place du Casino", "zip": "1110", "city": "Morges", "slots": 11, "ebikes": 0}}, {"id": "90241468543a55d9958e4135192a8246", "name": "Chailly", "latitude": 46.52689212107495, "longitude": 6.651725094510788, "timestamp": "2025-05-03T03:15:34.431033+00:00Z", "free_bikes": 1, "empty_slots": 17, "extra": {"uid": 791, "address": "Av. de Chailly 1", "zip": "1012", "city": "Lausanne", "slots": 18, "ebikes": 1}}, {"id": "9ccc296a9fe7aa962c4e3b81e56b1422", "name": "Medtronic", "latitude": 46.50225151684113, "longitude": 6.48110823288, "timestamp": "2025-05-03T03:15:34.431086+00:00Z", "free_bikes": 1, "empty_slots": 23, "extra": {"uid": 27, "address": "Route du Molliau 31", "zip": "1131", "city": "Tolochenaz", "slots": 24, "ebikes": 0}}, {"id": "9e0ce6292bb0dcd92347dd2d5811333e", "name": "Dufour", "latitude": 46.50737, "longitude": 6.495352, "timestamp": "2025-05-03T03:15:34.431051+00:00Z", "free_bikes": 0, "empty_slots": 11, "extra": {"uid": 31, "address": "Place Dufour", "zip": "1110", "city": "Morges", "slots": 11, "ebikes": 0}}, {"id": "9e456c79bf8ed785a0560dfba41b6c88", "name": "Moulin", "latitude": 46.511048, "longitude": 6.492569, "timestamp": "2025-05-03T03:15:34.430804+00:00Z", "free_bikes": 0, "empty_slots": 26, "extra": {"uid": 30, "address": "Gare de Morges", "zip": "1110", "city": "Morges", "slots": 26, "ebikes": 0}}, {"id": "9ef55cbe49b316aeb514093a59f30983", "name": "C\u00e8dres", "latitude": 46.530961547725724, "longitude": 6.570954143053104, "timestamp": "2025-05-03T03:15:34.430764+00:00Z", "free_bikes": 0, "empty_slots": 13, "extra": {"uid": 809, "address": "All\u00e9e des C\u00e8dres", "zip": "1022", "city": "Chavannes-pr\u00e8s-Renens", "slots": 13, "ebikes": 0}}, {"id": "9f6848d2f3e47bea7ce90b3b55e708ef", "name": "FERMETURE POUR BALELEC - Piccard", "latitude": 46.520723, "longitude": 6.568276, "timestamp": "2025-05-03T03:15:34.430729+00:00Z", "free_bikes": 0, "empty_slots": 24, "extra": {"uid": 12, "address": "Avenue Piccard", "zip": "1015", "city": "Ecublens", "slots": 24, "ebikes": 0}}, {"id": "a370cd727ffc1f017e299fa98eaaa715", "name": "Station temporairement ferm\u00e9e", "latitude": 46.524105, "longitude": 6.632782, "timestamp": "2025-05-03T03:15:34.430996+00:00Z", "free_bikes": 0, "empty_slots": 24, "extra": {"uid": 487, "address": "Place de la Riponne 7", "zip": "1005", "city": "Lausanne", "slots": 24, "ebikes": 0}}, {"id": "abeecd7d8b763c74961011b0f029df2a", "name": "FERMETURE POUR BALELEC - EPFL Innovation Park", "latitude": 46.517153, "longitude": 6.561272, "timestamp": "2025-05-03T03:15:34.431163+00:00Z", "free_bikes": 0, "empty_slots": 26, "extra": {"uid": 13, "address": "B\u00e2timent G", "zip": "1015", "city": "Ecublens", "slots": 26, "ebikes": 0}}, {"id": "ad73f29ce9101d092daaa6d6cc7e8126", "name": "Centre Sportif UNIL EPFL", "latitude": 46.519805, "longitude": 6.579676, "timestamp": "2025-05-03T03:15:34.431007+00:00Z", "free_bikes": 0, "empty_slots": 32, "extra": {"uid": 9, "address": "Route Cantonale", "zip": "1015", "city": "Ecublens", "slots": 32, "ebikes": 0}}, {"id": "b12adcf0838472d0ae680bd0e0353a8f", "name": "Br\u00fbl\u00e9e", "latitude": 46.52785589336738, "longitude": 6.560535663689192, "timestamp": "2025-05-03T03:15:34.431011+00:00Z", "free_bikes": 0, "empty_slots": 32, "extra": {"uid": 855, "address": "Rte de la Br\u00fbl\u00e9e, 1024 Ecublens", "zip": "1024", "city": "Ecublens", "slots": 32, "ebikes": 0}}, {"id": "b56351ae9ec3b4aad67f3bda5c46040c", "name": "Ouchy", "latitude": 46.506896, "longitude": 6.626253, "timestamp": "2025-05-03T03:15:34.431148+00:00Z", "free_bikes": 1, "empty_slots": 18, "extra": {"uid": 20, "address": "Place de la Navigation", "zip": "1006", "city": "Lausanne", "slots": 19, "ebikes": 1}}, {"id": "bdc035f65c0b9b2517e258799674ea3f", "name": "Sorge", "latitude": 46.521043, "longitude": 6.573253, "timestamp": "2025-05-03T03:15:34.431111+00:00Z", "free_bikes": 0, "empty_slots": 22, "extra": {"uid": 21, "address": "UNIL Sorge", "zip": "1015", "city": "Ecublens", "slots": 22, "ebikes": 0}}, {"id": "c330b2638f2e53a5090d4296ca5e507a", "name": "Saint-Sulpice-centre", "latitude": 46.510153, "longitude": 6.558052, "timestamp": "2025-05-03T03:15:34.431129+00:00Z", "free_bikes": 1, "empty_slots": 17, "extra": {"uid": 836, "address": "Chemin du Cr\u00eat", "zip": "1025", "city": "Saint-Sulpice", "slots": 18, "ebikes": 1}}, {"id": "c5e3d35c095e03ccd7b08e15b0c6b58f", "name": "Eglantine", "latitude": 46.51196729119777, "longitude": 6.4849846482546685, "timestamp": "2025-05-03T03:15:34.431090+00:00Z", "free_bikes": 0, "empty_slots": 16, "extra": {"uid": 803, "address": "Promenade de l'Eglantine 1", "zip": "1110", "city": "Morges", "slots": 16, "ebikes": 0}}, {"id": "c8508d1219bdfb34370f786e13af0b87", "name": "FERMETURE POUR BALELEC - Colladon", "latitude": 46.518108, "longitude": 6.564945, "timestamp": "2025-05-03T03:15:34.431137+00:00Z", "free_bikes": 0, "empty_slots": 24, "extra": {"uid": 6, "address": "Route J-D. Colladon", "zip": "1015", "city": "Ecublens", "slots": 24, "ebikes": 0}}, {"id": "cbca9cfe967c87fbfbe3d940b8380eaa", "name": "Prilly-Centre", "latitude": 46.534129, "longitude": 6.606292, "timestamp": "2025-05-03T03:15:34.431014+00:00Z", "free_bikes": 0, "empty_slots": 13, "extra": {"uid": 490, "address": "Route de Cossonay 28", "zip": "1008", "city": "Prilly", "slots": 13, "ebikes": 0}}, {"id": "cd166dad12c466cc2ca312cb41e65739", "name": "Arbora", "latitude": 46.545388, "longitude": 6.588019, "timestamp": "2025-05-03T03:15:34.431058+00:00Z", "free_bikes": 0, "empty_slots": 8, "extra": {"uid": 900, "address": "En baumettaz 5", "zip": "1023", "city": "Renens", "slots": 8, "ebikes": 0}}, {"id": "d0ab2efe2af98db31896a8cf44ae1843", "name": "FERMETURE POUR BALELEC - Rivier", "latitude": 46.521978, "longitude": 6.564896, "timestamp": "2025-05-03T03:15:34.431156+00:00Z", "free_bikes": 0, "empty_slots": 32, "extra": {"uid": 11, "address": "Route de la Sorge", "zip": "1015", "city": "Ecublens", "slots": 32, "ebikes": 0}}, {"id": "d13d40d257ddd0a9effbe0de7e95d3b3", "name": "Casard - Plan-Soleil", "latitude": 46.557488, "longitude": 6.579244, "timestamp": "2025-05-03T03:15:34.430834+00:00Z", "free_bikes": 1, "empty_slots": 15, "extra": {"uid": 904, "address": "Chem. de Plan-Soleil 3", "zip": "1023", "city": "Crissier", "slots": 16, "ebikes": 1}}, {"id": "dd98a1b47ac5b36d66ac46caa11ef36b", "name": "Tour Haldimand - TetraLaval TetraPak", "latitude": 46.505009, "longitude": 6.641321, "timestamp": "2025-05-03T03:15:34.430767+00:00Z", "free_bikes": 2, "empty_slots": 20, "extra": {"uid": 838, "address": "Av. G\u00e9n\u00e9ral-Guisan 70", "zip": "1009", "city": "Pully", "slots": 22, "ebikes": 1}}, {"id": "de38ef61b77478f6b066c1ae94b92890", "name": "Gare de Pully nord", "latitude": 46.514863230694175, "longitude": 6.658812113086054, "timestamp": "2025-05-03T03:15:34.430785+00:00Z", "free_bikes": 0, "empty_slots": 27, "extra": {"uid": 854, "address": "Chem. du Montillier 9", "zip": "1009", "city": "Pully", "slots": 27, "ebikes": 0}}, {"id": "e401063b5ebe6204035983579c19f78f", "name": "Saint-Fran\u00e7ois", "latitude": 46.51966972197189, "longitude": 6.632556563027347, "timestamp": "2025-05-03T03:15:34.431027+00:00Z", "free_bikes": 0, "empty_slots": 21, "extra": {"uid": 789, "address": "Place Saint-Fran\u00e7ois", "zip": "1003", "city": "Lausanne", "slots": 21, "ebikes": 0}}, {"id": "e46481525e24aab9085be6eb69b127c0", "name": "Longemalle", "latitude": 46.52804418, "longitude": 6.59119606, "timestamp": "2025-05-03T03:15:34.431133+00:00Z", "free_bikes": 1, "empty_slots": 12, "extra": {"uid": 39, "address": "Avenue de Longemalle", "zip": "1020", "city": "Renens", "slots": 13, "ebikes": 1}}, {"id": "e48dfbaced1eff00896cdab27579cd22", "name": "Place de l\u2019Europe", "latitude": 46.520469823395864, "longitude": 6.630836110862832, "timestamp": "2025-05-03T03:15:34.431041+00:00Z", "free_bikes": 0, "empty_slots": 22, "extra": {"uid": 284, "address": "Place Centrale", "zip": "1003", "city": "Lausanne", "slots": 22, "ebikes": 0}}, {"id": "e949c6cb507ac19795047106e7f393d4", "name": "Gracieuse", "latitude": 46.51856, "longitude": 6.50736, "timestamp": "2025-05-03T03:15:34.430718+00:00Z", "free_bikes": 0, "empty_slots": 11, "extra": {"uid": 36, "address": "Avenue de Lonay", "zip": "1110", "city": "Morges", "slots": 11, "ebikes": 0}}, {"id": "eb965a0b55250202e27c198c311723b5", "name": "Station temporairement ferm\u00e9e", "latitude": 46.523333, "longitude": 6.625402, "timestamp": "2025-05-03T03:15:34.430824+00:00Z", "free_bikes": 0, "empty_slots": 24, "extra": {"uid": 489, "address": "Place Chauderon 11", "zip": "1003", "city": "Lausanne", "slots": 24, "ebikes": 0}}, {"id": "fa6cc46c0c508f7eb434fe50b98f3821", "name": "CHUV", "latitude": 46.52654734920485, "longitude": 6.64111195901793, "timestamp": "2025-05-03T03:15:34.430779+00:00Z", "free_bikes": 0, "empty_slots": 22, "extra": {"uid": 807, "address": "Rue du Bugnon", "zip": "1011", "city": "Lausanne", "slots": 22, "ebikes": 0}}, {"id": "fbf8d34dd460ce9cec3269f9a944cd94", "name": "Oassis", "latitude": 46.55095610567505, "longitude": 6.57306649851556, "timestamp": "2025-05-03T03:15:34.430792+00:00Z", "free_bikes": 0, "empty_slots": 19, "extra": {"uid": 626, "address": "Chemin des Lentilli\u00e8res 15", "zip": "1023", "city": "Crissier", "slots": 19, "ebikes": 0}}]}