{"id": "publibike-sottoceneri-ti", "name": "PubliBike Sottoceneri (TI)", "location": {"latitude": 46.00491, "longitude": 8.95244, "city": "Lugano", "country": "CH"}, "href": "/v2/networks/publibike-sottoceneri-ti", "company": ["PubliBike AG"], "system": "PubliBike", "source": "https://api.publibike.ch/v1/static/api.html", "stations": [{"id": "008055a8e115a8dd32f57052fc831782", "name": "ColdreBike", "latitude": 45.856501, "longitude": 8.988615, "timestamp": "2025-05-03T03:15:34.012152+00:00Z", "free_bikes": 3, "empty_slots": 21, "extra": {"uid": 691, "address": "Via San Gottardo", "zip": "6877", "city": "Coldrerio", "slots": 24, "ebikes": 2}}, {"id": "0364de2335086113c98c39c8c93ee4c9", "name": "Paradiso Stazione FFS", "latitude": 45.989126, "longitude": 8.946661, "timestamp": "2025-05-03T03:15:34.012456+00:00Z", "free_bikes": 4, "empty_slots": 76, "extra": {"uid": 441, "address": "Via Carona", "zip": "6900", "city": "Paradiso", "slots": 80, "ebikes": 1}}, {"id": "07ebe54057bc651baada829ff61da8ed", "name": "Casserina", "latitude": 45.994723, "longitude": 8.943257, "timestamp": "2025-05-03T03:15:34.012462+00:00Z", "free_bikes": 6, "empty_slots": 13, "extra": {"uid": 783, "address": "Via Clemente Maraini 39", "zip": "6900", "city": "Lugano", "slots": 19, "ebikes": 4}}, {"id": "0849c0c0261547482c57566073070988", "name": "Piazza Molino Nuovo", "latitude": 46.012252, "longitude": 8.955118, "timestamp": "2025-05-03T03:15:34.011760+00:00Z", "free_bikes": 18, "empty_slots": 62, "extra": {"uid": 381, "address": "Piazza Molino Nuovo", "zip": "6900", "city": "Lugano", "slots": 80, "ebikes": 4}}, {"id": "09ed44c9d0b79350925d84b287b373d9", "name": "Chiasso Boffalora", "latitude": 45.83778, "longitude": 9.02214, "timestamp": "2025-05-03T03:15:34.011778+00:00Z", "free_bikes": 5, "empty_slots": 75, "extra": {"uid": 892, "address": "Piazza Boffalora", "zip": "6830", "city": "Chiasso", "slots": 80, "ebikes": 2}}, {"id": "0b170cff6a2ffdfcaf9ab65b3db08af3", "name": "Seseglio", "latitude": 45.83031984322107, "longitude": 8.996931081752528, "timestamp": "2025-05-03T03:15:34.011985+00:00Z", "free_bikes": 5, "empty_slots": 16, "extra": {"uid": 690, "address": "Via Campagna 4", "zip": "6832", "city": "Pedrinate (localit\u00e0 Seseglio)", "slots": 21, "ebikes": 3}}, {"id": "10811aa9066d2a9944e02a4f0b19e5e3", "name": "Via Dei Faggi", "latitude": 46.0090116, "longitude": 8.9638054, "timestamp": "2025-05-03T03:15:34.012117+00:00Z", "free_bikes": 12, "empty_slots": 68, "extra": {"uid": 380, "address": "Viale dei Faggi", "zip": "6900", "city": "Lugano", "slots": 80, "ebikes": 4}}, {"id": "1111108a958e59cd54e54e5e70ec6dab", "name": "Cassarate Via del Tiglio", "latitude": 46.008146, "longitude": 8.969007, "timestamp": "2025-05-03T03:15:34.012366+00:00Z", "free_bikes": 5, "empty_slots": 75, "extra": {"uid": 864, "address": "Via del Tiglio", "zip": "6900", "city": "Lugano", "slots": 80, "ebikes": 0}}, {"id": "125ed27ba3ec326e2cceb9379eeae784", "name": "via Maraini", "latitude": 45.999094, "longitude": 8.945139, "timestamp": "2025-05-03T03:15:34.012319+00:00Z", "free_bikes": 1, "empty_slots": 79, "extra": {"uid": 627, "address": "via Clemente Maraini 12", "zip": "6900", "city": "Lugano", "slots": 80, "ebikes": 1}}, {"id": "1312a1ad6e019eb31f737a23c999c32c", "name": "Besazio Nucleo", "latitude": 45.87264624215591, "longitude": 8.953349054900483, "timestamp": "2025-05-03T03:15:34.012451+00:00Z", "free_bikes": 2, "empty_slots": 14, "extra": {"uid": 713, "address": "Via Besazio", "zip": "6863", "city": "Besazio", "slots": 16, "ebikes": 0}}, {"id": "1540d14b0d6c41261771fb24c4c0627c", "name": "Pedrinate", "latitude": 45.82606824449524, "longitude": 9.013036784694819, "timestamp": "2025-05-03T03:15:34.012378+00:00Z", "free_bikes": 4, "empty_slots": 17, "extra": {"uid": 689, "address": "Strade Regina 5", "zip": "6832", "city": "Pedrinate", "slots": 21, "ebikes": 2}}, {"id": "15e0a59206d7f854fa58f6dca09d49ba", "name": "Quartiere 9", "latitude": 46.020826, "longitude": 8.964896, "timestamp": "2025-05-03T03:15:34.012191+00:00Z", "free_bikes": 7, "empty_slots": 15, "extra": {"uid": 766, "address": "Via Industria", "zip": "6963", "city": "Lugano", "slots": 22, "ebikes": 3}}, {"id": "162d77dfbca1f339c93d97b88eaa26b1", "name": "Stabio Via Segeno", "latitude": 45.858612, "longitude": 8.940146, "timestamp": "2025-05-03T03:15:34.012104+00:00Z", "free_bikes": 5, "empty_slots": 11, "extra": {"uid": 699, "address": "Via Segeno", "zip": "6855", "city": "Stabio", "slots": 16, "ebikes": 4}}, {"id": "173e270926e4972cf18c15091420a023", "name": "Stabio Via Luvee", "latitude": 45.854907, "longitude": 8.943853, "timestamp": "2025-05-03T03:15:34.012501+00:00Z", "free_bikes": 6, "empty_slots": 10, "extra": {"uid": 723, "address": "Via Luvee", "zip": "6855", "city": "Stabio", "slots": 16, "ebikes": 3}}, {"id": "188f0d3443b3c5e4ff85ee6bdf84afe7", "name": "Ospedale Italiano di Lugano", "latitude": 46.009713, "longitude": 8.96008, "timestamp": "2025-05-03T03:15:34.012083+00:00Z", "free_bikes": 4, "empty_slots": 76, "extra": {"uid": 435, "address": "Via Pietro Cappelli", "zip": "6900", "city": "Lugano", "slots": 80, "ebikes": 0}}, {"id": "18b512be269cc0c2b7f391aeabe00837", "name": "Arte e Cultura LAC", "latitude": 45.998453, "longitude": 8.94848, "timestamp": "2025-05-03T03:15:34.012165+00:00Z", "free_bikes": 10, "empty_slots": 4, "extra": {"uid": 42, "address": "Via Antonio Caccia", "zip": "6900", "city": "Lugano", "slots": 14, "ebikes": 3}}, {"id": "1a581dc817c0c20a4cf39cb7eadf1ed8", "name": "Mendrisio La Filanda", "latitude": 45.86959228856764, "longitude": 8.989624365925325, "timestamp": "2025-05-03T03:15:34.012238+00:00Z", "free_bikes": 3, "empty_slots": 15, "extra": {"uid": 709, "address": "Largo Mario Soldini", "zip": "6859", "city": "Mendrisio", "slots": 18, "ebikes": 2}}, {"id": "1dd41e9f66a99c42608cb6348936bc76", "name": "Gentilino", "latitude": 45.991069, "longitude": 8.936421, "timestamp": "2025-05-03T03:15:34.012343+00:00Z", "free_bikes": 2, "empty_slots": 19, "extra": {"uid": 696, "address": "Via Nocc", "zip": "6925", "city": "Collina d'Oro", "slots": 21, "ebikes": 0}}, {"id": "1e2f470c9fffcebfafe1f2edf49b6dda", "name": "Bigogno - Campo sportivo", "latitude": 45.972202, "longitude": 8.915525, "timestamp": "2025-05-03T03:15:34.012049+00:00Z", "free_bikes": 4, "empty_slots": 76, "extra": {"uid": 382, "address": "Via Collina d'Oro", "zip": "6926", "city": "Collina d'Oro", "slots": 80, "ebikes": 1}}, {"id": "1f4f5391e095077c684039de09af85f6", "name": "Lambertenghi", "latitude": 46.008095, "longitude": 8.957432, "timestamp": "2025-05-03T03:15:34.011841+00:00Z", "free_bikes": 8, "empty_slots": 72, "extra": {"uid": 379, "address": "Via Bertaro Lambertenghi", "zip": "6900", "city": "Lugano", "slots": 80, "ebikes": 3}}, {"id": "214ea871332aa0a59a22471f7dcb07ac", "name": "Via Crocetta", "latitude": 46.0159412, "longitude": 8.9668282, "timestamp": "2025-05-03T03:15:34.012313+00:00Z", "free_bikes": 3, "empty_slots": 77, "extra": {"uid": 434, "address": "Via Crocetta", "zip": "6900", "city": "Lugano", "slots": 80, "ebikes": 1}}, {"id": "2184f7db010247180a4acee2c9559622", "name": "Bissone", "latitude": 45.95289, "longitude": 8.965247, "timestamp": "2025-05-03T03:15:34.011970+00:00Z", "free_bikes": 6, "empty_slots": 13, "extra": {"uid": 750, "address": "Via Collina", "zip": "6816", "city": "Bissone", "slots": 19, "ebikes": 3}}, {"id": "22f85e4916b54c4c5c4a53e34fb50ff4", "name": "Chiasso Stazione FFS", "latitude": 45.831757, "longitude": 9.032651, "timestamp": "2025-05-03T03:15:34.012383+00:00Z", "free_bikes": 4, "empty_slots": 17, "extra": {"uid": 692, "address": "Via Giuseppe Motta", "zip": "6830", "city": "Chiasso", "slots": 21, "ebikes": 4}}, {"id": "2a2befd01f6e08b0fa9e7007a0214970", "name": "Manno Parco Giova", "latitude": 46.032852, "longitude": 8.921806, "timestamp": "2025-05-03T03:15:34.011829+00:00Z", "free_bikes": 4, "empty_slots": 76, "extra": {"uid": 205, "address": "Via Norello 4", "zip": "6928", "city": "Manno", "slots": 80, "ebikes": 2}}, {"id": "2dcbedb91ece144c17667f6b6b68aa21", "name": "Magliaso FLP", "latitude": 45.982042, "longitude": 8.883593, "timestamp": "2025-05-03T03:15:34.011897+00:00Z", "free_bikes": 4, "empty_slots": 76, "extra": {"uid": 206, "address": "Via Stazione  18", "zip": "6983", "city": "Magliaso", "slots": 80, "ebikes": 2}}, {"id": "2de8f9e06dfafc9824390c0241812551", "name": "Chiasso Soldini", "latitude": 45.83472077054605, "longitude": 9.01820134325138, "timestamp": "2025-05-03T03:15:34.011904+00:00Z", "free_bikes": 7, "empty_slots": 14, "extra": {"uid": 770, "address": "Via Soldini parcheggio Crocione", "zip": "6830", "city": "Chiasso", "slots": 21, "ebikes": 1}}, {"id": "2eb3ff2b7235e06f543fbefcc5b5655e", "name": "Rancate Nucleo", "latitude": 45.87153897383477, "longitude": 8.968208417990107, "timestamp": "2025-05-03T03:15:34.012372+00:00Z", "free_bikes": 4, "empty_slots": 12, "extra": {"uid": 717, "address": "Piazza S. Stefano", "zip": "6862", "city": "Rancate", "slots": 16, "ebikes": 2}}, {"id": "31405db5fba4947ee4b63c918fbd47b5", "name": "Quartiere di Meride", "latitude": 45.890055, "longitude": 8.950718, "timestamp": "2025-05-03T03:15:34.011993+00:00Z", "free_bikes": 1, "empty_slots": 20, "extra": {"uid": 715, "address": "Ala Caraa", "zip": "6866", "city": "Meride", "slots": 21, "ebikes": 0}}, {"id": "350d9e80423112c873fea42fd293629f", "name": "Stadio", "latitude": 46.023159, "longitude": 8.959919, "timestamp": "2025-05-03T03:15:34.012147+00:00Z", "free_bikes": 4, "empty_slots": 10, "extra": {"uid": 45, "address": "Via Trevano 100", "zip": "6900", "city": "Lugano", "slots": 14, "ebikes": 1}}, {"id": "360f5df4fb44470498c7f440db6ab3f4", "name": "Mendrisio Municipio", "latitude": 45.87125166693927, "longitude": 8.98675487202064, "timestamp": "2025-05-03T03:15:34.012078+00:00Z", "free_bikes": 4, "empty_slots": 14, "extra": {"uid": 684, "address": "Via Municipio", "zip": "6850", "city": "Mendrisio", "slots": 18, "ebikes": 2}}, {"id": "39cce15b160a4d3bd18c0da23cfe29f7", "name": "Foce", "latitude": 46.003948, "longitude": 8.961542, "timestamp": "2025-05-03T03:15:34.011803+00:00Z", "free_bikes": 7, "empty_slots": 27, "extra": {"uid": 780, "address": "Via Foce", "zip": "6900", "city": "Lugano", "slots": 34, "ebikes": 3}}, {"id": "3bc114f1e844ca4c0affd054925133a2", "name": "Novazzano Centro Paese", "latitude": 45.841265, "longitude": 8.98136, "timestamp": "2025-05-03T03:15:34.012412+00:00Z", "free_bikes": 4, "empty_slots": 15, "extra": {"uid": 774, "address": "Via alla Scuola", "zip": "6883", "city": "Novazzano", "slots": 19, "ebikes": 2}}, {"id": "3bc541801b986be0e9be1237b4d9fd6c", "name": "Via Ciani", "latitude": 46.021942, "longitude": 8.962901, "timestamp": "2025-05-03T03:15:34.012008+00:00Z", "free_bikes": 5, "empty_slots": 6, "extra": {"uid": 46, "address": "Via Giacomo E Filippo Ciani", "zip": "6900", "city": "Lugano", "slots": 11, "ebikes": 3}}, {"id": "3bceefad1df1095ca86182a33d1d38b1", "name": "Balerna Ossario", "latitude": 45.849737477082186, "longitude": 9.008044185318527, "timestamp": "2025-05-03T03:15:34.012056+00:00Z", "free_bikes": 6, "empty_slots": 15, "extra": {"uid": 744, "address": "Via Carlo Silva 2", "zip": "6828", "city": "Balerna", "slots": 21, "ebikes": 3}}, {"id": "3c26fc39ac45c7d4250f6787a5833b6e", "name": "Melide", "latitude": 45.953905, "longitude": 8.949715, "timestamp": "2025-05-03T03:15:34.011978+00:00Z", "free_bikes": 2, "empty_slots": 14, "extra": {"uid": 41, "address": "Via alla Bola", "zip": "6815", "city": "Melide", "slots": 16, "ebikes": 1}}, {"id": "3c74e0a1f8ffb926c72dd54c0467faf3", "name": "Ligornetto Nucleo", "latitude": 45.861449804710674, "longitude": 8.954692504152314, "timestamp": "2025-05-03T03:15:34.012065+00:00Z", "free_bikes": 3, "empty_slots": 13, "extra": {"uid": 718, "address": "Via Eugenio Bernasconi 22", "zip": "6853", "city": "Ligornetto", "slots": 16, "ebikes": 2}}, {"id": "3d472a1f753c70f98e89ea8fc5c5b338", "name": "Riva San Vitale - Posteggio Piazzale a Lago", "latitude": 45.90587981635428, "longitude": 8.972694428589046, "timestamp": "2025-05-03T03:15:34.011774+00:00Z", "free_bikes": 2, "empty_slots": 19, "extra": {"uid": 725, "address": "Via al Lido", "zip": "6826", "city": "Riva San Vitale", "slots": 21, "ebikes": 0}}, {"id": "40264052ca2edbd699d4d28da559aaf9", "name": "FFS Mezzovico-Vira", "latitude": 46.094684, "longitude": 8.928136, "timestamp": "2025-05-03T03:15:34.012446+00:00Z", "free_bikes": 1, "empty_slots": 26, "extra": {"uid": 847, "address": "Via alla stazione", "zip": "6805", "city": "Mezzovico-Vira", "slots": 27, "ebikes": 0}}, {"id": "4274390f749405dd8f137ce12e6eb7dd", "name": "Viganello", "latitude": 46.0121344, "longitude": 8.9657021, "timestamp": "2025-05-03T03:15:34.012359+00:00Z", "free_bikes": 11, "empty_slots": 69, "extra": {"uid": 377, "address": "Via la Santa", "zip": "6900", "city": "Lugano", "slots": 80, "ebikes": 1}}, {"id": "487d2416d0f733cfd9948004165c0031", "name": "Mendrisio Centro", "latitude": 45.87023343314977, "longitude": 8.987408595931916, "timestamp": "2025-05-03T03:15:34.011835+00:00Z", "free_bikes": 4, "empty_slots": 14, "extra": {"uid": 708, "address": "Via Luigi Lavizzari", "zip": "6850", "city": "Mendrisio", "slots": 18, "ebikes": 2}}, {"id": "49156beebc895773feeb1e102c84de9e", "name": "Sorengo Gemmo", "latitude": 46.006757, "longitude": 8.936176, "timestamp": "2025-05-03T03:15:34.011797+00:00Z", "free_bikes": 3, "empty_slots": 77, "extra": {"uid": 901, "address": "Via gemmo 6", "zip": "6924", "city": "Sorengo", "slots": 80, "ebikes": 2}}, {"id": "49d5343bfc9423f89b0dc561e7d22c66", "name": "Lamone - Cadempino FFS", "latitude": 46.040345, "longitude": 8.932433, "timestamp": "2025-05-03T03:15:34.012494+00:00Z", "free_bikes": 5, "empty_slots": 75, "extra": {"uid": 246, "address": "Via Girella 49", "zip": "6814", "city": "Lamone", "slots": 80, "ebikes": 3}}, {"id": "4d44ec9801a4fab4256e7a32a2565a99", "name": "Stabio - Gaggiolo", "latitude": 45.841894, "longitude": 8.916675, "timestamp": "2025-05-03T03:15:34.012090+00:00Z", "free_bikes": 4, "empty_slots": 17, "extra": {"uid": 746, "address": "Via Gaggiolo", "zip": "6855", "city": "Stabio", "slots": 21, "ebikes": 2}}, {"id": "4e6dd235279dc27c115107fde8a1afdf", "name": "Corn\u00e8r Arena - HC Lugano", "latitude": 46.025237, "longitude": 8.963681, "timestamp": "2025-05-03T03:15:34.011965+00:00Z", "free_bikes": 0, "empty_slots": 40, "extra": {"uid": 832, "address": "Via Sonvico di Porza", "zip": "6900", "city": "Lugano", "slots": 40, "ebikes": 0}}, {"id": "51e0f85b62c5538abd908c48535e67bd", "name": "Mendrisio Cantine", "latitude": 45.87595168951277, "longitude": 8.987138816048143, "timestamp": "2025-05-03T03:15:34.012110+00:00Z", "free_bikes": 4, "empty_slots": 14, "extra": {"uid": 742, "address": "Viale alle Cantine", "zip": "6850", "city": "Mendrisio", "slots": 18, "ebikes": 2}}, {"id": "534845a1de341a3a4ff91d8d43e712f7", "name": "Caslano FLP", "latitude": 45.977309, "longitude": 8.875447, "timestamp": "2025-05-03T03:15:34.011920+00:00Z", "free_bikes": 5, "empty_slots": 75, "extra": {"uid": 208, "address": "Via Stazione 77", "zip": "6987", "city": "Caslano", "slots": 80, "ebikes": 3}}, {"id": "5753a32cb6f8ccf8a2dfe854a635a079", "name": "Chiasso Piscine", "latitude": 45.838047, "longitude": 9.026857, "timestamp": "2025-05-03T03:15:34.011857+00:00Z", "free_bikes": 5, "empty_slots": 75, "extra": {"uid": 865, "address": "Via Rinaldo Simen", "zip": "6830", "city": "Chiasso", "slots": 80, "ebikes": 2}}, {"id": "58c02295586d4a6506387fa6262ffa14", "name": "Stabio Via Arca", "latitude": 45.85527, "longitude": 8.93759, "timestamp": "2025-05-03T03:15:34.012263+00:00Z", "free_bikes": 3, "empty_slots": 18, "extra": {"uid": 724, "address": "Via Arca", "zip": "6855", "city": "Stabio", "slots": 21, "ebikes": 2}}, {"id": "611f1c66da23f47fa982b179e6b8835d", "name": "Campo Marzio", "latitude": 46.005849, "longitude": 8.961709, "timestamp": "2025-05-03T03:15:34.011823+00:00Z", "free_bikes": 6, "empty_slots": 15, "extra": {"uid": 43, "address": "Viale Castagnola 4", "zip": "6900", "city": "Lugano", "slots": 21, "ebikes": 0}}, {"id": "62382ef8f902833bdc4b339e08eb74f4", "name": "Ecocentro Pregassona", "latitude": 46.029052, "longitude": 8.969857, "timestamp": "2025-05-03T03:15:34.011816+00:00Z", "free_bikes": 2, "empty_slots": 19, "extra": {"uid": 782, "address": "Via Rugg\u00ec 46", "zip": "6963", "city": "Pregassona", "slots": 21, "ebikes": 1}}, {"id": "668cff30814ef154daa73395d56fbcad", "name": "sar\u00e0 il 2.5. smontato: Castel S. Pietro alle Zocche", "latitude": 45.855005125749834, "longitude": 9.002221444016275, "timestamp": "2025-05-03T03:15:34.012224+00:00Z", "free_bikes": 0, "empty_slots": 26, "extra": {"uid": 720, "address": "Via alle Zocche 7-3", "zip": "6874", "city": "Castel San Pietro", "slots": 26, "ebikes": 0}}, {"id": "67fb7386cbf506ad3f2f40516b1fca73", "name": "Morbio Municipio", "latitude": 45.85200343, "longitude": 9.016464562, "timestamp": "2025-05-03T03:15:34.012422+00:00Z", "free_bikes": 6, "empty_slots": 18, "extra": {"uid": 721, "address": "Via Giuseppe Cereghetti 8", "zip": "6834", "city": "Morbio Inferiore", "slots": 24, "ebikes": 4}}, {"id": "68d492bf72ada3903091455181bb3008", "name": "Lugano Cortivo", "latitude": 46.001191, "longitude": 8.985164, "timestamp": "2025-05-03T03:15:34.011811+00:00Z", "free_bikes": 2, "empty_slots": 78, "extra": {"uid": 891, "address": "Via Cortivo", "zip": "6900", "city": "Lugano", "slots": 80, "ebikes": 2}}, {"id": "69eec8fd4d28d74a6f5ae16edd53f465", "name": "Castel S. Pietro Posta", "latitude": 45.861628339008064, "longitude": 9.00898208387063, "timestamp": "2025-05-03T03:15:34.011733+00:00Z", "free_bikes": 6, "empty_slots": 15, "extra": {"uid": 722, "address": "Via Landamano G. B. Maggi 10", "zip": "6874", "city": "Castel San Pietro", "slots": 21, "ebikes": 5}}, {"id": "6b3c7c384283a139ab0309f1888c7fef", "name": "Montanstahl Via Gerette", "latitude": 45.844533, "longitude": 8.926253, "timestamp": "2025-05-03T03:15:34.012247+00:00Z", "free_bikes": 1, "empty_slots": 23, "extra": {"uid": 801, "address": "Via Gerette", "zip": "6855", "city": "Stabio", "slots": 24, "ebikes": 1}}, {"id": "6e9982f0cd8a9f41b7c1999eb99d3b49", "name": "Mendrisio Ospedale", "latitude": 45.86687922879933, "longitude": 8.983606564693778, "timestamp": "2025-05-03T03:15:34.011793+00:00Z", "free_bikes": 0, "empty_slots": 18, "extra": {"uid": 716, "address": "Via Alfonso Turconi 25", "zip": "6850", "city": "Mendrisio", "slots": 18, "ebikes": 0}}, {"id": "7104e48295086a2037f4e686f15f7af7", "name": "Stabio Stazione FFS", "latitude": 45.849794, "longitude": 8.944964, "timestamp": "2025-05-03T03:15:34.012015+00:00Z", "free_bikes": 4, "empty_slots": 12, "extra": {"uid": 694, "address": "Via Cantonale 11", "zip": "6855", "city": "Stabio", "slots": 16, "ebikes": 1}}, {"id": "71481f050a38e8fe8abd20688f1081bb", "name": "Via Ceresio", "latitude": 46.01876, "longitude": 8.96429, "timestamp": "2025-05-03T03:15:34.012218+00:00Z", "free_bikes": 8, "empty_slots": 72, "extra": {"uid": 437, "address": "Via Ceresio", "zip": "6900", "city": "Lugano", "slots": 80, "ebikes": 4}}, {"id": "765ddc8b8062508940695a11c6d8c853", "name": "Casa Serena", "latitude": 46.014127, "longitude": 8.959087, "timestamp": "2025-05-03T03:15:34.012407+00:00Z", "free_bikes": 4, "empty_slots": 76, "extra": {"uid": 436, "address": "Via Marco da Carona 10-12", "zip": "6900", "city": "Lugano", "slots": 80, "ebikes": 4}}, {"id": "7cbbda7793bb12570913a313e7a8e7f3", "name": "Tesserete", "latitude": 46.065999, "longitude": 8.966679, "timestamp": "2025-05-03T03:15:34.012096+00:00Z", "free_bikes": 3, "empty_slots": 10, "extra": {"uid": 44, "address": "Piazza Stazione", "zip": "6950", "city": "Tesserete", "slots": 13, "ebikes": 1}}, {"id": "83d3c10d4debf8e4592af7d026e943e8", "name": "Vacallo, Piazza Municipio", "latitude": 45.8474329, "longitude": 9.0342084, "timestamp": "2025-05-03T03:15:34.012330+00:00Z", "free_bikes": 5, "empty_slots": 19, "extra": {"uid": 784, "address": "Via Giacomo Puccini", "zip": "6838", "city": "Vacallo", "slots": 24, "ebikes": 4}}, {"id": "84132e70f8491f5c0fe52f90293185a2", "name": "Porza Sant'Elena", "latitude": 46.027895, "longitude": 8.954881, "timestamp": "2025-05-03T03:15:34.012000+00:00Z", "free_bikes": 5, "empty_slots": 17, "extra": {"uid": 752, "address": "Via Cantonale", "zip": "6948", "city": "Porza", "slots": 22, "ebikes": 3}}, {"id": "8cd50176ea0ae72993313ea85c87e1bd", "name": "Paradiso Centro", "latitude": 45.991081, "longitude": 8.943799, "timestamp": "2025-05-03T03:15:34.012137+00:00Z", "free_bikes": 9, "empty_slots": 7, "extra": {"uid": 51, "address": "Via Franco Zorzi", "zip": "6900", "city": "Lugano", "slots": 16, "ebikes": 7}}, {"id": "8d44b8383fbff4ae86d1277469ea596d", "name": "CSIA", "latitude": 46.018784, "longitude": 8.962014, "timestamp": "2025-05-03T03:15:34.011936+00:00Z", "free_bikes": 5, "empty_slots": 16, "extra": {"uid": 781, "address": "Via Brentani", "zip": "6900", "city": "Lugano", "slots": 21, "ebikes": 0}}, {"id": "8e0778a200edb28a1f1d050e0d81b13b", "name": "Mendrisio Piscine", "latitude": 45.88354716154987, "longitude": 8.980175414992559, "timestamp": "2025-05-03T03:15:34.012257+00:00Z", "free_bikes": 1, "empty_slots": 20, "extra": {"uid": 705, "address": "Via S. Martino", "zip": "6850", "city": "Mendrisio", "slots": 21, "ebikes": 0}}, {"id": "90285d9411c0c9b4a33f63b93858e536", "name": "Stabio via Mulino", "latitude": 45.848177, "longitude": 8.936794, "timestamp": "2025-05-03T03:15:34.012071+00:00Z", "free_bikes": 6, "empty_slots": 18, "extra": {"uid": 695, "address": "Prati del Trevano", "zip": "6855", "city": "Stabio", "slots": 24, "ebikes": 3}}, {"id": "915c741ed02cd758841b348137e66ea2", "name": "Arzo Scuole", "latitude": 45.87483787298627, "longitude": 8.937745151961444, "timestamp": "2025-05-03T03:15:34.012338+00:00Z", "free_bikes": 5, "empty_slots": 11, "extra": {"uid": 710, "address": "Via Onorio Longhi 2", "zip": "6864", "city": "Mendrisio", "slots": 16, "ebikes": 3}}, {"id": "928bcaa3058df422736252e27adaecbc", "name": "Chiasso Municipio", "latitude": 45.835102068444385, "longitude": 9.027882228092864, "timestamp": "2025-05-03T03:15:34.012303+00:00Z", "free_bikes": 4, "empty_slots": 17, "extra": {"uid": 693, "address": "Piazza Col. C. Bernasconi 1", "zip": "6830", "city": "Chiasso", "slots": 21, "ebikes": 2}}, {"id": "9870d85a2bcfa48fbe4599df72d16574", "name": "Salorino Nucleo", "latitude": 45.871996543772816, "longitude": 8.994334187178147, "timestamp": "2025-05-03T03:15:34.012035+00:00Z", "free_bikes": 2, "empty_slots": 14, "extra": {"uid": 711, "address": "Via S. Rocco 16", "zip": "6872", "city": "Mendrisio", "slots": 16, "ebikes": 0}}, {"id": "9a3479217356991089aa92e32c5acd7b", "name": "Via Beltramina", "latitude": 46.0166117, "longitude": 8.9596513, "timestamp": "2025-05-03T03:15:34.011943+00:00Z", "free_bikes": 2, "empty_slots": 78, "extra": {"uid": 440, "address": "Via Beltramina 16", "zip": "6900", "city": "Lugano", "slots": 80, "ebikes": 0}}, {"id": "9c3e76b3135daf858871b356d8ce80e9", "name": "Stazione FFS", "latitude": 46.004469, "longitude": 8.947096, "timestamp": "2025-05-03T03:15:34.011959+00:00Z", "free_bikes": 6, "empty_slots": 74, "extra": {"uid": 146, "address": "Via Clemente Maraini P+R", "zip": "6900", "city": "Lugano", "slots": 80, "ebikes": 2}}, {"id": "9d2569f29fb71266c82cd2e7a7cb7c11", "name": "Mendrisio Museo", "latitude": 45.87254294486857, "longitude": 8.987224327562924, "timestamp": "2025-05-03T03:15:34.012429+00:00Z", "free_bikes": 4, "empty_slots": 17, "extra": {"uid": 704, "address": "Via Vincenzo Vela", "zip": "6850", "city": "Mendrisio", "slots": 21, "ebikes": 2}}, {"id": "9efe809061a1c32510db86c277123b66", "name": "Scuole Via Franscini", "latitude": 45.844602, "longitude": 9.030907, "timestamp": "2025-05-03T03:15:34.012186+00:00Z", "free_bikes": 3, "empty_slots": 19, "extra": {"uid": 745, "address": "Via Stefano Franscini", "zip": "6833", "city": "Vacallo", "slots": 22, "ebikes": 1}}, {"id": "a1624a82b73443a7b26b7fa93845ce39", "name": "Via Loco", "latitude": 46.020198, "longitude": 8.97169, "timestamp": "2025-05-03T03:15:34.012157+00:00Z", "free_bikes": 1, "empty_slots": 31, "extra": {"uid": 586, "address": "Via Loco", "zip": "6900", "city": "Lugano", "slots": 32, "ebikes": 1}}, {"id": "a47d144fa733057a51ec54287158886f", "name": "Muzzano Industria", "latitude": 46.000482, "longitude": 8.912639, "timestamp": "2025-05-03T03:15:34.012352+00:00Z", "free_bikes": 4, "empty_slots": 76, "extra": {"uid": 249, "address": "Via Industria", "zip": "6933", "city": "Muzzano", "slots": 80, "ebikes": 2}}, {"id": "aaae3f3fa20ccaaa61d4b4644c014bb8", "name": "Capolago Stazione FFS", "latitude": 45.903314, "longitude": 8.979073, "timestamp": "2025-05-03T03:15:34.012127+00:00Z", "free_bikes": 3, "empty_slots": 18, "extra": {"uid": 706, "address": "Via Famiglia Carlo Scacchi", "zip": "6825", "city": "Capolago", "slots": 21, "ebikes": 2}}, {"id": "ac2303c0230481cb3d7fb7a0d9104895", "name": "Cappella-Agnuzzo FLP", "latitude": 45.993326, "longitude": 8.924532, "timestamp": "2025-05-03T03:15:34.011880+00:00Z", "free_bikes": 4, "empty_slots": 76, "extra": {"uid": 248, "address": "Cappella-Agnuzzo", "zip": "6925", "city": "Collina d'Oro", "slots": 80, "ebikes": 2}}, {"id": "adb46d56011650cc0612607bf1ec22ef", "name": "Brusino Arsizio \u2013 Debarcadero", "latitude": 45.92991043850694, "longitude": 8.938161232544616, "timestamp": "2025-05-03T03:15:34.012041+00:00Z", "free_bikes": 4, "empty_slots": 17, "extra": {"uid": 751, "address": "Piazza Don F. Andreoletti 1", "zip": "6827", "city": "Brusino Arsizio", "slots": 21, "ebikes": 2}}, {"id": "ae875ccd10279353b7292bc16a78de13", "name": "Piazza Mercato/Contrada di Verla", "latitude": 46.005707, "longitude": 8.95184, "timestamp": "2025-05-03T03:15:34.012292+00:00Z", "free_bikes": 17, "empty_slots": 7, "extra": {"uid": 49, "address": "Via Pretorio / Piazza Mercato", "zip": "6900", "city": "Lugano", "slots": 24, "ebikes": 1}}, {"id": "b073cab929ca1ac5ff199692207b6981", "name": "Balerna Stazione FFS", "latitude": 45.84700376233985, "longitude": 9.005261994529603, "timestamp": "2025-05-03T03:15:34.012348+00:00Z", "free_bikes": 3, "empty_slots": 18, "extra": {"uid": 743, "address": "Via Stazione", "zip": "6828", "city": "Balerna", "slots": 21, "ebikes": 2}}, {"id": "b0eef1916ac6296244c705f0acf881fc", "name": "Ospedale Civico", "latitude": 46.01839064983639, "longitude": 8.952667134728758, "timestamp": "2025-05-03T03:15:34.011746+00:00Z", "free_bikes": 8, "empty_slots": 72, "extra": {"uid": 749, "address": "Via Tesserete 46", "zip": "6900", "city": "Lugano", "slots": 80, "ebikes": 6}}, {"id": "b22293ac6cff6c302ed12ab71ae80031", "name": "Sorengo San Grato", "latitude": 45.996331, "longitude": 8.935102, "timestamp": "2025-05-03T03:15:34.012207+00:00Z", "free_bikes": 1, "empty_slots": 79, "extra": {"uid": 902, "address": "Via Ponte Tresa 35", "zip": "6924", "city": "Sorengo", "slots": 80, "ebikes": 0}}, {"id": "b5dd986212bfbe77b83a364856b04f10", "name": "Bioggio Via Industria", "latitude": 46.020356, "longitude": 8.916114, "timestamp": "2025-05-03T03:15:34.012417+00:00Z", "free_bikes": 3, "empty_slots": 77, "extra": {"uid": 247, "address": "Via Industria 31", "zip": "6934", "city": "Bioggio", "slots": 80, "ebikes": 1}}, {"id": "b7da104d64eb3c7a0519c20b30da65a2", "name": "Piazza Manzoni", "latitude": 46.0036519, "longitude": 8.9529036, "timestamp": "2025-05-03T03:15:34.012324+00:00Z", "free_bikes": 7, "empty_slots": 73, "extra": {"uid": 438, "address": "Piazza Manzoni", "zip": "6900", "city": "Lugano", "slots": 80, "ebikes": 0}}, {"id": "b97ee62a53cd955df8d7203978398973", "name": "Campus Est", "latitude": 46.011494, "longitude": 8.961011, "timestamp": "2025-05-03T03:15:34.011740+00:00Z", "free_bikes": 4, "empty_slots": 476, "extra": {"uid": 664, "address": "Via la Santa", "zip": "6962", "city": "Viganello", "slots": 480, "ebikes": 0}}, {"id": "bab2a7b61dbcd4227ce994c6d6defdbd", "name": "Sorengo, via Ponte Tresa", "latitude": 45.9987921421312, "longitude": 8.93937873151315, "timestamp": "2025-05-03T03:15:34.012020+00:00Z", "free_bikes": 2, "empty_slots": 24, "extra": {"uid": 845, "address": "Via Ponte Tresa", "zip": "6924", "city": "Sorengo", "slots": 26, "ebikes": 2}}, {"id": "bc86ee18a4dd49c88d0f2ef89d2c2153", "name": "Mendrisio Mercato Coperto", "latitude": 45.86552127511925, "longitude": 8.977682352126578, "timestamp": "2025-05-03T03:15:34.012228+00:00Z", "free_bikes": 1, "empty_slots": 20, "extra": {"uid": 688, "address": "Via Campo Sportivo", "zip": "6850", "city": "Mendrisio", "slots": 21, "ebikes": 0}}, {"id": "bd06c7796c066fcc9481229104bc22bf", "name": "Via Vignola", "latitude": 46.016524, "longitude": 8.955876, "timestamp": "2025-05-03T03:15:34.011928+00:00Z", "free_bikes": 0, "empty_slots": 40, "extra": {"uid": 585, "address": "Via Trevano", "zip": "6900", "city": "Lugano", "slots": 40, "ebikes": 0}}, {"id": "c2434f8e58d30e9d2c4b735adcb44be3", "name": "Piaza du Buteghin", "latitude": 46.088134, "longitude": 8.915069, "timestamp": "2025-05-03T03:15:34.012200+00:00Z", "free_bikes": 5, "empty_slots": 19, "extra": {"uid": 848, "address": "Via la Munda", "zip": "6805", "city": "Mezzovico-Vira", "slots": 24, "ebikes": 2}}, {"id": "c2d083c85ed130877f530a8c30ee3756", "name": "Mendrisio Comparto Scuole", "latitude": 45.86245058491458, "longitude": 8.980687511646552, "timestamp": "2025-05-03T03:15:34.012507+00:00Z", "free_bikes": 2, "empty_slots": 19, "extra": {"uid": 714, "address": "Via Pier Francesco Mola", "zip": "6850", "city": "Mendrisio", "slots": 21, "ebikes": 0}}, {"id": "c4510fe2cba62165544530d708a54a0d", "name": "San Siro", "latitude": 46.015758, "longitude": 8.971604, "timestamp": "2025-05-03T03:15:34.011886+00:00Z", "free_bikes": 6, "empty_slots": 74, "extra": {"uid": 639, "address": "Via al Campanile 1", "zip": "6962", "city": "Viganello", "slots": 80, "ebikes": 4}}, {"id": "c5550ce337de5bf342ddc4806d1c0d60", "name": "Centro Lugano Sud", "latitude": 45.973369, "longitude": 8.927351, "timestamp": "2025-05-03T03:15:34.012436+00:00Z", "free_bikes": 4, "empty_slots": 76, "extra": {"uid": 620, "address": "Via Cantonale", "zip": "6916", "city": "Grancia", "slots": 80, "ebikes": 2}}, {"id": "c655c0fdd571d0b26c2e536df141d828", "name": "Morbio Serfontana", "latitude": 45.845724, "longitude": 9.014909, "timestamp": "2025-05-03T03:15:34.011871+00:00Z", "free_bikes": 5, "empty_slots": 19, "extra": {"uid": 719, "address": "Viale Serfontana 20", "zip": "6834", "city": "Morbio Inferiore", "slots": 24, "ebikes": 2}}, {"id": "c7a9d6f7e63c7ffe951c653e68edb786", "name": "Morcote", "latitude": 45.9242, "longitude": 8.9192, "timestamp": "2025-05-03T03:15:34.011911+00:00Z", "free_bikes": 3, "empty_slots": 11, "extra": {"uid": 40, "address": "Riva Dal Garav\u00e9ll 8", "zip": "6922", "city": "Morcote", "slots": 14, "ebikes": 3}}, {"id": "c8b7f74b35d633d56564af06bc9e62c4", "name": "Centro Giovanile", "latitude": 46.009397, "longitude": 8.931591, "timestamp": "2025-05-03T03:15:34.011848+00:00Z", "free_bikes": 6, "empty_slots": 74, "extra": {"uid": 629, "address": "Via Dott. Giov. Polar. 34", "zip": "6932", "city": "Breganzona", "slots": 80, "ebikes": 4}}, {"id": "c8fff17f717080911d05a9e36f619638", "name": "USI", "latitude": 46.0105808, "longitude": 8.95794, "timestamp": "2025-05-03T03:15:34.011785+00:00Z", "free_bikes": 6, "empty_slots": 10, "extra": {"uid": 48, "address": "Via Giuseppe Buffi 13", "zip": "6900", "city": "Lugano", "slots": 16, "ebikes": 3}}, {"id": "cdf0444e498b843830e149ff83156926", "name": "Piscina Valgersa", "latitude": 46.016072, "longitude": 8.941042, "timestamp": "2025-05-03T03:15:34.012212+00:00Z", "free_bikes": 4, "empty_slots": 38, "extra": {"uid": 619, "address": "Via Val Gersa", "zip": "6942", "city": "Savosa", "slots": 42, "ebikes": 4}}, {"id": "cfb598e9c20e5e4064ac26bc736e7e5c", "name": "Mendrisio Stazione FFS", "latitude": 45.86839596516475, "longitude": 8.97806954826163, "timestamp": "2025-05-03T03:15:34.011755+00:00Z", "free_bikes": 2, "empty_slots": 16, "extra": {"uid": 707, "address": "Via Stefano Franscini", "zip": "6850", "city": "Mendrisio", "slots": 18, "ebikes": 0}}, {"id": "d13901289b8d57f9e5507a6532df70b6", "name": "Sorengo Parco Sportivo", "latitude": 46.001154, "longitude": 8.934162, "timestamp": "2025-05-03T03:15:34.012485+00:00Z", "free_bikes": 7, "empty_slots": 73, "extra": {"uid": 207, "address": "Via al Laghetto 5", "zip": "6924", "city": "Sorengo", "slots": 80, "ebikes": 3}}, {"id": "d148f554d3861fb771f562c447423612", "name": "Via Ginevra", "latitude": 46.0082843, "longitude": 8.9512745, "timestamp": "2025-05-03T03:15:34.012270+00:00Z", "free_bikes": 6, "empty_slots": 74, "extra": {"uid": 378, "address": "via Ginevra", "zip": "6900", "city": "Lugano", "slots": 80, "ebikes": 0}}, {"id": "e49725d10f3101c986ec1f02792ffa99", "name": "Parco Ciani", "latitude": 46.005806, "longitude": 8.957374, "timestamp": "2025-05-03T03:15:34.012475+00:00Z", "free_bikes": 10, "empty_slots": 22, "extra": {"uid": 587, "address": "via Lucchini", "zip": "6900", "city": "Lugano", "slots": 32, "ebikes": 0}}, {"id": "e54ee99b9a86f0eb4f1e8733ea15de06", "name": "Besso", "latitude": 46.00627672, "longitude": 8.94272889, "timestamp": "2025-05-03T03:15:34.011706+00:00Z", "free_bikes": 3, "empty_slots": 77, "extra": {"uid": 628, "address": "via Besso 23", "zip": "6900", "city": "Lugano", "slots": 80, "ebikes": 3}}, {"id": "e5853ef0abfb6975290f50624d5e8fde", "name": "Fornaci", "latitude": 45.984764, "longitude": 8.932378, "timestamp": "2025-05-03T03:15:34.012025+00:00Z", "free_bikes": 4, "empty_slots": 14, "extra": {"uid": 50, "address": "Via Pian Scairolo 9", "zip": "6912", "city": "Pazzallo", "slots": 18, "ebikes": 3}}, {"id": "e9c48e18b7a7a533e5f265b2989a75d5", "name": "Mendrisio Fox Town", "latitude": 45.8762029265714, "longitude": 8.981280464481735, "timestamp": "2025-05-03T03:15:34.012441+00:00Z", "free_bikes": 1, "empty_slots": 17, "extra": {"uid": 686, "address": "Via Moree", "zip": "6850", "city": "Mendrisio", "slots": 18, "ebikes": 0}}, {"id": "ebb814a345091a3927cf5fb547356346", "name": "Davesco", "latitude": 46.037002, "longitude": 8.979558, "timestamp": "2025-05-03T03:15:34.012181+00:00Z", "free_bikes": 1, "empty_slots": 31, "extra": {"uid": 588, "address": "Via Vecchio Tram", "zip": "6964", "city": "Davesco-Soragno", "slots": 32, "ebikes": 1}}, {"id": "ec8ae07ff26ce65ca6b2af8c9624ba0f", "name": "Manno Centro di Calcolo", "latitude": 46.022676, "longitude": 8.917196, "timestamp": "2025-05-03T03:15:34.012174+00:00Z", "free_bikes": 3, "empty_slots": 77, "extra": {"uid": 209, "address": "Via Cantonale 16", "zip": "6928", "city": "Manno", "slots": 80, "ebikes": 1}}, {"id": "ecbb51ace57993d0fa743be56cebb145", "name": "Genestrerio Nucleo", "latitude": 45.854808754188724, "longitude": 8.96080186040559, "timestamp": "2025-05-03T03:15:34.011721+00:00Z", "free_bikes": 4, "empty_slots": 17, "extra": {"uid": 712, "address": "Piazza Baraini", "zip": "6851", "city": "Genestrerio", "slots": 21, "ebikes": 1}}, {"id": "f2e879fc1eb771d12bdeeeb434c47c56", "name": "Mezzovico Piazza Vira", "latitude": 46.09704185231821, "longitude": 8.922324370246264, "timestamp": "2025-05-03T03:15:34.012399+00:00Z", "free_bikes": 5, "empty_slots": 13, "extra": {"uid": 846, "address": "Via la Cuntrada", "zip": "6805", "city": "Mezzovico-Vira", "slots": 18, "ebikes": 3}}, {"id": "f33bdcea320d9d11054cf81933d8f591", "name": "Massagno", "latitude": 46.012555, "longitude": 8.943487, "timestamp": "2025-05-03T03:15:34.012277+00:00Z", "free_bikes": 6, "empty_slots": 74, "extra": {"uid": 289, "address": "via dei Platani,", "zip": "6908", "city": "Massagno", "slots": 80, "ebikes": 3}}, {"id": "f3bda4ba1e530b56a3f7a1858a0c0225", "name": "IBSA", "latitude": 45.97765, "longitude": 8.926757, "timestamp": "2025-05-03T03:15:34.012232+00:00Z", "free_bikes": 4, "empty_slots": 76, "extra": {"uid": 583, "address": "Via del Piano 7", "zip": "6926", "city": "Collina d'Oro", "slots": 80, "ebikes": 2}}, {"id": "fa20ed307414dd01fb3bc84319ee8795", "name": "Incrocio via Torraccia - via Cereda", "latitude": 45.84024833885875, "longitude": 8.997598436485646, "timestamp": "2025-05-03T03:15:34.012394+00:00Z", "free_bikes": 4, "empty_slots": 12, "extra": {"uid": 687, "address": "Via Torraccia 1", "zip": "6883", "city": "Novazzano", "slots": 16, "ebikes": 2}}, {"id": "fb722a536a07d9548f3fe47455f12070", "name": "Pregassona", "latitude": 46.02398, "longitude": 8.968292, "timestamp": "2025-05-03T03:15:34.012284+00:00Z", "free_bikes": 8, "empty_slots": 5, "extra": {"uid": 47, "address": "Via Terzerina", "zip": "6900", "city": "Lugano", "slots": 13, "ebikes": 7}}, {"id": "fc24741aa6420b97f27423c04a143cc8", "name": "Montagnola Piazza Brocchi", "latitude": 45.982056, "longitude": 8.918121, "timestamp": "2025-05-03T03:15:34.012132+00:00Z", "free_bikes": 0, "empty_slots": 80, "extra": {"uid": 288, "address": "Piazza Brocchi", "zip": "6926", "city": "Montagnola", "slots": 80, "ebikes": 0}}, {"id": "fc489bc192cbe5fac6987448bcb98e79", "name": "Lanchetta", "latitude": 46.006076, "longitude": 8.966775, "timestamp": "2025-05-03T03:15:34.011951+00:00Z", "free_bikes": 9, "empty_slots": 23, "extra": {"uid": 584, "address": "via delle Scuole", "zip": "6900", "city": "Lugano", "slots": 32, "ebikes": 1}}, {"id": "fea3ced539289b9d3187e44dccd85dbc", "name": "Mendrisio CPI", "latitude": 45.87216325637743, "longitude": 8.983528791038395, "timestamp": "2025-05-03T03:15:34.011864+00:00Z", "free_bikes": 7, "empty_slots": 14, "extra": {"uid": 685, "address": "Via Franco Zorzi", "zip": "6850", "city": "Mendrisio", "slots": 21, "ebikes": 3}}, {"id": "ff663af4f8f8d79c6ff552831aebf744", "name": "Molinazzo", "latitude": 46.012749, "longitude": 8.914699, "timestamp": "2025-05-03T03:15:34.012389+00:00Z", "free_bikes": 3, "empty_slots": 77, "extra": {"uid": 245, "address": "Via Longa", "zip": "6934", "city": "Bioggio", "slots": 80, "ebikes": 1}}]}