{"id": "publibike-region-de-nyon", "name": "PubliBike R\u00e9gion de Nyon", "location": {"latitude": 46.381706, "longitude": 6.240311, "city": "Nyon", "country": "CH"}, "href": "/v2/networks/publibike-region-de-nyon", "company": ["PubliBike AG"], "system": "PubliBike", "source": "https://api.publibike.ch/v1/static/api.html", "stations": [{"id": "00abdf86196441a49aed6720dad5c042", "name": "Gland, Gare Sud", "latitude": 46.420278, "longitude": 6.270556, "timestamp": "2025-05-03T03:15:33.805741+00:00Z", "free_bikes": 13, "empty_slots": 22, "extra": {"uid": 170, "address": "Rue du Perron 2", "zip": "1196", "city": "Gland", "slots": 35, "ebikes": 5}}, {"id": "070cadf8e424b59696bcd245371daf7b", "name": "Nyon, Ch\u00e2teau", "latitude": 46.381576302180214, "longitude": 6.240310145601514, "timestamp": "2025-05-03T03:15:33.806037+00:00Z", "free_bikes": 0, "empty_slots": 18, "extra": {"uid": 734, "address": "Rue Maupertuis 2", "zip": "1260", "city": "Nyon", "slots": 18, "ebikes": 0}}, {"id": "076bd8cb0414e7903b73adf6535e3314", "name": "Gland, Le Midi", "latitude": 46.417503, "longitude": 6.271244, "timestamp": "2025-05-03T03:15:33.805776+00:00Z", "free_bikes": 3, "empty_slots": 13, "extra": {"uid": 811, "address": "Rue du Midi", "zip": "1196", "city": "Gland", "slots": 16, "ebikes": 2}}, {"id": "0eb487372d48c2979950ca64492015a3", "name": "Gland, Montoly", "latitude": 46.42329, "longitude": 6.27557, "timestamp": "2025-05-03T03:15:33.805957+00:00Z", "free_bikes": 4, "empty_slots": 20, "extra": {"uid": 610, "address": "Chemin de Montoly 1", "zip": "1196", "city": "Gland", "slots": 24, "ebikes": 1}}, {"id": "17a8f654dbb43d6c277a90058f11f7fb", "name": "Vich, Poste", "latitude": 46.428783178554085, "longitude": 6.249760378428628, "timestamp": "2025-05-03T03:15:33.805813+00:00Z", "free_bikes": 0, "empty_slots": 22, "extra": {"uid": 850, "address": "Place Marcel Ponce", "zip": "1267", "city": "Vich", "slots": 22, "ebikes": 0}}, {"id": "1d35376f9af113325b96ce582e1ea835", "name": "Gland, Swissquote", "latitude": 46.417718, "longitude": 6.267441, "timestamp": "2025-05-03T03:15:33.805645+00:00Z", "free_bikes": 6, "empty_slots": 36, "extra": {"uid": 168, "address": "Chemin de la Cr\u00e9taux 2", "zip": "1196", "city": "Gland", "slots": 42, "ebikes": 2}}, {"id": "2567f3b749d5e53ceb51df18092110d3", "name": "Nyon, Gare L'Asse", "latitude": 46.401944, "longitude": 6.211667, "timestamp": "2025-05-03T03:15:33.805934+00:00Z", "free_bikes": 3, "empty_slots": 16, "extra": {"uid": 909, "address": "Route de Gingins 9", "zip": "1260", "city": "Nyon", "slots": 19, "ebikes": 1}}, {"id": "2c82a944c06028fc7f54039b83f4ea83", "name": "Gland, UICN", "latitude": 46.41609, "longitude": 6.278163, "timestamp": "2025-05-03T03:15:33.805514+00:00Z", "free_bikes": 0, "empty_slots": 18, "extra": {"uid": 171, "address": "Rue Mauverney 28", "zip": "1196", "city": "Gland", "slots": 18, "ebikes": 0}}, {"id": "2d33ff32c4081ccb7c7cadbb4312d0a3", "name": "Nyon, Piscine du Cossy", "latitude": 46.388983510293066, "longitude": 6.223670386094328, "timestamp": "2025-05-03T03:15:33.805759+00:00Z", "free_bikes": 10, "empty_slots": 11, "extra": {"uid": 732, "address": "Route de Signy 21", "zip": "1260", "city": "Nyon", "slots": 21, "ebikes": 2}}, {"id": "366a4e85914318920d1cae034aac7107", "name": "Nyon, La Levratte", "latitude": 46.387342, "longitude": 6.227582, "timestamp": "2025-05-03T03:15:33.805498+00:00Z", "free_bikes": 10, "empty_slots": 12, "extra": {"uid": 837, "address": "Av. Alfred Cortot", "zip": "1260", "city": "Nyon", "slots": 22, "ebikes": 8}}, {"id": "377b9dca9df8cd969a78c6ae89db1663", "name": "Grens, All\u00e9e des Moulins", "latitude": 46.399965, "longitude": 6.203576, "timestamp": "2025-05-03T03:15:33.805571+00:00Z", "free_bikes": 0, "empty_slots": 40, "extra": {"uid": 856, "address": "Chemin du Nant", "zip": "1274", "city": "Grens", "slots": 40, "ebikes": 0}}, {"id": "3ee7a7f7423363987eeb158ac1ba6eb2", "name": "Nyon, D\u00e9barcad\u00e8re", "latitude": 46.38278, "longitude": 6.24357, "timestamp": "2025-05-03T03:15:33.805670+00:00Z", "free_bikes": 15, "empty_slots": 27, "extra": {"uid": 161, "address": "Rue de Rive 24-28", "zip": "1260", "city": "Nyon", "slots": 42, "ebikes": 3}}, {"id": "44f41eebc8b1feb95076f324bfe6f62b", "name": "Nyon, Triangle de l'Etraz", "latitude": 46.39294, "longitude": 6.23856, "timestamp": "2025-05-03T03:15:33.805991+00:00Z", "free_bikes": 5, "empty_slots": 24, "extra": {"uid": 167, "address": "Route de l'Etraz 70", "zip": "1260", "city": "Nyon", "slots": 29, "ebikes": 5}}, {"id": "5cc50789d11cc5cadf741b4bb76b5d4d", "name": "Rolle, Gare", "latitude": 46.46264, "longitude": 6.33681, "timestamp": "2025-05-03T03:15:33.805624+00:00Z", "free_bikes": 7, "empty_slots": 31, "extra": {"uid": 730, "address": "Avenue de la gare 29", "zip": "1180", "city": "Rolle", "slots": 38, "ebikes": 0}}, {"id": "637776fe5252d75c88169715fe3732eb", "name": "Eysins, Vieux-Coll\u00e8ge", "latitude": 46.38065, "longitude": 6.20499, "timestamp": "2025-05-03T03:15:33.805787+00:00Z", "free_bikes": 6, "empty_slots": 31, "extra": {"uid": 598, "address": "Rue du Vieux-Coll\u00e8ge 3-1", "zip": "1262", "city": "Eysins", "slots": 37, "ebikes": 5}}, {"id": "66e949e5887a87e6cc0d4489f1104174", "name": "Gland, En Bord", "latitude": 46.42782864376307, "longitude": 6.276592047529303, "timestamp": "2025-05-03T03:15:33.805591+00:00Z", "free_bikes": 7, "empty_slots": 11, "extra": {"uid": 739, "address": "Chemin du Lavasson", "zip": "1196", "city": "Gland", "slots": 18, "ebikes": 4}}, {"id": "67f9397e20fe6d2073a8a9467f4b298f", "name": "Nyon, Hostel", "latitude": 46.39236, "longitude": 6.23137, "timestamp": "2025-05-03T03:15:33.805459+00:00Z", "free_bikes": 4, "empty_slots": 14, "extra": {"uid": 613, "address": "Chemin des Plantaz 27", "zip": "1260", "city": "Nyon", "slots": 18, "ebikes": 1}}, {"id": "731f28251830204983b3ee6f03468174", "name": "Mies, Gare", "latitude": 46.29934, "longitude": 6.16927, "timestamp": "2025-05-03T03:15:33.805543+00:00Z", "free_bikes": 6, "empty_slots": 10, "extra": {"uid": 607, "address": "Route de la gare", "zip": "1295", "city": "Mies", "slots": 16, "ebikes": 3}}, {"id": "757a8430e675d6506266dfa1c56c9012", "name": "Gland, La Falaise", "latitude": 46.41916420448668, "longitude": 6.288709722973113, "timestamp": "2025-05-03T03:15:33.805451+00:00Z", "free_bikes": 2, "empty_slots": 17, "extra": {"uid": 738, "address": "Chemin de la Falaise", "zip": "1196", "city": "Gland", "slots": 19, "ebikes": 1}}, {"id": "789a425f74d26112d23f3070ef106e0d", "name": "Eysins, Terre Bonne Park", "latitude": 46.38347, "longitude": 6.2137814, "timestamp": "2025-05-03T03:15:33.805607+00:00Z", "free_bikes": 0, "empty_slots": 38, "extra": {"uid": 162, "address": "Route de Crassier 13", "zip": "1262", "city": "Eysins", "slots": 38, "ebikes": 0}}, {"id": "790edc44eb454a986a2052e192e6ca80", "name": "Nyon, Stade de Colovray", "latitude": 46.370779, "longitude": 6.228414, "timestamp": "2025-05-03T03:15:33.805480+00:00Z", "free_bikes": 1, "empty_slots": 20, "extra": {"uid": 756, "address": "Route de Gen\u00e8ve 37", "zip": "1260", "city": "Nyon", "slots": 21, "ebikes": 0}}, {"id": "7caddf4e5476ea9d3aabe3d49d080beb", "name": "Nyon, H\u00f4pital", "latitude": 46.383066, "longitude": 6.225766, "timestamp": "2025-05-03T03:15:33.805583+00:00Z", "free_bikes": 5, "empty_slots": 33, "extra": {"uid": 211, "address": "Chemin de Monastier", "zip": "1260", "city": "Nyon", "slots": 38, "ebikes": 5}}, {"id": "827bf90107b9b5b569ec50582fa11377", "name": "Rolle, Camping", "latitude": 46.461609, "longitude": 6.346166, "timestamp": "2025-05-03T03:15:33.805654+00:00Z", "free_bikes": 3, "empty_slots": 18, "extra": {"uid": 733, "address": "Chemin de la Plage 4", "zip": "1180", "city": "Rolle", "slots": 21, "ebikes": 1}}, {"id": "8742df830606a2b13dda889c36968767", "name": "Rolle, Martinet", "latitude": 46.459494, "longitude": 6.333472, "timestamp": "2025-05-03T03:15:33.805576+00:00Z", "free_bikes": 5, "empty_slots": 16, "extra": {"uid": 767, "address": "Route des Quarte-Communes 7", "zip": "1180", "city": "Rolle", "slots": 21, "ebikes": 1}}, {"id": "88130e17a32ddd0dbf70a34d390db530", "name": "Gland, Eikenott", "latitude": 46.42708, "longitude": 6.26574, "timestamp": "2025-05-03T03:15:33.806004+00:00Z", "free_bikes": 5, "empty_slots": 19, "extra": {"uid": 737, "address": "All\u00e9e du Communet", "zip": "1196", "city": "Gland", "slots": 24, "ebikes": 3}}, {"id": "8b34237978d12d81589573bb7835a0d4", "name": "Nyon, Changins", "latitude": 46.3995398, "longitude": 6.2321083, "timestamp": "2025-05-03T03:15:33.805635+00:00Z", "free_bikes": 1, "empty_slots": 36, "extra": {"uid": 163, "address": "Domaine de Changins", "zip": "1260", "city": "Duillier", "slots": 37, "ebikes": 1}}, {"id": "8f41ba120693e8371715716c206fdb54", "name": "Mont-sur-Rolle, Bellefontaine", "latitude": 46.464141, "longitude": 6.348945, "timestamp": "2025-05-03T03:15:33.805754+00:00Z", "free_bikes": 0, "empty_slots": 22, "extra": {"uid": 888, "address": "Chem. du Levant 1", "zip": "1185", "city": "Mont-sur-Rolle", "slots": 22, "ebikes": 0}}, {"id": "99c07f50e5d0d42b2f3bc0997f9d27f6", "name": "Bursins, Place du Soleil", "latitude": 46.452185194140014, "longitude": 6.2910599793253486, "timestamp": "2025-05-03T03:15:33.805907+00:00Z", "free_bikes": 4, "empty_slots": 15, "extra": {"uid": 736, "address": "Place du Soleil", "zip": "1183", "city": "Bursins", "slots": 19, "ebikes": 4}}, {"id": "a2f892e4a822dbcd092b899515799091", "name": "Nyon, Gare Sud", "latitude": 46.38362, "longitude": 6.23574, "timestamp": "2025-05-03T03:15:33.805828+00:00Z", "free_bikes": 2, "empty_slots": 16, "extra": {"uid": 611, "address": "Rue de la gare 38", "zip": "1260", "city": "Nyon", "slots": 18, "ebikes": 0}}, {"id": "b1801a7eaedd670b7b041c8272f6d789", "name": "Nyon, La Plage", "latitude": 46.37679, "longitude": 6.23515, "timestamp": "2025-05-03T03:15:33.805383+00:00Z", "free_bikes": 2, "empty_slots": 20, "extra": {"uid": 612, "address": "Route de Gen\u00e8ve 12", "zip": "1260", "city": "Nyon", "slots": 22, "ebikes": 1}}, {"id": "b2e38a2a4c97991d38ef4d1a1a65db8b", "name": "Gland, La Ligni\u00e8re", "latitude": 46.425927, "longitude": 6.28774, "timestamp": "2025-05-03T03:15:33.805436+00:00Z", "free_bikes": 10, "empty_slots": 20, "extra": {"uid": 166, "address": "La Ligni\u00e8re", "zip": "1196", "city": "Gland", "slots": 30, "ebikes": 2}}, {"id": "b3bf15af856ea0937fc983d2c385dc15", "name": "Nyon, Gare Nord", "latitude": 46.38421, "longitude": 6.23491, "timestamp": "2025-05-03T03:15:33.805404+00:00Z", "free_bikes": 16, "empty_slots": 45, "extra": {"uid": 165, "address": "Route de Saint-Cergue 1", "zip": "1260", "city": "Nyon", "slots": 61, "ebikes": 3}}, {"id": "b9333d41e3aff450c1bd359824ba3bf9", "name": "Coppet, Rojalets", "latitude": 46.3221235178547, "longitude": 6.187826521431379, "timestamp": "2025-05-03T03:15:33.805819+00:00Z", "free_bikes": 2, "empty_slots": 20, "extra": {"uid": 753, "address": "Route de Founex", "zip": "1296", "city": "Coppet", "slots": 22, "ebikes": 0}}, {"id": "ba112e30c7516fb6445bc94cc4e4d8dc", "name": "Founex, village", "latitude": 46.33296, "longitude": 6.19293, "timestamp": "2025-05-03T03:15:33.805867+00:00Z", "free_bikes": 5, "empty_slots": 19, "extra": {"uid": 599, "address": "Grand-Rue 29", "zip": "1297", "city": "Founex", "slots": 24, "ebikes": 3}}, {"id": "c0efb62a777bda0878b8cbb77d3915e2", "name": "Chavannes-de-Bogis, Village", "latitude": 46.345477, "longitude": 6.162667, "timestamp": "2025-05-03T03:15:33.805713+00:00Z", "free_bikes": 1, "empty_slots": 23, "extra": {"uid": 765, "address": "Route de Bogis-Bossey 41", "zip": "1279", "city": "Chavannes-de-Bogis", "slots": 24, "ebikes": 1}}, {"id": "c3408f29b2ed5c9ef77abff9225e3739", "name": "Mont-sur-Rolle, Eglise", "latitude": 46.470818, "longitude": 6.336435, "timestamp": "2025-05-03T03:15:33.805469+00:00Z", "free_bikes": 2, "empty_slots": 17, "extra": {"uid": 764, "address": "Rue de Mont-le-Grand 1", "zip": "1185", "city": "Mont-sur-Rolle", "slots": 19, "ebikes": 0}}, {"id": "c7b1973bf9595996f9c61d1025b27996", "name": "Nyon, Place de Savoie", "latitude": 46.380297084312886, "longitude": 6.240987669660989, "timestamp": "2025-05-03T03:15:33.805878+00:00Z", "free_bikes": 5, "empty_slots": 17, "extra": {"uid": 731, "address": "Nyon, Place de Savoie", "zip": "1260", "city": "Nyon", "slots": 22, "ebikes": 1}}, {"id": "cb18b3ca952b9892302174e7bf6038e9", "name": "Coppet, Port", "latitude": 46.31526, "longitude": 6.19271, "timestamp": "2025-05-03T03:15:33.806011+00:00Z", "free_bikes": 1, "empty_slots": 26, "extra": {"uid": 606, "address": "Place des Ormes", "zip": "1296", "city": "Coppet", "slots": 27, "ebikes": 0}}, {"id": "cf4552a18581dfece6b086ec23d7c867", "name": "Mies, Administration", "latitude": 46.30442257745524, "longitude": 6.169752668043726, "timestamp": "2025-05-03T03:15:33.805888+00:00Z", "free_bikes": 6, "empty_slots": 15, "extra": {"uid": 735, "address": "Route de Veytey", "zip": "1295", "city": "Mies", "slots": 21, "ebikes": 5}}, {"id": "d60126497bd5849a527a644804e03ff8", "name": "Gland, La D\u00f4le", "latitude": 46.42121, "longitude": 6.26294, "timestamp": "2025-05-03T03:15:33.805924+00:00Z", "free_bikes": 4, "empty_slots": 18, "extra": {"uid": 608, "address": "Chemin de la D\u00f4le 15-11", "zip": "1196", "city": "Gland", "slots": 22, "ebikes": 2}}, {"id": "ddb004cef8787db43a05bf59b0de36c2", "name": "Gland, Grand'Rue", "latitude": 46.42391, "longitude": 6.26546, "timestamp": "2025-05-03T03:15:33.805839+00:00Z", "free_bikes": 6, "empty_slots": 15, "extra": {"uid": 609, "address": "Grand-Rue 38", "zip": "1196", "city": "Gland", "slots": 21, "ebikes": 5}}, {"id": "df2ffc05958a1057f47fc3d9b9fa3330", "name": "Gland, Les Tuilli\u00e8res", "latitude": 46.4223802, "longitude": 6.2585274, "timestamp": "2025-05-03T03:15:33.805732+00:00Z", "free_bikes": 3, "empty_slots": 21, "extra": {"uid": 169, "address": "Rue des Tuilli\u00e8res 1", "zip": "1196", "city": "Gland", "slots": 24, "ebikes": 3}}, {"id": "e24e625f42a5622e4c62b2204941f6e7", "name": "Rolle, by A-One", "latitude": 46.46063, "longitude": 6.32262, "timestamp": "2025-05-03T03:15:33.805537+00:00Z", "free_bikes": 2, "empty_slots": 33, "extra": {"uid": 605, "address": "Z. A. La Pi\u00e8ce 4", "zip": "1180", "city": "Rolle", "slots": 35, "ebikes": 2}}, {"id": "e2d699a9fd082323693c18ae3dcd1d85", "name": "Nyon, Petit Perdtemps", "latitude": 46.38356, "longitude": 6.23973, "timestamp": "2025-05-03T03:15:33.805999+00:00Z", "free_bikes": 2, "empty_slots": 25, "extra": {"uid": 614, "address": "Petit-Perdtemps", "zip": "1260", "city": "Nyon", "slots": 27, "ebikes": 1}}, {"id": "eb1bd349be547d74f0aad1d17df53493", "name": "Gland, Place Riant-Coteau", "latitude": 46.419162, "longitude": 6.282356, "timestamp": "2025-05-03T03:15:33.805688+00:00Z", "free_bikes": 7, "empty_slots": 19, "extra": {"uid": 810, "address": "Rue du Riant-Coteau", "zip": "1196", "city": "Gland", "slots": 26, "ebikes": 2}}, {"id": "ed42d4361fc3c7c6a33d38c3b5618361", "name": "Founex, Ecolint", "latitude": 46.33961592685363, "longitude": 6.171960914015045, "timestamp": "2025-05-03T03:15:33.805850+00:00Z", "free_bikes": 16, "empty_slots": 11, "extra": {"uid": 775, "address": "Chemin de la Ferme 2", "zip": "1297", "city": "Founex", "slots": 27, "ebikes": 13}}, {"id": "ee9b9129c374a18d4a0b67c5655f4f3d", "name": "Mies, Plage", "latitude": 46.304039, "longitude": 6.179519, "timestamp": "2025-05-03T03:15:33.805979+00:00Z", "free_bikes": 1, "empty_slots": 21, "extra": {"uid": 754, "address": "Route Suisse", "zip": "1295", "city": "Mies", "slots": 22, "ebikes": 0}}, {"id": "ef4cd67fae0025d674ed6ad34bb92dc9", "name": "Rolle, Ch\u00e2teau", "latitude": 46.45924, "longitude": 6.34011, "timestamp": "2025-05-03T03:15:33.805429+00:00Z", "free_bikes": 4, "empty_slots": 20, "extra": {"uid": 600, "address": "Place des Tilleuls", "zip": "1180", "city": "Rolle", "slots": 24, "ebikes": 2}}, {"id": "f5dbc6b10953362fa9be28a8d1e7ec39", "name": "Rolle, D\u00e9barcad\u00e8re", "latitude": 46.45543, "longitude": 6.336791, "timestamp": "2025-05-03T03:15:33.805561+00:00Z", "free_bikes": 2, "empty_slots": 28, "extra": {"uid": 601, "address": "Rue du Port", "zip": "1180", "city": "Rolle", "slots": 30, "ebikes": 1}}, {"id": "fa3a9b1d947b00f7c15d60b1b6271301", "name": "Coppet, Gare", "latitude": 46.3176389, "longitude": 6.188055555555556, "timestamp": "2025-05-03T03:15:33.805900+00:00Z", "free_bikes": 0, "empty_slots": 22, "extra": {"uid": 755, "address": "Place de la Gare 1", "zip": "1296", "city": "Coppet", "slots": 22, "ebikes": 0}}]}