{"id": "publibike-bern", "name": "PubliBike Bern", "location": {"latitude": 46.94841, "longitude": 7.43767, "city": "Bern", "country": "CH"}, "href": "/v2/networks/publibike-bern", "company": ["PubliBike AG"], "system": "PubliBike", "source": "https://api.publibike.ch/v1/static/api.html", "stations": [{"id": "0151824fca37ecf4a456d6557059981f", "name": "Sandrain", "latitude": 46.9313589644514, "longitude": 7.446041234885444, "timestamp": "2025-05-03T03:15:32.800574+00:00Z", "free_bikes": 9, "empty_slots": 71, "extra": {"uid": 670, "address": "Seftigenstrasse 186a", "zip": "3098", "city": "K\u00f6niz", "slots": 80, "ebikes": 4}}, {"id": "03671bf72a306dc85772e25964f3f17d", "name": "Stadtbachstrasse", "latitude": 46.949100687820106, "longitude": 7.433277786246504, "timestamp": "2025-05-03T03:15:32.800587+00:00Z", "free_bikes": 0, "empty_slots": 80, "extra": {"uid": 677, "address": "Pavillonweg 13", "zip": "3012", "city": "Bern", "slots": 80, "ebikes": 0}}, {"id": "0470cf4169762dfbaf8f3e1a54caaf3e", "name": "Kirchbergerstrasse", "latitude": 46.938845, "longitude": 7.4210796, "timestamp": "2025-05-03T03:15:32.800340+00:00Z", "free_bikes": 11, "empty_slots": 69, "extra": {"uid": 682, "address": "Kirchbergerstrasse 41", "zip": "3008", "city": "Bern", "slots": 80, "ebikes": 7}}, {"id": "04bc1832667e2151c1b170c5cef62af5", "name": "M\u00fchlenplatz", "latitude": 46.946839, "longitude": 7.4556, "timestamp": "2025-05-03T03:15:32.800729+00:00Z", "free_bikes": 16, "empty_slots": 16, "extra": {"uid": 555, "address": "Schifflaube 1", "zip": "3011", "city": "Bern", "slots": 32, "ebikes": 0}}, {"id": "04df2318fd030caad988df4393adbc6a", "name": "Europaplatz", "latitude": 46.9436036, "longitude": 7.4071777, "timestamp": "2025-05-03T03:15:32.800916+00:00Z", "free_bikes": 3, "empty_slots": 16, "extra": {"uid": 174, "address": "Freiburgstrasse 130", "zip": "3008", "city": "Bern", "slots": 19, "ebikes": 2}}, {"id": "05bc8c6951a5f706ed9408fbb7bc9d43", "name": "Lochacker Moosseedorf", "latitude": 47.012883, "longitude": 7.469947, "timestamp": "2025-05-03T03:15:32.800851+00:00Z", "free_bikes": 5, "empty_slots": 19, "extra": {"uid": 890, "address": "Lochackerweg 5", "zip": "3302", "city": "Moosseedorf", "slots": 24, "ebikes": 0}}, {"id": "05ccba92d6c4213aae919f51fe02e1f4", "name": "Bahnhof St\u00f6ckacker", "latitude": 46.946664, "longitude": 7.400752, "timestamp": "2025-05-03T03:15:32.800529+00:00Z", "free_bikes": 0, "empty_slots": 10, "extra": {"uid": 185, "address": "Untermattweg 36", "zip": "3027", "city": "Bern", "slots": 10, "ebikes": 0}}, {"id": "09b9557a58b65809224237d22fe20be0", "name": "Insel West", "latitude": 46.946544688600916, "longitude": 7.4207811103582495, "timestamp": "2025-05-03T03:15:32.800225+00:00Z", "free_bikes": 3, "empty_slots": 26, "extra": {"uid": 590, "address": "Friedb\u00fchlstrasse 52", "zip": "3008", "city": "Bern", "slots": 29, "ebikes": 1}}, {"id": "0a60d91944982c1aaed06989dce446d2", "name": "Allmendstrasse", "latitude": 46.9593467, "longitude": 7.4518043, "timestamp": "2025-05-03T03:15:32.800913+00:00Z", "free_bikes": 0, "empty_slots": 29, "extra": {"uid": 463, "address": "Allmendstrasse 24", "zip": "3014", "city": "Bern", "slots": 29, "ebikes": 0}}, {"id": "0ab665746ae9cbfa9d10db380616640f", "name": "Ostermundigen Bahnhof: provisorischer Standort bis Mai 2025", "latitude": 46.956504, "longitude": 7.482886, "timestamp": "2025-05-03T03:15:32.799978+00:00Z", "free_bikes": 3, "empty_slots": 77, "extra": {"uid": 824, "address": "Poststrasse 31", "zip": "3072", "city": "Ostermundigen", "slots": 80, "ebikes": 0}}, {"id": "0b2f22cdc4b155eaf0d88ea21a4fd4d8", "name": "Ka-We-De", "latitude": 46.935648, "longitude": 7.445895, "timestamp": "2025-05-03T03:15:32.800493+00:00Z", "free_bikes": 13, "empty_slots": -7, "extra": {"uid": 312, "address": "Jubil\u00e4umsstrasse 99", "zip": "3005", "city": "Bern", "slots": 6, "ebikes": 3}}, {"id": "0bc3703294975d87b6aa3ae609f781f5", "name": "Lorrainebr\u00fccke", "latitude": 46.9543451, "longitude": 7.4453536, "timestamp": "2025-05-03T03:15:32.800595+00:00Z", "free_bikes": 0, "empty_slots": 10, "extra": {"uid": 195, "address": "Lorrainestrasse 1", "zip": "3013", "city": "Bern", "slots": 10, "ebikes": 0}}, {"id": "0bd20d358faa40f04f3d24548870f511", "name": "Junkerngasse", "latitude": 46.9477995, "longitude": 7.454056, "timestamp": "2025-05-03T03:15:32.801037+00:00Z", "free_bikes": 10, "empty_slots": 11, "extra": {"uid": 472, "address": "Junkerngasse 30", "zip": "3011", "city": "Bern", "slots": 21, "ebikes": 0}}, {"id": "0bf2a0f275a55edc60c8acd7238e39c0", "name": "Mingerstrasse", "latitude": 46.95675, "longitude": 7.46789, "timestamp": "2025-05-03T03:15:32.800437+00:00Z", "free_bikes": 1, "empty_slots": 25, "extra": {"uid": 117, "address": "Mingerstrasse 20", "zip": "3006", "city": "Bern", "slots": 26, "ebikes": 0}}, {"id": "0c3ba75a116e11800fee107e61445c8c", "name": "Engehalde", "latitude": 46.9566007, "longitude": 7.4402185, "timestamp": "2025-05-03T03:15:32.800805+00:00Z", "free_bikes": 3, "empty_slots": 29, "extra": {"uid": 114, "address": "Engehaldenstrasse 26", "zip": "3012", "city": "Bern", "slots": 32, "ebikes": 0}}, {"id": "103b02d1cf52c22e29904f947bcb7e13", "name": "Marzilibad", "latitude": 46.9424453, "longitude": 7.4431193, "timestamp": "2025-05-03T03:15:32.800674+00:00Z", "free_bikes": 15, "empty_slots": 49, "extra": {"uid": 315, "address": "Marzilistrasse 29", "zip": "3005", "city": "Bern", "slots": 64, "ebikes": 0}}, {"id": "11a181c4856252a18563582afcee90c8", "name": "Guisanplatz Expo", "latitude": 46.958717, "longitude": 7.4646494, "timestamp": "2025-05-03T03:15:32.800870+00:00Z", "free_bikes": 0, "empty_slots": 64, "extra": {"uid": 212, "address": "Mingerstrasse 4", "zip": "3006", "city": "Bern", "slots": 64, "ebikes": 0}}, {"id": "11b88980d605ad70767904c3d6946525", "name": "Friedheimweg SECO", "latitude": 46.9364423, "longitude": 7.437876, "timestamp": "2025-05-03T03:15:32.800607+00:00Z", "free_bikes": 1, "empty_slots": 26, "extra": {"uid": 482, "address": "Friedheimweg 9f", "zip": "3007", "city": "Bern", "slots": 27, "ebikes": 1}}, {"id": "13f1f638f9e6f3fcde8d593bfbc50bda", "name": "Ostermundigerstrasse", "latitude": 46.95251, "longitude": 7.467399, "timestamp": "2025-05-03T03:15:32.800613+00:00Z", "free_bikes": 1, "empty_slots": 25, "extra": {"uid": 554, "address": "Ostermundigenstrasse 36", "zip": "3006", "city": "Bern", "slots": 26, "ebikes": 0}}, {"id": "14f0a49229c718fb04218d24b4b51ca5", "name": "Kasernenwiese", "latitude": 46.95860113643669, "longitude": 7.456935120256138, "timestamp": "2025-05-03T03:15:32.800375+00:00Z", "free_bikes": 0, "empty_slots": 10, "extra": {"uid": 194, "address": "Milit\u00e4rstrasse 42", "zip": "3014", "city": "Bern", "slots": 10, "ebikes": 0}}, {"id": "177f0887a41b05c4b9f524d11bc25f4c", "name": "Friedb\u00fchlstrasse", "latitude": 46.948011846616254, "longitude": 7.421892556487192, "timestamp": "2025-05-03T03:15:32.800222+00:00Z", "free_bikes": 0, "empty_slots": 10, "extra": {"uid": 307, "address": "Friedb\u00fchlstrasse 51", "zip": "3008", "city": "Bern", "slots": 10, "ebikes": 0}}, {"id": "17959be99265582061bc6338e745a3f2", "name": "Landoltstrasse", "latitude": 46.93718143594243, "longitude": 7.4393978740610605, "timestamp": "2025-05-03T03:15:32.800448+00:00Z", "free_bikes": 19, "empty_slots": 10, "extra": {"uid": 592, "address": "B\u00fcrenstrasse 1", "zip": "3007", "city": "Bern", "slots": 29, "ebikes": 2}}, {"id": "1836ed46afb94fab194bec8547c8411c", "name": "Viktoriaplatz", "latitude": 46.95518301852439, "longitude": 7.451799078591182, "timestamp": "2025-05-03T03:15:32.799982+00:00Z", "free_bikes": 0, "empty_slots": 10, "extra": {"uid": 188, "address": "Beundenfeldstrasse 2", "zip": "3013", "city": "Bern", "slots": 10, "ebikes": 0}}, {"id": "18c14d55817bbf18e5568d621d0bea7e", "name": "UPD Restaurant", "latitude": 46.96629170335004, "longitude": 7.48318298315503, "timestamp": "2025-05-03T03:15:32.800167+00:00Z", "free_bikes": 0, "empty_slots": 80, "extra": {"uid": 814, "address": "UPD Bern", "zip": "3000", "city": "Bern", "slots": 80, "ebikes": 0}}, {"id": "1e263a70d4cd3cf25915c834019fdd69", "name": "Ringoltingenstrasse", "latitude": 46.9366583, "longitude": 7.4679887, "timestamp": "2025-05-03T03:15:32.800082+00:00Z", "free_bikes": 11, "empty_slots": -1, "extra": {"uid": 261, "address": "Ringoltingenstrasse 21", "zip": "3006", "city": "Bern", "slots": 10, "ebikes": 5}}, {"id": "1e95a07c0f608462c86ed85456a2acd8", "name": "Br\u00fcnnenstrasse", "latitude": 46.9427868, "longitude": 7.3870759, "timestamp": "2025-05-03T03:15:32.800360+00:00Z", "free_bikes": 1, "empty_slots": 25, "extra": {"uid": 589, "address": "Br\u00fcnnenstrasse 80", "zip": "3018", "city": "Bern", "slots": 26, "ebikes": 1}}, {"id": "1eef86b97c9d22a0c7a60994dc41be98", "name": "Gymnasium Neufeld", "latitude": 46.95884778357857, "longitude": 7.429204058387358, "timestamp": "2025-05-03T03:15:32.800321+00:00Z", "free_bikes": 0, "empty_slots": 80, "extra": {"uid": 835, "address": "Bremgartenstrasse 133", "zip": "3012", "city": "Bern", "slots": 80, "ebikes": 0}}, {"id": "1f115611c61b734420831b351214e4c6", "name": "Th\u00f6rishaus Dorf SBB SwissBikePark", "latitude": 46.8934148092464, "longitude": 7.3518540937205685, "timestamp": "2025-05-03T03:15:32.800680+00:00Z", "free_bikes": 6, "empty_slots": 74, "extra": {"uid": 829, "address": "Sensemattstrasse 21", "zip": "3174", "city": "Th\u00f6rishaus", "slots": 80, "ebikes": 5}}, {"id": "1f13b172beba1d74ec57fa8edd7e9da8", "name": "Wankdorf Bhf S\u00fcd", "latitude": 46.9665865, "longitude": 7.4639627, "timestamp": "2025-05-03T03:15:32.799992+00:00Z", "free_bikes": 1, "empty_slots": 25, "extra": {"uid": 196, "address": "Wankdorffeldstrasse 2", "zip": "3014", "city": "Bern", "slots": 26, "ebikes": 0}}, {"id": "1f3dc0b711a6e4159c54c709b57d29b4", "name": "Kasernenstrasse HKB", "latitude": 46.9552642, "longitude": 7.4593279, "timestamp": "2025-05-03T03:15:32.800429+00:00Z", "free_bikes": 0, "empty_slots": 10, "extra": {"uid": 193, "address": "Kasernenstrasse 13k", "zip": "3014", "city": "Bern", "slots": 10, "ebikes": 0}}, {"id": "1f6bd734af12a6c34daa1acac7ca0f80", "name": "Fussg\u00e4ngerzone B\u00fcmpliz", "latitude": 46.941794, "longitude": 7.390649, "timestamp": "2025-05-03T03:15:32.800509+00:00Z", "free_bikes": 0, "empty_slots": 32, "extra": {"uid": 828, "address": "B\u00fcmplizstrasse 112", "zip": "3000", "city": "Bern", "slots": 32, "ebikes": 0}}, {"id": "1f6ef7ac96ef49f63474b978c78ccfbe", "name": "Burgernziel", "latitude": 46.941479, "longitude": 7.466444, "timestamp": "2025-05-03T03:15:32.800133+00:00Z", "free_bikes": 3, "empty_slots": 7, "extra": {"uid": 347, "address": "Muristrasse 64", "zip": "3006", "city": "Bern", "slots": 10, "ebikes": 3}}, {"id": "1fa085d9394a9c92eb2a0dbeedab5772", "name": "Monbijoustrasse", "latitude": 46.9410334, "longitude": 7.4359176, "timestamp": "2025-05-03T03:15:32.800994+00:00Z", "free_bikes": 13, "empty_slots": -3, "extra": {"uid": 318, "address": "Monbijoustrasse 61", "zip": "3007", "city": "Bern", "slots": 10, "ebikes": 0}}, {"id": "1fa3e7d334958f02ba3a94e7fb27a83a", "name": "Schwarztorstrasse", "latitude": 46.9446088, "longitude": 7.4290739, "timestamp": "2025-05-03T03:15:32.800780+00:00Z", "free_bikes": 3, "empty_slots": 23, "extra": {"uid": 596, "address": "Schwarztorstrasse 71", "zip": "3007", "city": "Bern", "slots": 26, "ebikes": 0}}, {"id": "20eb6133d94a87fd948fa75800a9c115", "name": "Stadion Wankdorf", "latitude": 46.96274, "longitude": 7.46276, "timestamp": "2025-05-03T03:15:32.800325+00:00Z", "free_bikes": 0, "empty_slots": 8, "extra": {"uid": 182, "address": "Morgartenstrasse 1", "zip": "3014", "city": "Bern", "slots": 8, "ebikes": 0}}, {"id": "22c57aac4fa675fd1b620de4457c27a4", "name": "Casinoplatz", "latitude": 46.9465196, "longitude": 7.4481457, "timestamp": "2025-05-03T03:15:32.801026+00:00Z", "free_bikes": 0, "empty_slots": 80, "extra": {"uid": 293, "address": "Casinoplatz 3", "zip": "3011", "city": "Bern", "slots": 80, "ebikes": 0}}, {"id": "2340ee25ad0d6cd7644cf00b73ae9ccb", "name": "Statthalterstrasse", "latitude": 46.9393577, "longitude": 7.3863865, "timestamp": "2025-05-03T03:15:32.800668+00:00Z", "free_bikes": 9, "empty_slots": -3, "extra": {"uid": 175, "address": "Freieckweg 2", "zip": "3018", "city": "Bern", "slots": 6, "ebikes": 5}}, {"id": "236b55bf9cf2a17c30a8fbb5f37aad20", "name": "Weberstrasse", "latitude": 46.93987160970557, "longitude": 7.425113039012359, "timestamp": "2025-05-03T03:15:32.800685+00:00Z", "free_bikes": 2, "empty_slots": 78, "extra": {"uid": 681, "address": "Weberstrasse 25", "zip": "3007", "city": "Bern", "slots": 80, "ebikes": 0}}, {"id": "238f846d1aeda28b6b28fa55154fef38", "name": "G\u00fcterstrasse (verschoben wegen Baustelle)", "latitude": 46.947801, "longitude": 7.416722, "timestamp": "2025-05-03T03:15:32.800862+00:00Z", "free_bikes": 0, "empty_slots": 80, "extra": {"uid": 834, "address": "G\u00fcterstrasse 21-9", "zip": "3008", "city": "Bern", "slots": 80, "ebikes": 0}}, {"id": "243bb9840c07d30e34aba4d255a40d11", "name": "Depotstrasse", "latitude": 46.9501048, "longitude": 7.4283779, "timestamp": "2025-05-03T03:15:32.800809+00:00Z", "free_bikes": 3, "empty_slots": 24, "extra": {"uid": 474, "address": "Depotstrasse 2", "zip": "3012", "city": "Bern", "slots": 27, "ebikes": 2}}, {"id": "283110dfce8da4479f70fb3427234bf4", "name": "Post IT Zollikofen", "latitude": 47.00268, "longitude": 7.44109, "timestamp": "2025-05-03T03:15:32.800591+00:00Z", "free_bikes": 2, "empty_slots": 14, "extra": {"uid": 319, "address": "Webergutstrasse 12", "zip": "3052", "city": "Zollikofen", "slots": 16, "ebikes": 2}}, {"id": "28433113cc07be185cbe4864b5072d62", "name": "Stauffacherplatz", "latitude": 46.960116251597235, "longitude": 7.454334866797193, "timestamp": "2025-05-03T03:15:32.799996+00:00Z", "free_bikes": 4, "empty_slots": 6, "extra": {"uid": 191, "address": "Scheibenstrasse 13", "zip": "3014", "city": "Bern", "slots": 10, "ebikes": 0}}, {"id": "28e391ce74d5c4f70dc32c888a970049", "name": "Kocherpark", "latitude": 46.9460279, "longitude": 7.4332165, "timestamp": "2025-05-03T03:15:32.800813+00:00Z", "free_bikes": 0, "empty_slots": 6, "extra": {"uid": 317, "address": "Effingerstrasse 27", "zip": "3008", "city": "Bern", "slots": 6, "ebikes": 0}}, {"id": "2a69080c8fa8d2f0ac85038c943721e0", "name": "Fabrikstrasse (verschoben nach L\u00e4nggassstrasse)", "latitude": 46.956024, "longitude": 7.425813, "timestamp": "2025-05-03T03:15:32.799988+00:00Z", "free_bikes": 2, "empty_slots": 11, "extra": {"uid": 201, "address": "Muesmatt", "zip": "3012", "city": "Bern", "slots": 13, "ebikes": 1}}, {"id": "2ac8d1839df557a165df99107366f8ee", "name": "Schwimmhalle Neufeld", "latitude": 46.96079848478852, "longitude": 7.433964120753491, "timestamp": "2025-05-03T03:15:32.800831+00:00Z", "free_bikes": 1, "empty_slots": 79, "extra": {"uid": 883, "address": "Neubr\u00fcckstrasse 133", "zip": "3012", "city": "Bern", "slots": 80, "ebikes": 1}}, {"id": "2e2de73b01c60ee9416343811f7cde5b", "name": "Neuhausplatz", "latitude": 46.92903811738819, "longitude": 7.417226193945767, "timestamp": "2025-05-03T03:15:32.800056+00:00Z", "free_bikes": 4, "empty_slots": 28, "extra": {"uid": 417, "address": "K\u00f6nizstrasse 249", "zip": "3097", "city": "K\u00f6niz", "slots": 32, "ebikes": 2}}, {"id": "2e3cd191bd5b1303ee47d9e1e59ad87b", "name": "Thunplatz", "latitude": 46.9403, "longitude": 7.458608, "timestamp": "2025-05-03T03:15:32.800460+00:00Z", "free_bikes": 0, "empty_slots": 10, "extra": {"uid": 352, "address": "Thunplatz 52", "zip": "3005", "city": "Bern", "slots": 10, "ebikes": 0}}, {"id": "2e992d2c28bb15ef1ccb01875a8a5f6f", "name": "Museen Bernastrasse", "latitude": 46.941383, "longitude": 7.448788, "timestamp": "2025-05-03T03:15:32.799971+00:00Z", "free_bikes": 8, "empty_slots": 32, "extra": {"uid": 597, "address": "Bernastrasse 23", "zip": "3005", "city": "Bern", "slots": 40, "ebikes": 1}}, {"id": "2eb4a9fd049a7203be0e8dc9d9126855", "name": "M\u00fcnster", "latitude": 46.9475304, "longitude": 7.4521275, "timestamp": "2025-05-03T03:15:32.800200+00:00Z", "free_bikes": 1, "empty_slots": 18, "extra": {"uid": 475, "address": "M\u00fcnstergasse 2", "zip": "3011", "city": "Bern", "slots": 19, "ebikes": 0}}, {"id": "2f0742d3b87556dc85fb4a1988381025", "name": "St\u00e4mpflistrasse", "latitude": 46.9432858, "longitude": 7.4144036, "timestamp": "2025-05-03T03:15:32.800559+00:00Z", "free_bikes": 4, "empty_slots": 23, "extra": {"uid": 485, "address": "Stoosstrasse 2", "zip": "3008", "city": "Bern", "slots": 27, "ebikes": 0}}, {"id": "2f9419ea1fec866f84506ded97eafa7c", "name": "Luisenstrasse", "latitude": 46.942351, "longitude": 7.452777, "timestamp": "2025-05-03T03:15:32.800772+00:00Z", "free_bikes": 3, "empty_slots": 26, "extra": {"uid": 547, "address": "Luisenstrasse 18", "zip": "3005", "city": "Bern", "slots": 29, "ebikes": 0}}, {"id": "30a96a0181e42943293e913db165010b", "name": "Unitobler West", "latitude": 46.9541456, "longitude": 7.4307168, "timestamp": "2025-05-03T03:15:32.800921+00:00Z", "free_bikes": 0, "empty_slots": 10, "extra": {"uid": 224, "address": "Lerchenweg 37", "zip": "3012", "city": "Bern", "slots": 10, "ebikes": 0}}, {"id": "30b0547438755831d4789afbf4289210", "name": "Elfenauweg", "latitude": 46.939462, "longitude": 7.46973, "timestamp": "2025-05-03T03:15:32.800873+00:00Z", "free_bikes": 10, "empty_slots": 19, "extra": {"uid": 546, "address": "Elfenauweg 6a", "zip": "3006", "city": "Bern", "slots": 29, "ebikes": 8}}, {"id": "31e00e0dcf36a6abafa98e35ac3a9bcf", "name": "Fellerstrasse", "latitude": 46.94694772769555, "longitude": 7.388948353838325, "timestamp": "2025-05-03T03:15:32.800901+00:00Z", "free_bikes": 1, "empty_slots": 18, "extra": {"uid": 465, "address": "Fellerstrasse 30", "zip": "3027", "city": "Bern", "slots": 19, "ebikes": 1}}, {"id": "324c46019ccb3a3bcca8f2f94b3d4fd9", "name": "Tellstrasse EJPD", "latitude": 46.9603316, "longitude": 7.4614522, "timestamp": "2025-05-03T03:15:32.800473+00:00Z", "free_bikes": 1, "empty_slots": 9, "extra": {"uid": 190, "address": "Wankdorfstrasse 1", "zip": "3014", "city": "Bern", "slots": 10, "ebikes": 1}}, {"id": "33f7776e0d89aaefd66d08f8b48ee276", "name": "Stapfenacker", "latitude": 46.9439259, "longitude": 7.3853056, "timestamp": "2025-05-03T03:15:32.800568+00:00Z", "free_bikes": 9, "empty_slots": 1, "extra": {"uid": 296, "address": "Br\u00fcnnenstrasse 61", "zip": "3018", "city": "Bern", "slots": 10, "ebikes": 4}}, {"id": "346a9fde6bda64cc8af0f97be6db4b39", "name": "Waldmeisterstrasse", "latitude": 46.9399346, "longitude": 7.3825121, "timestamp": "2025-05-03T03:15:32.800009+00:00Z", "free_bikes": 12, "empty_slots": -2, "extra": {"uid": 299, "address": "Waldmeisterstrasse 36", "zip": "3018", "city": "Bern", "slots": 10, "ebikes": 11}}, {"id": "348d60da6ae957b7f96f2e5c70015431", "name": "Wabern Bahnhof", "latitude": 46.92878380186514, "longitude": 7.446101, "timestamp": "2025-05-03T03:15:32.800523+00:00Z", "free_bikes": 9, "empty_slots": 23, "extra": {"uid": 418, "address": "Bahnhofstrasse 16", "zip": "3084", "city": "K\u00f6niz", "slots": 32, "ebikes": 7}}, {"id": "348e3f2bbde9e8eba21a8e8928013ab3", "name": "Kirche St. Antonius", "latitude": 46.93992, "longitude": 7.3950333, "timestamp": "2025-05-03T03:15:32.800370+00:00Z", "free_bikes": 13, "empty_slots": 11, "extra": {"uid": 467, "address": "Morgenstrasse 56", "zip": "3018", "city": "Bern", "slots": 24, "ebikes": 4}}, {"id": "34c7c2b2e93c5f95549084574a7a9406", "name": "Zentweg", "latitude": 46.95548253215054, "longitude": 7.476904610773494, "timestamp": "2025-05-03T03:15:32.800617+00:00Z", "free_bikes": 1, "empty_slots": 5, "extra": {"uid": 256, "address": "Zentweg 23", "zip": "3006", "city": "Bern", "slots": 6, "ebikes": 0}}, {"id": "35819184a065283f3ab99cec1658be00", "name": "Loryplatz", "latitude": 46.944672, "longitude": 7.422308, "timestamp": "2025-05-03T03:15:32.801058+00:00Z", "free_bikes": 9, "empty_slots": 20, "extra": {"uid": 553, "address": "K\u00f6nizstrasse 6", "zip": "3008", "city": "Bern", "slots": 29, "ebikes": 1}}, {"id": "36f6d6c082607fe65c968a9b78339c01", "name": "Hallerstrasse", "latitude": 46.9524539, "longitude": 7.4354213, "timestamp": "2025-05-03T03:15:32.800626+00:00Z", "free_bikes": 0, "empty_slots": 10, "extra": {"uid": 231, "address": "Hallerstrasse 9", "zip": "3012", "city": "Bern", "slots": 10, "ebikes": 0}}, {"id": "38fbd315801b9b5c2d60e03cd14c7e31", "name": "Technopark", "latitude": 46.935853071517315, "longitude": 7.390354333129826, "timestamp": "2025-05-03T03:15:32.800229+00:00Z", "free_bikes": 4, "empty_slots": 6, "extra": {"uid": 176, "address": "Weidgasse 2", "zip": "3018", "city": "Bern", "slots": 10, "ebikes": 2}}, {"id": "3c400cb1396b8fd531fc32ff266939e9", "name": "Zehenderm\u00e4tteli", "latitude": 46.97977354947435, "longitude": 7.443923763945266, "timestamp": "2025-05-03T03:15:32.800196+00:00Z", "free_bikes": 2, "empty_slots": 78, "extra": {"uid": 911, "address": "Reichenbachstrasse 161", "zip": "3004", "city": "Bern", "slots": 80, "ebikes": 2}}, {"id": "3d41629571a078c288025ea9343ef6e9", "name": "UPD", "latitude": 46.96526082670581, "longitude": 7.481022157938033, "timestamp": "2025-05-03T03:15:32.800159+00:00Z", "free_bikes": 0, "empty_slots": 80, "extra": {"uid": 815, "address": "Bolligenstrasse 111", "zip": "3000", "city": "Bern", "slots": 80, "ebikes": 0}}, {"id": "3e88e0afaa76a758c9100fc575096cb4", "name": "Liebefeld Park", "latitude": 46.92962527658024, "longitude": 7.4209414544658925, "timestamp": "2025-05-03T03:15:32.799985+00:00Z", "free_bikes": 1, "empty_slots": 79, "extra": {"uid": 665, "address": "B\u00fcndenackerstrasse 1", "zip": "3098", "city": "K\u00f6niz", "slots": 80, "ebikes": 0}}, {"id": "3ebd0f6e9c9f102ad8320703e57493f5", "name": "RBS Moosseedorf", "latitude": 47.015385, "longitude": 7.48331, "timestamp": "2025-05-03T03:15:32.800178+00:00Z", "free_bikes": 14, "empty_slots": 18, "extra": {"uid": 889, "address": "Sandstrasse 9", "zip": "3302", "city": "Moosseedorf", "slots": 32, "ebikes": 9}}, {"id": "3fdbbc6d54db4ba59ffd3caad7015da4", "name": "Hauptgeb\u00e4ude Uni Bern", "latitude": 46.9506632, "longitude": 7.4370414, "timestamp": "2025-05-03T03:15:32.801016+00:00Z", "free_bikes": 0, "empty_slots": 16, "extra": {"uid": 223, "address": "Falkenplatz 4", "zip": "3012", "city": "Bern", "slots": 16, "ebikes": 0}}, {"id": "41112426d190ed4ffd508006c0c92a58", "name": "Breitenrainplatz", "latitude": 46.9579458, "longitude": 7.4537747, "timestamp": "2025-05-03T03:15:32.800006+00:00Z", "free_bikes": 0, "empty_slots": 26, "extra": {"uid": 497, "address": "Moserstrasse 33", "zip": "3013", "city": "Bern", "slots": 26, "ebikes": 0}}, {"id": "417eba63ab56cdd89f4eff3ccdbe9db5", "name": "Bahnhof B\u00fcmpliz S\u00fcd", "latitude": 46.9378963, "longitude": 7.3954739, "timestamp": "2025-05-03T03:15:32.800258+00:00Z", "free_bikes": 5, "empty_slots": 8, "extra": {"uid": 181, "address": "B\u00fcmplizstrasse 187", "zip": "3018", "city": "Bern", "slots": 13, "ebikes": 0}}, {"id": "41de4e36218146e5fa473e3ce6a7aa6a", "name": "Geisshubel Zollikofen", "latitude": 46.99996912619948, "longitude": 7.442087059202756, "timestamp": "2025-05-03T03:15:32.800350+00:00Z", "free_bikes": 5, "empty_slots": 75, "extra": {"uid": 667, "address": "Im Kl\u00e4yhof 2", "zip": "3052", "city": "Zollikofen", "slots": 80, "ebikes": 5}}, {"id": "42204a301873d05fcb64f97f8d4cbe5d", "name": "Oberbottigen", "latitude": 46.9353829, "longitude": 7.3500931, "timestamp": "2025-05-03T03:15:32.800455+00:00Z", "free_bikes": 6, "empty_slots": 74, "extra": {"uid": 895, "address": "Hausmattweg 291", "zip": "3019", "city": "Bern", "slots": 80, "ebikes": 6}}, {"id": "437d8d15a7dd9cceb340feae36c6bc29", "name": "Wittigkofen", "latitude": 46.938446718314495, "longitude": 7.4808033698062095, "timestamp": "2025-05-03T03:15:32.800963+00:00Z", "free_bikes": 6, "empty_slots": 74, "extra": {"uid": 841, "address": "Jupiterstrasse 1", "zip": "3015", "city": "Bern", "slots": 80, "ebikes": 5}}, {"id": "43c50213151725e9e9d8f42918ca1c52", "name": "Kleeplatz / Bollwerk", "latitude": 46.951897864484735, "longitude": 7.442042659901252, "timestamp": "2025-05-03T03:15:32.800337+00:00Z", "free_bikes": 1, "empty_slots": 25, "extra": {"uid": 663, "address": "Bollwerk 41", "zip": "3011", "city": "Bern", "slots": 26, "ebikes": 1}}, {"id": "43d2e9e287678b8aae3f38b35c2b9b4f", "name": "Westside", "latitude": 46.9439597, "longitude": 7.3746103, "timestamp": "2025-05-03T03:15:32.800262+00:00Z", "free_bikes": 2, "empty_slots": 11, "extra": {"uid": 198, "address": "Riedbachstrasse 96", "zip": "3027", "city": "Bern", "slots": 13, "ebikes": 0}}, {"id": "442d077d7568aa6a42c0b2daa2bffbd4", "name": "Rathausgasse", "latitude": 46.948471616973904, "longitude": 7.450529302235038, "timestamp": "2025-05-03T03:15:32.800463+00:00Z", "free_bikes": 2, "empty_slots": 78, "extra": {"uid": 683, "address": "Rathausgasse 31", "zip": "3000", "city": "Bern", "slots": 80, "ebikes": 0}}, {"id": "45f2bf573c156a6a769d5d3581c4fe78", "name": "Station Sternen Muri: verschoben wegen Baustelle (siehe App)", "latitude": 46.93131125166066, "longitude": 7.485301454583889, "timestamp": "2025-05-03T03:15:32.800211+00:00Z", "free_bikes": 10, "empty_slots": 70, "extra": {"uid": 673, "address": "Thunstrasse 74a", "zip": "3074", "city": "Muri", "slots": 80, "ebikes": 10}}, {"id": "46afd40f763bc6a69b6b1fc4619f9fd2", "name": "Wallgasse", "latitude": 46.94626, "longitude": 7.43804, "timestamp": "2025-05-03T03:15:32.800265+00:00Z", "free_bikes": 0, "empty_slots": 13, "extra": {"uid": 214, "address": "Wallgasse 3", "zip": "3011", "city": "Bern", "slots": 13, "ebikes": 0}}, {"id": "46fec0c84acaa73fab3e225943263e23", "name": "Wander", "latitude": 46.9371912, "longitude": 7.4360892, "timestamp": "2025-05-03T03:15:32.800243+00:00Z", "free_bikes": 12, "empty_slots": -2, "extra": {"uid": 300, "address": "Weissenb\u00fchlweg 36", "zip": "3007", "city": "Bern", "slots": 10, "ebikes": 2}}, {"id": "48d3bbe099049695f3867bfbae0f99e0", "name": "Breitenrainstrasse", "latitude": 46.957107, "longitude": 7.450851, "timestamp": "2025-05-03T03:15:32.800483+00:00Z", "free_bikes": 0, "empty_slots": 32, "extra": {"uid": 551, "address": "Optingenstrasse 53-47", "zip": "3013", "city": "Bern", "slots": 32, "ebikes": 0}}, {"id": "49e77f2ff7ea785b10f87a307f1b6021", "name": "PostAuto Engehalde", "latitude": 46.95752776631194, "longitude": 7.440576239521807, "timestamp": "2025-05-03T03:15:32.800846+00:00Z", "free_bikes": 7, "empty_slots": 33, "extra": {"uid": 119, "address": "Engehaldenstrasse 37", "zip": "3012", "city": "Bern", "slots": 40, "ebikes": 0}}, {"id": "4a4308a925e6834df6fd96c0fb99f409", "name": "Holenackerstrasse", "latitude": 46.94941743287729, "longitude": 7.381454366484235, "timestamp": "2025-05-03T03:15:32.800757+00:00Z", "free_bikes": 22, "empty_slots": 58, "extra": {"uid": 177, "address": "Holenackerstrasse 24", "zip": "3027", "city": "Bern", "slots": 80, "ebikes": 11}}, {"id": "4aa30906cbec51f3a0cfbe91af01a563", "name": "Zentrum Paul Klee", "latitude": 46.95099, "longitude": 7.4726263, "timestamp": "2025-05-03T03:15:32.800096+00:00Z", "free_bikes": 0, "empty_slots": 10, "extra": {"uid": 303, "address": "Undo-endo 24a", "zip": "3006", "city": "Bern", "slots": 10, "ebikes": 0}}, {"id": "4b0cbfa29286df6ed8a018f8c1782403", "name": "Sporthalle Weissenstein", "latitude": 46.9371056, "longitude": 7.4178248, "timestamp": "2025-05-03T03:15:32.800933+00:00Z", "free_bikes": 3, "empty_slots": 7, "extra": {"uid": 295, "address": "Hardeggerstrasse 1", "zip": "3008", "city": "Bern", "slots": 10, "ebikes": 3}}, {"id": "4c468ce54816e99af78c56f753735348", "name": "Speichergasse PROGR", "latitude": 46.94970199819606, "longitude": 7.44441499979321, "timestamp": "2025-05-03T03:15:32.800563+00:00Z", "free_bikes": 0, "empty_slots": 10, "extra": {"uid": 252, "address": "Waisenhausplatz 28", "zip": "3011", "city": "Bern", "slots": 10, "ebikes": 0}}, {"id": "4ee81b2e301413e1af3e0f25da1f8808", "name": "Waisenhausplatz", "latitude": 46.9490849, "longitude": 7.4444363, "timestamp": "2025-05-03T03:15:32.800003+00:00Z", "free_bikes": 0, "empty_slots": 10, "extra": {"uid": 250, "address": "Waisenhausplatz 21", "zip": "3011", "city": "Bern", "slots": 10, "ebikes": 0}}, {"id": "4f0b954e38a77bae7756ef161112ae7f", "name": "SBB Poststrasse", "latitude": 46.956956, "longitude": 7.48287, "timestamp": "2025-05-03T03:15:32.800818+00:00Z", "free_bikes": 0, "empty_slots": 13, "extra": {"uid": 121, "address": "Poststrasse 5", "zip": "3072", "city": "Ostermundigen", "slots": 13, "ebikes": 0}}, {"id": "4f483b24c78de5ebc844f2b5153c50b4", "name": "Kleine Schanze", "latitude": 46.9459831, "longitude": 7.4394178, "timestamp": "2025-05-03T03:15:32.800116+00:00Z", "free_bikes": 0, "empty_slots": 59, "extra": {"uid": 476, "address": "Schwanengasse 14", "zip": "3011", "city": "Bern", "slots": 59, "ebikes": 0}}, {"id": "4feb6e0eaf47ebb2f01a1201cd75f783", "name": "Tellplatz", "latitude": 46.9618565, "longitude": 7.4592662, "timestamp": "2025-05-03T03:15:32.800407+00:00Z", "free_bikes": 0, "empty_slots": 8, "extra": {"uid": 189, "address": "Tellstrasse 20", "zip": "3014", "city": "Bern", "slots": 8, "ebikes": 0}}, {"id": "4fee31c26cd48e962201dbacc61486ec", "name": "Merzenacker", "latitude": 46.946852812713296, "longitude": 7.483654624791477, "timestamp": "2025-05-03T03:15:32.800125+00:00Z", "free_bikes": 8, "empty_slots": 24, "extra": {"uid": 680, "address": "Obere Zollgasse 94", "zip": "3006", "city": "Bern", "slots": 32, "ebikes": 8}}, {"id": "502458f6125c1ff5dc8a1b91d5dc93de", "name": "Dampfzentrale", "latitude": 46.9406928, "longitude": 7.4431488, "timestamp": "2025-05-03T03:15:32.800692+00:00Z", "free_bikes": 17, "empty_slots": 4, "extra": {"uid": 478, "address": "Marzilistrasse 45", "zip": "3005", "city": "Bern", "slots": 21, "ebikes": 1}}, {"id": "5330b768f93f33710b7a74d05d0de44a", "name": "Open 07:00 - 18:00 In der Velostation Schanzenbr\u00fccke", "latitude": 46.949233, "longitude": 7.436822, "timestamp": "2025-05-03T03:15:32.800982+00:00Z", "free_bikes": 6, "empty_slots": 74, "extra": {"uid": 648, "address": "Velostation Parkterrasse", "zip": "3012", "city": "Bern", "slots": 80, "ebikes": 6}}, {"id": "5536b9b30bab9f8dc49d774134fb2a0c", "name": "Niederwangen Bahnhof", "latitude": 46.9257473, "longitude": 7.3770699, "timestamp": "2025-05-03T03:15:32.800146+00:00Z", "free_bikes": 4, "empty_slots": 39, "extra": {"uid": 411, "address": "Freiburgstrasse 554a", "zip": "3098", "city": "K\u00f6niz", "slots": 43, "ebikes": 4}}, {"id": "55e47268c3a4d2565d40cc05f8b5fcb6", "name": "SBB Hilfikerstrasse", "latitude": 46.96845, "longitude": 7.46242, "timestamp": "2025-05-03T03:15:32.800420+00:00Z", "free_bikes": 1, "empty_slots": 28, "extra": {"uid": 118, "address": "Sch\u00e4delinstrasse 4", "zip": "3014", "city": "Bern", "slots": 29, "ebikes": 1}}, {"id": "566992d0692971f0866e25f09430befd", "name": "Elfenau", "latitude": 46.933433, "longitude": 7.466467, "timestamp": "2025-05-03T03:15:32.801066+00:00Z", "free_bikes": 8, "empty_slots": 2, "extra": {"uid": 371, "address": "Elfenauweg 92", "zip": "3006", "city": "Bern", "slots": 10, "ebikes": 3}}, {"id": "56a2204deef93ab77c5ea5bb1310123c", "name": "Waldmannstrasse", "latitude": 46.94730845562206, "longitude": 7.393210711796317, "timestamp": "2025-05-03T03:15:32.800718+00:00Z", "free_bikes": 2, "empty_slots": 27, "extra": {"uid": 468, "address": "Waldmannstrasse 5", "zip": "3027", "city": "Bern", "slots": 29, "ebikes": 1}}, {"id": "56cf28076d5daa0e91149d519afc0afe", "name": "St\u00f6ckacker Migros", "latitude": 46.944243, "longitude": 7.399437, "timestamp": "2025-05-03T03:15:32.800076+00:00Z", "free_bikes": 9, "empty_slots": 17, "extra": {"uid": 548, "address": "Bethlehemstrasse 106", "zip": "3018", "city": "Bern", "slots": 26, "ebikes": 4}}, {"id": "572d13d5c4ac426f961483ffddf70b62", "name": "Neufeldstrasse Ost", "latitude": 46.9581458, "longitude": 7.4349895, "timestamp": "2025-05-03T03:15:32.800328+00:00Z", "free_bikes": 1, "empty_slots": 20, "extra": {"uid": 479, "address": "Neufeldstrasse 129", "zip": "3012", "city": "Bern", "slots": 21, "ebikes": 1}}, {"id": "574542c7d49f96b02afb1f4d55894866", "name": "Brunnmattschulhaus", "latitude": 46.9458073, "longitude": 7.4270475, "timestamp": "2025-05-03T03:15:32.800109+00:00Z", "free_bikes": 2, "empty_slots": 8, "extra": {"uid": 331, "address": "Brunnmattstrasse 16", "zip": "3007", "city": "Bern", "slots": 10, "ebikes": 0}}, {"id": "58ad0ec000ac1f24d6798886a79f670d", "name": "Br\u00fcckenstrasse BFH", "latitude": 46.9427163, "longitude": 7.4410406, "timestamp": "2025-05-03T03:15:32.801006+00:00Z", "free_bikes": 7, "empty_slots": 6, "extra": {"uid": 330, "address": "Br\u00fcckenstrasse 73", "zip": "3005", "city": "Bern", "slots": 13, "ebikes": 1}}, {"id": "591fd358907fea994cbe94751c83238c", "name": "Helvetiaplatz Bern", "latitude": 46.943994, "longitude": 7.449697, "timestamp": "2025-05-03T03:15:32.800019+00:00Z", "free_bikes": 0, "empty_slots": 10, "extra": {"uid": 232, "address": "Marienstrasse", "zip": "3005", "city": "Bern", "slots": 10, "ebikes": 0}}, {"id": "59984ebfbf070714940cf83dd261aaa6", "name": "Jubil\u00e4umsplatz", "latitude": 46.940180660348716, "longitude": 7.453043799962409, "timestamp": "2025-05-03T03:15:32.800552+00:00Z", "free_bikes": 2, "empty_slots": 24, "extra": {"uid": 595, "address": "Jubil\u00e4umsplatz 2", "zip": "3005", "city": "Bern", "slots": 26, "ebikes": 1}}, {"id": "5ab80a974846f2fa3de733ec7f215362", "name": "Waldheimstrasse", "latitude": 46.95123907638763, "longitude": 7.487040006612239, "timestamp": "2025-05-03T03:15:32.800503+00:00Z", "free_bikes": 13, "empty_slots": 67, "extra": {"uid": 825, "address": "Bachstrasse 5-1", "zip": "3072", "city": "Ostermundigen", "slots": 80, "ebikes": 6}}, {"id": "5b92d491100b5dbf74a87a0179259529", "name": "Bethlehemstrasse S\u00e4ge", "latitude": 46.9470671, "longitude": 7.3957642, "timestamp": "2025-05-03T03:15:32.800890+00:00Z", "free_bikes": 2, "empty_slots": 17, "extra": {"uid": 461, "address": "Untermattweg 80", "zip": "3027", "city": "Bern", "slots": 19, "ebikes": 2}}, {"id": "5d1d9d6977a506fa99b37b17985b9930", "name": "Egelgasse-Ostring", "latitude": 46.943804, "longitude": 7.4694264, "timestamp": "2025-05-03T03:15:32.800766+00:00Z", "free_bikes": 9, "empty_slots": -3, "extra": {"uid": 332, "address": "Egelgasse 72", "zip": "3006", "city": "Bern", "slots": 6, "ebikes": 8}}, {"id": "5d4eafd2b1f119d4c5478f90f3b33a0d", "name": "Breitfeld", "latitude": 46.961965, "longitude": 7.452968, "timestamp": "2025-05-03T03:15:32.800475+00:00Z", "free_bikes": 10, "empty_slots": 0, "extra": {"uid": 218, "address": "Weingartstrasse 59", "zip": "3014", "city": "Bern", "slots": 10, "ebikes": 0}}, {"id": "5df078adcdb81db8b563ddb2d7150c33", "name": "Falkenplatz", "latitude": 46.9515508, "longitude": 7.4345382, "timestamp": "2025-05-03T03:15:32.800237+00:00Z", "free_bikes": 0, "empty_slots": 10, "extra": {"uid": 204, "address": "L\u00e4nggassstrasse 7", "zip": "3012", "city": "Bern", "slots": 10, "ebikes": 0}}, {"id": "6097900fead04155d2d2a85b1ceb56a3", "name": "K\u00f6niz Zentrum", "latitude": 46.9229774, "longitude": 7.4141121, "timestamp": "2025-05-03T03:15:32.800949+00:00Z", "free_bikes": 6, "empty_slots": 39, "extra": {"uid": 421, "address": "Bl\u00e4uacker 10", "zip": "3098", "city": "K\u00f6niz", "slots": 45, "ebikes": 6}}, {"id": "610185b2aec81535c3425ad45aa5427c", "name": "Tscharnergut", "latitude": 46.9489732, "longitude": 7.3882333, "timestamp": "2025-05-03T03:15:32.800555+00:00Z", "free_bikes": 3, "empty_slots": 5, "extra": {"uid": 184, "address": "Waldmannstrasse 31", "zip": "3027", "city": "Bern", "slots": 8, "ebikes": 0}}, {"id": "6135e87781d51c32acacc4f520468603", "name": "Worblaufen RBS Bahnhof", "latitude": 46.979405440906326, "longitude": 7.457189997936046, "timestamp": "2025-05-03T03:15:32.800089+00:00Z", "free_bikes": 14, "empty_slots": 66, "extra": {"uid": 804, "address": "Tiefenaustrasse 2", "zip": "3048", "city": "Ittigen", "slots": 80, "ebikes": 3}}, {"id": "628966c39383a6849e9dd74b715c3b95", "name": "Welle 7 Velostation (06:00-22:00) INSIDE the building!", "latitude": 46.9477816, "longitude": 7.4365087, "timestamp": "2025-05-03T03:15:32.799955+00:00Z", "free_bikes": 2, "empty_slots": 78, "extra": {"uid": 867, "address": "Merkurg\u00e4ssli", "zip": "3008", "city": "Bern", "slots": 80, "ebikes": 0}}, {"id": "6362e86c0200aa4d479f80549bce7cd8", "name": "Studerstrasse", "latitude": 46.96593389019524, "longitude": 7.44160952607623, "timestamp": "2025-05-03T03:15:32.800953+00:00Z", "free_bikes": 15, "empty_slots": 65, "extra": {"uid": 899, "address": "Studerstrasse 62", "zip": "3004", "city": "Bern", "slots": 80, "ebikes": 14}}, {"id": "67555a25f257a527eecbe14ff3cd5573", "name": "Entsorgungshof Werkhof", "latitude": 46.916092, "longitude": 7.418571, "timestamp": "2025-05-03T03:15:32.800539+00:00Z", "free_bikes": 9, "empty_slots": 23, "extra": {"uid": 415, "address": "Muhlernstrasse 101", "zip": "3098", "city": "K\u00f6niz", "slots": 32, "ebikes": 7}}, {"id": "689e2c68e1f43a1f139a7001d76167c8", "name": "Dammweg TX Group AG", "latitude": 46.9559178, "longitude": 7.4467885, "timestamp": "2025-05-03T03:15:32.800470+00:00Z", "free_bikes": 1, "empty_slots": 9, "extra": {"uid": 220, "address": "Dammweg 9", "zip": "3013", "city": "Bern", "slots": 10, "ebikes": 1}}, {"id": "699de3c5afaf0a03d2a73f60eaa92e87", "name": "Gasel BLS SwissBikePark", "latitude": 46.90080888317644, "longitude": 7.401061091966004, "timestamp": "2025-05-03T03:15:32.800709+00:00Z", "free_bikes": 1, "empty_slots": 15, "extra": {"uid": 830, "address": "Schwarzenburgstrasse 574a", "zip": "3144", "city": "K\u00f6niz", "slots": 16, "ebikes": 1}}, {"id": "6af1d647bed2a5045c49ad7d529e30ac", "name": "Hochfeldstrasse", "latitude": 46.95560612233403, "longitude": 7.428042090100739, "timestamp": "2025-05-03T03:15:32.800049+00:00Z", "free_bikes": 12, "empty_slots": -2, "extra": {"uid": 225, "address": "L\u00e4nggassstrasse 74", "zip": "3012", "city": "Bern", "slots": 10, "ebikes": 10}}, {"id": "6b6cb043dfdb8f7c78204ed7192109b6", "name": "Bierh\u00fcbeli", "latitude": 46.9569128, "longitude": 7.4376583, "timestamp": "2025-05-03T03:15:32.800610+00:00Z", "free_bikes": 1, "empty_slots": 9, "extra": {"uid": 203, "address": "Neubr\u00fcckstrasse 70", "zip": "3012", "city": "Bern", "slots": 10, "ebikes": 0}}, {"id": "6bf9e598c674c0431b852fff7deca127", "name": "Tram-Endstation", "latitude": 46.92775, "longitude": 7.453419, "timestamp": "2025-05-03T03:15:32.800599+00:00Z", "free_bikes": 16, "empty_slots": 14, "extra": {"uid": 422, "address": "Seftigenstrasse 280", "zip": "3084", "city": "K\u00f6niz", "slots": 30, "ebikes": 16}}, {"id": "6dbbc837e842498b4a6da2bed00da3a7", "name": "Predigergasse", "latitude": 46.9491966, "longitude": 7.445947, "timestamp": "2025-05-03T03:15:32.800314+00:00Z", "free_bikes": 0, "empty_slots": 27, "extra": {"uid": 473, "address": "Predigergasse 6", "zip": "3011", "city": "Bern", "slots": 27, "ebikes": 0}}, {"id": "70890b29fcaedb1a01ff89589bef13b6", "name": "Haslerstrasse", "latitude": 46.9450822, "longitude": 7.4324521, "timestamp": "2025-05-03T03:15:32.800403+00:00Z", "free_bikes": 3, "empty_slots": 7, "extra": {"uid": 314, "address": "Haslerstrasse 4", "zip": "3008", "city": "Bern", "slots": 10, "ebikes": 0}}, {"id": "7369a051ae3e7226e164d91e994af8d2", "name": "Oberfeld", "latitude": 46.95611252733205, "longitude": 7.498312728132974, "timestamp": "2025-05-03T03:15:32.800249+00:00Z", "free_bikes": 8, "empty_slots": 72, "extra": {"uid": 823, "address": "Kirschbaumweg 1", "zip": "3072", "city": "Ostermundigen", "slots": 80, "ebikes": 5}}, {"id": "738ba4e6c13ecbccb10e58f315e11292", "name": "Holenacker Station", "latitude": 46.9486216, "longitude": 7.3827534, "timestamp": "2025-05-03T03:15:32.800816+00:00Z", "free_bikes": 0, "empty_slots": 24, "extra": {"uid": 466, "address": "Bethlehem b. Bern Holenacker", "zip": "3027", "city": "Bern", "slots": 24, "ebikes": 0}}, {"id": "741879f0ae1403c52917eb9deae440f9", "name": "Zieglerstrasse", "latitude": 46.9429736, "longitude": 7.4302386, "timestamp": "2025-05-03T03:15:32.800926+00:00Z", "free_bikes": 16, "empty_slots": -6, "extra": {"uid": 304, "address": "Zieglerstrasse 62", "zip": "3007", "city": "Bern", "slots": 10, "ebikes": 0}}, {"id": "74e3fc537bc7c155d61f547856328b5e", "name": "Spital Tiefenau", "latitude": 46.974841, "longitude": 7.453275, "timestamp": "2025-05-03T03:15:32.800698+00:00Z", "free_bikes": 4, "empty_slots": 36, "extra": {"uid": 511, "address": "Tiefenaustrasse 110", "zip": "3004", "city": "Bern", "slots": 40, "ebikes": 1}}, {"id": "75c83085ea96030805733221a7844aec", "name": "Eggh\u00f6lzli", "latitude": 46.936635808279966, "longitude": 7.475831165818141, "timestamp": "2025-05-03T03:15:32.800363+00:00Z", "free_bikes": 12, "empty_slots": -2, "extra": {"uid": 333, "address": "Eggh\u00f6lzlistrasse 3A", "zip": "3006", "city": "Bern", "slots": 10, "ebikes": 10}}, {"id": "7a3eb35de06ddd6b3a321760fad7bde3", "name": "Giacomettistrasse", "latitude": 46.9458027, "longitude": 7.4729321, "timestamp": "2025-05-03T03:15:32.800865+00:00Z", "free_bikes": 3, "empty_slots": 26, "extra": {"uid": 458, "address": "Giacomettistrasse 25", "zip": "3006", "city": "Bern", "slots": 29, "ebikes": 1}}, {"id": "7a83f5f497d9eb5ce3b88f2e81602a01", "name": "INFORAMA Zollikofen", "latitude": 46.988369990781095, "longitude": 7.463319968143853, "timestamp": "2025-05-03T03:15:32.801018+00:00Z", "free_bikes": 3, "empty_slots": 77, "extra": {"uid": 826, "address": "R\u00fctti 10", "zip": "3052", "city": "Zollikofen", "slots": 80, "ebikes": 3}}, {"id": "7b1064b2fe7e00a8795789da7b1a9abf", "name": "Wankdorffeldstrasse", "latitude": 46.965031, "longitude": 7.4589906, "timestamp": "2025-05-03T03:15:32.800099+00:00Z", "free_bikes": 1, "empty_slots": 39, "extra": {"uid": 456, "address": "Wankdorffeldstrasse 97", "zip": "3014", "city": "Bern", "slots": 40, "ebikes": 0}}, {"id": "7b4ee3e4f30d0c107f75366177590d0e", "name": "Beaumont", "latitude": 46.9371088, "longitude": 7.4322402, "timestamp": "2025-05-03T03:15:32.800036+00:00Z", "free_bikes": 18, "empty_slots": 3, "extra": {"uid": 480, "address": "Seftigenstrasse 41", "zip": "3007", "city": "Bern", "slots": 21, "ebikes": 13}}, {"id": "7c93d52efb4fdbcfd86a0b2eb9ae01b3", "name": "Fabrikstrasse Uni Bern", "latitude": 46.9519742, "longitude": 7.4227466, "timestamp": "2025-05-03T03:15:32.800657+00:00Z", "free_bikes": 1, "empty_slots": 9, "extra": {"uid": 221, "address": "Fabrikstrasse 2", "zip": "3012", "city": "Bern", "slots": 10, "ebikes": 0}}, {"id": "7ca87ad759e61788f8eb1c762dde27e3", "name": "Ittigen Bahnhof", "latitude": 46.973323, "longitude": 7.484832, "timestamp": "2025-05-03T03:15:32.800736+00:00Z", "free_bikes": 16, "empty_slots": 8, "extra": {"uid": 884, "address": "Worblentalstrasse 86", "zip": "3063", "city": "Ittigen", "slots": 24, "ebikes": 8}}, {"id": "7ceed49552eb664c794c2771c99a1808", "name": "Schule Laubegg", "latitude": 46.947127654625206, "longitude": 7.46573539047808, "timestamp": "2025-05-03T03:15:32.800031+00:00Z", "free_bikes": 0, "empty_slots": 10, "extra": {"uid": 187, "address": "Schosshaldenstrasse 37", "zip": "3006", "city": "Bern", "slots": 10, "ebikes": 0}}, {"id": "7d80e6929722d40153634f658402d6c8", "name": "Wabern Zentrum", "latitude": 46.92898585565497, "longitude": 7.450277590824284, "timestamp": "2025-05-03T03:15:32.800742+00:00Z", "free_bikes": 5, "empty_slots": 75, "extra": {"uid": 671, "address": "Waldblickstrasse 8", "zip": "3084", "city": "K\u00f6niz", "slots": 80, "ebikes": 4}}, {"id": "7edffeb2b946ac892b98f35f6dd18223", "name": "B\u00e4renpark", "latitude": 46.9478691, "longitude": 7.4598938, "timestamp": "2025-05-03T03:15:32.800103+00:00Z", "free_bikes": 15, "empty_slots": -5, "extra": {"uid": 326, "address": "Grosser-Muristalden 4", "zip": "3006", "city": "Bern", "slots": 10, "ebikes": 0}}, {"id": "7f91f51eb284e200dc34c1176ccfc200", "name": "Eigerplatz S\u00fcd", "latitude": 46.9400198, "longitude": 7.4317782, "timestamp": "2025-05-03T03:15:32.800440+00:00Z", "free_bikes": 4, "empty_slots": 6, "extra": {"uid": 306, "address": "Seftigenstrasse 1", "zip": "3007", "city": "Bern", "slots": 10, "ebikes": 0}}, {"id": "8047f24dbb911636758f46bdd7361dcb", "name": "Postgasse", "latitude": 46.9486794, "longitude": 7.4532728, "timestamp": "2025-05-03T03:15:32.800121+00:00Z", "free_bikes": 1, "empty_slots": 7, "extra": {"uid": 260, "address": "Postgasse 66", "zip": "3011", "city": "Bern", "slots": 8, "ebikes": 0}}, {"id": "8073aba45221a44fc8eede669e2f89a6", "name": "Bahnhof G\u00fcmligen", "latitude": 46.93357261917911, "longitude": 7.505070609131323, "timestamp": "2025-05-03T03:15:32.800302+00:00Z", "free_bikes": 7, "empty_slots": 73, "extra": {"uid": 674, "address": "Worbstrasse 210", "zip": "3074", "city": "Muri", "slots": 80, "ebikes": 6}}, {"id": "81a567d794f3145a30f282872f669035", "name": "Bahnhofplatz", "latitude": 46.9483305, "longitude": 7.44079, "timestamp": "2025-05-03T03:15:32.800545+00:00Z", "free_bikes": 0, "empty_slots": 88, "extra": {"uid": 217, "address": "Spitalgasse 44", "zip": "3011", "city": "Bern", "slots": 88, "ebikes": 0}}, {"id": "83137d84dc0ebc39385fef1ee5857150", "name": "Freies Gymnasium", "latitude": 46.959334038741154, "longitude": 7.434909268498735, "timestamp": "2025-05-03T03:15:32.801022+00:00Z", "free_bikes": 5, "empty_slots": 5, "extra": {"uid": 310, "address": "Hochfeldstrasse 115", "zip": "3012", "city": "Bern", "slots": 10, "ebikes": 4}}, {"id": "83252d0868294199dbd3fab4ea399720", "name": "Schwabstrasse Kreisel", "latitude": 46.9438169, "longitude": 7.3955825, "timestamp": "2025-05-03T03:15:32.800151+00:00Z", "free_bikes": 5, "empty_slots": 27, "extra": {"uid": 470, "address": "Keltenstrasse 41", "zip": "3018", "city": "Bern", "slots": 32, "ebikes": 1}}, {"id": "83d43dc462b25f6d3b09593127935caa", "name": "B\u00fchlstrasse Uni", "latitude": 46.9514853, "longitude": 7.4303815, "timestamp": "2025-05-03T03:15:32.800960+00:00Z", "free_bikes": 2, "empty_slots": 14, "extra": {"uid": 219, "address": "B\u00fchlstrasse 37", "zip": "3012", "city": "Bern", "slots": 16, "ebikes": 1}}, {"id": "858f0f4a389bd2fba617a1c6058a596d", "name": "Hallerstrasse West", "latitude": 46.95386, "longitude": 7.4365667, "timestamp": "2025-05-03T03:15:32.800240+00:00Z", "free_bikes": 1, "empty_slots": 9, "extra": {"uid": 294, "address": "Z\u00e4hringerstrasse 13", "zip": "3012", "city": "Bern", "slots": 10, "ebikes": 1}}, {"id": "868d7918edde1d1cbbd324efb37e8f92", "name": "Camping Eichholz", "latitude": 46.933129, "longitude": 7.455933, "timestamp": "2025-05-03T03:15:32.800999+00:00Z", "free_bikes": 25, "empty_slots": 23, "extra": {"uid": 423, "address": "Strandweg 49", "zip": "3084", "city": "K\u00f6niz", "slots": 48, "ebikes": 1}}, {"id": "8787bfa021acfda50b2a80124061bd44", "name": "Rosengarten Ost", "latitude": 46.9520639, "longitude": 7.4615809, "timestamp": "2025-05-03T03:15:32.800532+00:00Z", "free_bikes": 2, "empty_slots": 8, "extra": {"uid": 215, "address": "Reiterstrasse 19", "zip": "3006", "city": "Bern", "slots": 10, "ebikes": 1}}, {"id": "87c82ef2924a872eaf9db0ce563a5297", "name": "Weidmattweg", "latitude": 46.93658906078831, "longitude": 7.395474687081315, "timestamp": "2025-05-03T03:15:32.800895+00:00Z", "free_bikes": 1, "empty_slots": 79, "extra": {"uid": 842, "address": "Weidmattweg 1", "zip": "3018", "city": "Bern", "slots": 80, "ebikes": 0}}, {"id": "8812000f9b775aee0d584715ba693685", "name": "Bellevuestrasse", "latitude": 46.9266467, "longitude": 7.4359484, "timestamp": "2025-05-03T03:15:32.800801+00:00Z", "free_bikes": 4, "empty_slots": 28, "extra": {"uid": 412, "address": "Bellevuestrasse 75", "zip": "3095", "city": "K\u00f6niz", "slots": 32, "ebikes": 3}}, {"id": "88561a5209110c41ed2a389315017f48", "name": "Sonnenhofspital", "latitude": 46.9432034, "longitude": 7.4735436, "timestamp": "2025-05-03T03:15:32.800583+00:00Z", "free_bikes": 4, "empty_slots": 6, "extra": {"uid": 183, "address": "Buchserstrasse 26", "zip": "3006", "city": "Bern", "slots": 10, "ebikes": 4}}, {"id": "892a5c1e757570382491da3f88cfa429", "name": "Bahnhof Weissenb\u00fchl", "latitude": 46.9360173, "longitude": 7.4300596, "timestamp": "2025-05-03T03:15:32.800785+00:00Z", "free_bikes": 5, "empty_slots": 8, "extra": {"uid": 325, "address": "S\u00fcdbahnhofstrasse 14b", "zip": "3007", "city": "Bern", "slots": 13, "ebikes": 5}}, {"id": "8a8e72b2049ffa57da5f2d4fc1b5d6cd", "name": "Bahnhof B\u00fcmpliz Nord", "latitude": 46.9456501, "longitude": 7.3901001, "timestamp": "2025-05-03T03:15:32.800217+00:00Z", "free_bikes": 7, "empty_slots": 6, "extra": {"uid": 199, "address": "M\u00fchledorfstrasse 20", "zip": "3018", "city": "Bern", "slots": 13, "ebikes": 1}}, {"id": "8a92090d49ab82bf91c4cfc06d4b8951", "name": "Bundesgasse", "latitude": 46.946604, "longitude": 7.441624, "timestamp": "2025-05-03T03:15:32.800113+00:00Z", "free_bikes": 0, "empty_slots": 19, "extra": {"uid": 292, "address": "Bundesgasse 3", "zip": "3011", "city": "Bern", "slots": 19, "ebikes": 0}}, {"id": "8bd55143a8f50fec1f6feb3b4daa44f4", "name": "Insel Haupteingang", "latitude": 46.9475569, "longitude": 7.4266947, "timestamp": "2025-05-03T03:15:32.800623+00:00Z", "free_bikes": 0, "empty_slots": 120, "extra": {"uid": 591, "address": "Freiburgstrasse 15", "zip": "3008", "city": "Bern", "slots": 120, "ebikes": 0}}, {"id": "8d768f20831093e0630760e42a30886d", "name": "Unitobler Ost", "latitude": 46.9545136, "longitude": 7.4294963, "timestamp": "2025-05-03T03:15:32.800855+00:00Z", "free_bikes": 1, "empty_slots": 12, "extra": {"uid": 227, "address": "Muesmattstrasse 45", "zip": "3012", "city": "Bern", "slots": 13, "ebikes": 1}}, {"id": "903c4c731a8791c368f83c33d32c740c", "name": "Sportweg", "latitude": 46.93317997920845, "longitude": 7.417113169925848, "timestamp": "2025-05-03T03:15:32.800163+00:00Z", "free_bikes": 5, "empty_slots": 14, "extra": {"uid": 908, "address": "Sportweg 34", "zip": "3097", "city": "Liebefeld", "slots": 19, "ebikes": 5}}, {"id": "9359c617e81b7489ba9953cab5fb2800", "name": "Wankdorf Sporthalle", "latitude": 46.9644796, "longitude": 7.466948, "timestamp": "2025-05-03T03:15:32.800640+00:00Z", "free_bikes": 0, "empty_slots": 26, "extra": {"uid": 594, "address": "Papierm\u00fchlestrasse 91", "zip": "3014", "city": "Bern", "slots": 26, "ebikes": 0}}, {"id": "96c08132da791b1fdff0fe0b60296c55", "name": "Kapellenstrasse BFF", "latitude": 46.9442197, "longitude": 7.4366739, "timestamp": "2025-05-03T03:15:32.800185+00:00Z", "free_bikes": 0, "empty_slots": 10, "extra": {"uid": 311, "address": "Kapellenstrasse 8", "zip": "3011", "city": "Bern", "slots": 10, "ebikes": 0}}, {"id": "97ceb747256df9d8fd1f808fd1e5f5bf", "name": "Bachm\u00e4tteli", "latitude": 46.9394841, "longitude": 7.3899968, "timestamp": "2025-05-03T03:15:32.800253+00:00Z", "free_bikes": 6, "empty_slots": 0, "extra": {"uid": 197, "address": "Bottigenstrasse 9", "zip": "3018", "city": "Bern", "slots": 6, "ebikes": 0}}, {"id": "982f98082da1ebfb96454f83c7b4d1e9", "name": "Spitalacker Schulhaus", "latitude": 46.9558281, "longitude": 7.4529965, "timestamp": "2025-05-03T03:15:32.799942+00:00Z", "free_bikes": 1, "empty_slots": 28, "extra": {"uid": 462, "address": "Beundenfeldstrasse 13", "zip": "3013", "city": "Bern", "slots": 29, "ebikes": 0}}, {"id": "98d693b7575160f934dd310185da5b49", "name": "Wyttenbachstrasse", "latitude": 46.953849946675895, "longitude": 7.446921728056858, "timestamp": "2025-05-03T03:15:32.800689+00:00Z", "free_bikes": 4, "empty_slots": 76, "extra": {"uid": 897, "address": "Sch\u00e4nzlihalde 30", "zip": "3013", "city": "Bern", "slots": 80, "ebikes": 0}}, {"id": "992bc7f2e725566b41f78da7900eca35", "name": "Marzilibahn", "latitude": 46.9446775, "longitude": 7.4432641, "timestamp": "2025-05-03T03:15:32.800838+00:00Z", "free_bikes": 27, "empty_slots": -17, "extra": {"uid": 316, "address": "Br\u00fcckenstrasse 20", "zip": "3005", "city": "Bern", "slots": 10, "ebikes": 1}}, {"id": "9cf03671f74909db8e97d4402f4c270a", "name": "Burgfeld", "latitude": 46.95906857, "longitude": 7.47775778, "timestamp": "2025-05-03T03:15:32.800821+00:00Z", "free_bikes": 1, "empty_slots": 79, "extra": {"uid": 675, "address": "Mittelholzerstrasse 30", "zip": "3006", "city": "Bern", "slots": 80, "ebikes": 0}}, {"id": "9d3ff8ea7758fd66191959c97ab742e5", "name": "Simsonbrunnen", "latitude": 46.9480422, "longitude": 7.4502406, "timestamp": "2025-05-03T03:15:32.800885+00:00Z", "free_bikes": 2, "empty_slots": 6, "extra": {"uid": 257, "address": "Kramgasse 40", "zip": "3011", "city": "Bern", "slots": 8, "ebikes": 0}}, {"id": "9db151ebe667cb9ed3112ec9d54a43d8", "name": "K\u00f6niz Bahnhof", "latitude": 46.9250228, "longitude": 7.4154375, "timestamp": "2025-05-03T03:15:32.801062+00:00Z", "free_bikes": 1, "empty_slots": 39, "extra": {"uid": 413, "address": "Sonnenweg 22", "zip": "3098", "city": "K\u00f6niz", "slots": 40, "ebikes": 1}}, {"id": "9ee94cc0f2c7dcd4feeea40e773a7d70", "name": "G\u00e4belbach", "latitude": 46.947829, "longitude": 7.377815, "timestamp": "2025-05-03T03:15:32.800643+00:00Z", "free_bikes": 24, "empty_slots": -18, "extra": {"uid": 180, "address": "Colombstrasse 11", "zip": "3027", "city": "Bern", "slots": 6, "ebikes": 17}}, {"id": "a02ca1fe7c55a120005baa89b1a2e228", "name": "Beaumontweg", "latitude": 46.9390885, "longitude": 7.4286407, "timestamp": "2025-05-03T03:15:32.800712+00:00Z", "free_bikes": 0, "empty_slots": 27, "extra": {"uid": 483, "address": "Schwarzenburgstrasse 21", "zip": "3007", "city": "Bern", "slots": 27, "ebikes": 0}}, {"id": "a0c3615e46ec9493ffa11e5f97939098", "name": "Sch\u00f6nburg", "latitude": 46.9538192, "longitude": 7.4581813, "timestamp": "2025-05-03T03:15:32.800347+00:00Z", "free_bikes": 0, "empty_slots": 8, "extra": {"uid": 216, "address": "Spitalackerstrasse 12", "zip": "3013", "city": "Bern", "slots": 8, "ebikes": 0}}, {"id": "a1145fa9668854b4708659226bf7b80e", "name": "Melchiorstrasse", "latitude": 46.9523752, "longitude": 7.3914921, "timestamp": "2025-05-03T03:15:32.800825+00:00Z", "free_bikes": 8, "empty_slots": 24, "extra": {"uid": 464, "address": "Kasparstrasse 15a", "zip": "3027", "city": "Bern", "slots": 32, "ebikes": 2}}, {"id": "a119df4c3ba966565167e6008cf87bf0", "name": "Br\u00fchlplatz", "latitude": 46.926197, "longitude": 7.417231, "timestamp": "2025-05-03T03:15:32.800535+00:00Z", "free_bikes": 7, "empty_slots": 30, "extra": {"uid": 414, "address": "Schwarzenburgstrasse 236", "zip": "3098", "city": "K\u00f6niz", "slots": 37, "ebikes": 5}}, {"id": "a12cc6ffcadf6edb6bde20f26c994c76", "name": "Wabernstrasse", "latitude": 46.938576, "longitude": 7.437862, "timestamp": "2025-05-03T03:15:32.800307+00:00Z", "free_bikes": 13, "empty_slots": -3, "extra": {"uid": 302, "address": "Wabernstrasse 34", "zip": "3007", "city": "Bern", "slots": 10, "ebikes": 0}}, {"id": "a31087eafe62e2b3a09b411d1c89322e", "name": "Rossfeld", "latitude": 46.97179532778565, "longitude": 7.44576189083437, "timestamp": "2025-05-03T03:15:32.800977+00:00Z", "free_bikes": 12, "empty_slots": -2, "extra": {"uid": 348, "address": "Rossfeldstrasse 7", "zip": "3004", "city": "Bern", "slots": 10, "ebikes": 11}}, {"id": "a384799b88d5a7fa3b0a5ad2b32432ff", "name": "Wylergut", "latitude": 46.9647833374251, "longitude": 7.4484037810233445, "timestamp": "2025-05-03T03:15:32.800776+00:00Z", "free_bikes": 9, "empty_slots": 71, "extra": {"uid": 726, "address": "D\u00e4ndlikerweg 48", "zip": "3013", "city": "Bern", "slots": 80, "ebikes": 3}}, {"id": "a4f9f9d402898255ffb930e7b190ce2f", "name": "BERNEXPO", "latitude": 46.961055129023734, "longitude": 7.465430423450432, "timestamp": "2025-05-03T03:15:32.800277+00:00Z", "free_bikes": 0, "empty_slots": 48, "extra": {"uid": 912, "address": "Papierm\u00fchlestrasse 50", "zip": "3014", "city": "Bern", "slots": 48, "ebikes": 0}}, {"id": "a57f8609b784edb01d574a7c212b4ce1", "name": "Neufeldstrasse", "latitude": 46.9565421, "longitude": 7.4317735, "timestamp": "2025-05-03T03:15:32.800015+00:00Z", "free_bikes": 4, "empty_slots": 6, "extra": {"uid": 202, "address": "Neufeldstrasse 20", "zip": "3012", "city": "Bern", "slots": 10, "ebikes": 3}}, {"id": "a5dbfdb38816ab6a69f0b23c84b437bb", "name": "Kursaal", "latitude": 46.9525271, "longitude": 7.4498355, "timestamp": "2025-05-03T03:15:32.800798+00:00Z", "free_bikes": 0, "empty_slots": 27, "extra": {"uid": 457, "address": "Sonnenbergstrasse 14", "zip": "3013", "city": "Bern", "slots": 27, "ebikes": 0}}, {"id": "a8e9b4755ca23ed7013a2b17ce334aa1", "name": "Kornhausplatz", "latitude": 46.948813, "longitude": 7.447638, "timestamp": "2025-05-03T03:15:32.801042+00:00Z", "free_bikes": 0, "empty_slots": 13, "extra": {"uid": 251, "address": "Kornhausplatz 20", "zip": "3011", "city": "Bern", "slots": 13, "ebikes": 0}}, {"id": "aa4f9d31d6356fb183abbd265c9b6fd5", "name": "J\u00e4gerweg", "latitude": 46.93369386095887, "longitude": 7.423407106637636, "timestamp": "2025-05-03T03:15:32.800653+00:00Z", "free_bikes": 4, "empty_slots": 76, "extra": {"uid": 668, "address": "Schwarzenburgstrasse 105", "zip": "3097", "city": "K\u00f6niz", "slots": 80, "ebikes": 4}}, {"id": "ab82079019ba070d140a52125d7387eb", "name": "Uni Muesmatt", "latitude": 46.9534004, "longitude": 7.4285549, "timestamp": "2025-05-03T03:15:32.800416+00:00Z", "free_bikes": 0, "empty_slots": 13, "extra": {"uid": 253, "address": "Muesmattstrasse 29", "zip": "3012", "city": "Bern", "slots": 13, "ebikes": 0}}, {"id": "ab87ddfdd13836b284d82231858f968c", "name": "Quartiergasse", "latitude": 46.958014, "longitude": 7.444949, "timestamp": "2025-05-03T03:15:32.800378+00:00Z", "free_bikes": 21, "empty_slots": 8, "extra": {"uid": 550, "address": "Quartiergasse 31", "zip": "3013", "city": "Bern", "slots": 29, "ebikes": 3}}, {"id": "ac28a23baf65b91bee1dcafb99f01e38", "name": "Seminar", "latitude": 46.9427331, "longitude": 7.4595458, "timestamp": "2025-05-03T03:15:32.800171+00:00Z", "free_bikes": 0, "empty_slots": 10, "extra": {"uid": 298, "address": "Seminarstrasse 15", "zip": "3006", "city": "Bern", "slots": 10, "ebikes": 0}}, {"id": "ac68fde85e4c3aab973481178f86a661", "name": "Sattler-Gelateria", "latitude": 46.9547361, "longitude": 7.4333909, "timestamp": "2025-05-03T03:15:32.800548+00:00Z", "free_bikes": 2, "empty_slots": 8, "extra": {"uid": 230, "address": "Mittelstrasse 18", "zip": "3012", "city": "Bern", "slots": 10, "ebikes": 1}}, {"id": "ac6f263317517522c5954f9a2078a8f9", "name": "Bundesamt f\u00fcr Energie", "latitude": 46.975958, "longitude": 7.472646, "timestamp": "2025-05-03T03:15:32.800045+00:00Z", "free_bikes": 3, "empty_slots": 45, "extra": {"uid": 616, "address": "M\u00fchlestrasse 4", "zip": "3063", "city": "Ittigen", "slots": 48, "ebikes": 1}}, {"id": "ada2487e65a8c65071f0e152d40b5256", "name": "Bethlehem Kirche", "latitude": 46.9493284, "longitude": 7.3939866, "timestamp": "2025-05-03T03:15:32.800174+00:00Z", "free_bikes": 6, "empty_slots": 4, "extra": {"uid": 186, "address": "Murtenstrasse 266", "zip": "3027", "city": "Bern", "slots": 10, "ebikes": 1}}, {"id": "ae2cf1b65b9d302f8e8047a39a9e6e44", "name": "Riedbach Bahnhof", "latitude": 46.9412774, "longitude": 7.3351513, "timestamp": "2025-05-03T03:15:32.800937+00:00Z", "free_bikes": 5, "empty_slots": 75, "extra": {"uid": 896, "address": "Bottigenstrasse 397b", "zip": "3020", "city": "Bern", "slots": 80, "ebikes": 2}}, {"id": "b1166d30f936d610d8a407a44649f5bb", "name": "Unterzollikofen Bahnhof", "latitude": 46.99209094019186, "longitude": 7.457337793897621, "timestamp": "2025-05-03T03:15:32.800789+00:00Z", "free_bikes": 20, "empty_slots": 60, "extra": {"uid": 669, "address": "Bernstrasse 90d", "zip": "3052", "city": "Zollikofen", "slots": 80, "ebikes": 17}}, {"id": "b17133df658d2bba1bdd43cbf9df6875", "name": "Mattelift", "latitude": 46.946466, "longitude": 7.452518, "timestamp": "2025-05-03T03:15:32.800137+00:00Z", "free_bikes": 19, "empty_slots": -9, "extra": {"uid": 320, "address": "Badgasse 21", "zip": "3011", "city": "Bern", "slots": 10, "ebikes": 2}}, {"id": "b1c05e0aad2b431e8a7b26f2cb18d8ed", "name": "Steigerhubel", "latitude": 46.9440348, "longitude": 7.4120405, "timestamp": "2025-05-03T03:15:32.800188+00:00Z", "free_bikes": 7, "empty_slots": 3, "extra": {"uid": 301, "address": "Schlossstrasse 112", "zip": "3008", "city": "Bern", "slots": 10, "ebikes": 1}}, {"id": "b2430c9416cf0f05584927e1d03abcaf", "name": "Steinh\u00f6lzli", "latitude": 46.93046, "longitude": 7.428167, "timestamp": "2025-05-03T03:15:32.800316+00:00Z", "free_bikes": 7, "empty_slots": 12, "extra": {"uid": 416, "address": "Kirchstrasse 6a", "zip": "3097", "city": "K\u00f6niz", "slots": 19, "ebikes": 6}}, {"id": "b286ea7b29c759bae09eb4276bcbf8a2", "name": "Pauluskirche Bern", "latitude": 46.9526864, "longitude": 7.4299899, "timestamp": "2025-05-03T03:15:32.800426+00:00Z", "free_bikes": 1, "empty_slots": 9, "extra": {"uid": 255, "address": "Freiestrasse 3", "zip": "3012", "city": "Bern", "slots": 10, "ebikes": 1}}, {"id": "b381e6b35921f569e3e57738d75e6e44", "name": "Sanpol Bern", "latitude": 46.9503044, "longitude": 7.4145806, "timestamp": "2025-05-03T03:15:32.800280+00:00Z", "free_bikes": 0, "empty_slots": 19, "extra": {"uid": 486, "address": "Murtenstrasse 111", "zip": "3008", "city": "Bern", "slots": 19, "ebikes": 0}}, {"id": "b5af94e0abf08c57f87c3274cac7aeb2", "name": "Monbijoubr\u00fccke", "latitude": 46.93965162143165, "longitude": 7.440241261842887, "timestamp": "2025-05-03T03:15:32.801047+00:00Z", "free_bikes": 1, "empty_slots": 7, "extra": {"uid": 321, "address": "Eigerstrasse 80", "zip": "3007", "city": "Bern", "slots": 8, "ebikes": 0}}, {"id": "b5c8573f062e39563e72aaa1f6b7d4f3", "name": "Wyleregg", "latitude": 46.9603536, "longitude": 7.4485856, "timestamp": "2025-05-03T03:15:32.800517+00:00Z", "free_bikes": 10, "empty_slots": 3, "extra": {"uid": 244, "address": "Wylerstrasse 51", "zip": "3014", "city": "Bern", "slots": 13, "ebikes": 2}}, {"id": "b64e4ee42fee24be29af059f596cbf83", "name": "R\u00f6merweg", "latitude": 46.958241, "longitude": 7.4474859, "timestamp": "2025-05-03T03:15:32.801050+00:00Z", "free_bikes": 4, "empty_slots": 28, "extra": {"uid": 459, "address": "Turnweg 19", "zip": "3013", "city": "Bern", "slots": 32, "ebikes": 1}}, {"id": "b74eab0edf63a80574465be1d06e1f64", "name": "SwissBikePark Oberried", "latitude": 46.88922737105038, "longitude": 7.367057544825261, "timestamp": "2025-05-03T03:15:32.800000+00:00Z", "free_bikes": 1, "empty_slots": 79, "extra": {"uid": 374, "address": "Oberriedg\u00e4ssli 6", "zip": "3145", "city": "Niederscherli", "slots": 80, "ebikes": 1}}, {"id": "b8809eb6d9be2b2a4bb711285e2f329c", "name": "HAFL Zollikofen", "latitude": 46.99128453561965, "longitude": 7.46742522413544, "timestamp": "2025-05-03T03:15:32.800026+00:00Z", "free_bikes": 3, "empty_slots": 77, "extra": {"uid": 740, "address": "L\u00e4nggasse 85", "zip": "3052", "city": "Zollikofen", "slots": 80, "ebikes": 3}}, {"id": "b902e3264853cbe2bf6b63cd8df1821a", "name": "Hauptsitz PubliBike", "latitude": 46.93874927649203, "longitude": 7.475214965129108, "timestamp": "2025-05-03T03:15:32.800072+00:00Z", "free_bikes": 2, "empty_slots": 78, "extra": {"uid": 349, "address": "Weltpoststrasse 5", "zip": "3015", "city": "Bern", "slots": 80, "ebikes": 2}}, {"id": "b9ed5b3ebe7a8ac300478bceef6a9378", "name": "Hochschulzentrum von Roll", "latitude": 46.9534366, "longitude": 7.4239308, "timestamp": "2025-05-03T03:15:32.800619+00:00Z", "free_bikes": 1, "empty_slots": 9, "extra": {"uid": 222, "address": "Fabrikstrasse 14", "zip": "3012", "city": "Bern", "slots": 10, "ebikes": 1}}, {"id": "bbd5de2f3ae0b829d729ab4379c1a8fc", "name": "Forsthaus KVA / TBA", "latitude": 46.951735, "longitude": 7.416496, "timestamp": "2025-05-03T03:15:32.800156+00:00Z", "free_bikes": 1, "empty_slots": 47, "extra": {"uid": 549, "address": "Murtenstrasse 98", "zip": "3008", "city": "Bern", "slots": 48, "ebikes": 1}}, {"id": "bc260a29102b7a210796a6cf157f2224", "name": "Liebefeld Bahnhof", "latitude": 46.93036, "longitude": 7.41929, "timestamp": "2025-05-03T03:15:32.801013+00:00Z", "free_bikes": 0, "empty_slots": 32, "extra": {"uid": 419, "address": "Stationsstrasse 1", "zip": "3097", "city": "K\u00f6niz", "slots": 32, "ebikes": 0}}, {"id": "bc5fa7f11c4235f234bd918e5ef2a15f", "name": "Seilerstrasse", "latitude": 46.9456022, "longitude": 7.434734, "timestamp": "2025-05-03T03:15:32.800444+00:00Z", "free_bikes": 0, "empty_slots": 24, "extra": {"uid": 484, "address": "Seilerstrasse 22", "zip": "3011", "city": "Bern", "slots": 24, "ebikes": 0}}, {"id": "bcca950e75d929b3d13147f91ab3729d", "name": "Nationalbank", "latitude": 46.946888089472424, "longitude": 7.445830418186601, "timestamp": "2025-05-03T03:15:32.801044+00:00Z", "free_bikes": 0, "empty_slots": 32, "extra": {"uid": 290, "address": "Inselgasse 1", "zip": "3011", "city": "Bern", "slots": 32, "ebikes": 0}}, {"id": "bf133b084ccfa2f564f4e224bb54212a", "name": "Salem-Spital", "latitude": 46.952701, "longitude": 7.454585, "timestamp": "2025-05-03T03:15:32.800580+00:00Z", "free_bikes": 0, "empty_slots": 32, "extra": {"uid": 552, "address": "Sch\u00e4nzlistrasse 33", "zip": "3013", "city": "Bern", "slots": 32, "ebikes": 0}}, {"id": "c26a0acb5c8f1f1f21246c28e8b2c1b2", "name": "Zieglerspital", "latitude": 46.9320203, "longitude": 7.4330474, "timestamp": "2025-05-03T03:15:32.800233+00:00Z", "free_bikes": 4, "empty_slots": 28, "extra": {"uid": 481, "address": "Heckenweg 63", "zip": "3007", "city": "Bern", "slots": 32, "ebikes": 3}}, {"id": "c30d29dba87cefafd57d268e48bb220a", "name": "B\u00f6cklinstrasse", "latitude": 46.9416249, "longitude": 7.4631929, "timestamp": "2025-05-03T03:15:32.801054+00:00Z", "free_bikes": 2, "empty_slots": 8, "extra": {"uid": 262, "address": "Brunnadernstrasse 20", "zip": "3006", "city": "Bern", "slots": 10, "ebikes": 1}}, {"id": "c34b96db32cefb17ac6bf83cd7e049e2", "name": "Restaurant D\u00e4hlh\u00f6lzli", "latitude": 46.933646280041835, "longitude": 7.448225744500959, "timestamp": "2025-05-03T03:15:32.800858+00:00Z", "free_bikes": 4, "empty_slots": 9, "extra": {"uid": 323, "address": "Tierparkweg 2", "zip": "3005", "city": "Bern", "slots": 13, "ebikes": 0}}, {"id": "c47869faa65daa048769dd9a422c07bc", "name": "Sch\u00f6ngr\u00fcn-Vermont", "latitude": 46.9461220614124, "longitude": 7.475815366515189, "timestamp": "2025-05-03T03:15:32.800068+00:00Z", "free_bikes": 0, "empty_slots": 80, "extra": {"uid": 676, "address": "Weltistrasse 40", "zip": "3006", "city": "Bern", "slots": 80, "ebikes": 0}}, {"id": "c57d1343896faf69904203224a9830ff", "name": "UPD Neuhaus", "latitude": 46.9694975302973, "longitude": 7.485804790590767, "timestamp": "2025-05-03T03:15:32.800060+00:00Z", "free_bikes": 3, "empty_slots": 77, "extra": {"uid": 816, "address": "u. Zollgasse 99", "zip": "3063", "city": "Ittigen", "slots": 80, "ebikes": 2}}, {"id": "c5c9ff69176659a4bce5e7adf52be19f", "name": "F\u00e4hrstrasse", "latitude": 46.97551090002302, "longitude": 7.441680989240398, "timestamp": "2025-05-03T03:15:32.800432+00:00Z", "free_bikes": 9, "empty_slots": 71, "extra": {"uid": 893, "address": "F\u00e4hrstrasse 43", "zip": "3004", "city": "Bern", "slots": 80, "ebikes": 7}}, {"id": "c7eb0f76ac0358ff9c8f60831d5ae7ba", "name": "Wylerbad", "latitude": 46.9650342, "longitude": 7.4514649, "timestamp": "2025-05-03T03:15:32.800203+00:00Z", "free_bikes": 3, "empty_slots": 29, "extra": {"uid": 491, "address": "Scheibenstrasse 65c", "zip": "3014", "city": "Bern", "slots": 32, "ebikes": 1}}, {"id": "c8b183ddf4c09d0562fe514c96cce9eb", "name": "Station Nydegg: AUSSER BETRIEB vom 09.05 - 12.05.25 (Grand Prix)", "latitude": 46.9486345, "longitude": 7.4567436, "timestamp": "2025-05-03T03:15:32.800409+00:00Z", "free_bikes": 21, "empty_slots": -13, "extra": {"uid": 254, "address": "Nydeggasse 13", "zip": "3011", "city": "Bern", "slots": 8, "ebikes": 1}}, {"id": "ca3a26d2c10f35bba93aedbbba88e465", "name": "Zollikofen Bahnhof", "latitude": 47.000176, "longitude": 7.461966, "timestamp": "2025-05-03T03:15:32.800665+00:00Z", "free_bikes": 2, "empty_slots": 30, "extra": {"uid": 602, "address": "Bernstrasse 189", "zip": "3052", "city": "Zollikofen", "slots": 32, "ebikes": 2}}, {"id": "ca4704c42eb51e17a36ac5ae9650d993", "name": "Station Kleefeld: verschoben aufgrund Baustelle", "latitude": 46.937206143601415, "longitude": 7.387227177905001, "timestamp": "2025-05-03T03:15:32.800331+00:00Z", "free_bikes": 10, "empty_slots": 0, "extra": {"uid": 178, "address": "Rehhagstrasse", "zip": "3018", "city": "Bern", "slots": 10, "ebikes": 3}}, {"id": "cbcf61941bcb5fa17ad7182b1e9cf01c", "name": "Theaterplatz", "latitude": 46.9475995, "longitude": 7.4473498, "timestamp": "2025-05-03T03:15:32.800715+00:00Z", "free_bikes": 0, "empty_slots": 10, "extra": {"uid": 258, "address": "Theaterplatz 4", "zip": "3011", "city": "Bern", "slots": 10, "ebikes": 0}}, {"id": "cc285ee47b2a4a980e0004753401934e", "name": "Uni Mittelstrasse", "latitude": 46.9557805, "longitude": 7.4352658, "timestamp": "2025-05-03T03:15:32.800479+00:00Z", "free_bikes": 2, "empty_slots": 8, "extra": {"uid": 226, "address": "Mittelstrasse 38", "zip": "3012", "city": "Bern", "slots": 10, "ebikes": 0}}, {"id": "ce5804a014adeaeec21f58d1c6a9e88d", "name": "GVB", "latitude": 46.970948, "longitude": 7.472052, "timestamp": "2025-05-03T03:15:32.800834+00:00Z", "free_bikes": 2, "empty_slots": 78, "extra": {"uid": 372, "address": "Papierm\u00fchlestrasse 130", "zip": "3063", "city": "Ittigen", "slots": 80, "ebikes": 1}}, {"id": "cf9ff23ead44faf7354485938b5dfc0f", "name": "C\u00e4cilienplatz", "latitude": 46.94167, "longitude": 7.42598, "timestamp": "2025-05-03T03:15:32.800423+00:00Z", "free_bikes": 4, "empty_slots": 6, "extra": {"uid": 329, "address": "Brunnmattstrasse 55", "zip": "3007", "city": "Bern", "slots": 10, "ebikes": 0}}, {"id": "d0af5f4babd9b6b8bf4d146399819708", "name": "Waldheim", "latitude": 46.9539295, "longitude": 7.4267524, "timestamp": "2025-05-03T03:15:32.799963+00:00Z", "free_bikes": 6, "empty_slots": 4, "extra": {"uid": 259, "address": "Freiestrasse 43", "zip": "3012", "city": "Bern", "slots": 10, "ebikes": 5}}, {"id": "d1e05eb2041e83191b8507098b4b9f8f", "name": "Anshelmstrasse", "latitude": 46.938964, "longitude": 7.4476281, "timestamp": "2025-05-03T03:15:32.800986+00:00Z", "free_bikes": 23, "empty_slots": -7, "extra": {"uid": 327, "address": "Aegertenstrasse 49", "zip": "3005", "city": "Bern", "slots": 16, "ebikes": 1}}, {"id": "d23d50622c56ddafcf959733d4caa92f", "name": "Bahnhofplatz Mobile Station Bern 4", "latitude": 46.94831, "longitude": 7.44035, "timestamp": "2025-05-03T03:15:32.800295+00:00Z", "free_bikes": 0, "empty_slots": 80, "extra": {"uid": 353, "address": "Spitalgasse 44", "zip": "3011", "city": "Bern", "slots": 80, "ebikes": 0}}, {"id": "d250ec6a8cba35c14b6c0b047bcc73a8", "name": "Jolimontstrasse", "latitude": 46.9415535, "longitude": 7.4708855, "timestamp": "2025-05-03T03:15:32.800513+00:00Z", "free_bikes": 5, "empty_slots": 5, "extra": {"uid": 313, "address": "Jolimontstrasse 18", "zip": "3006", "city": "Bern", "slots": 10, "ebikes": 3}}, {"id": "d524db3c9158c0249993bb6d573ea235", "name": "Ziegelei M\u00e4rit", "latitude": 46.997311304908294, "longitude": 7.458796441962296, "timestamp": "2025-05-03T03:15:32.800206+00:00Z", "free_bikes": 7, "empty_slots": 73, "extra": {"uid": 666, "address": "M\u00e4ritgasse 1", "zip": "3052", "city": "Zollikofen", "slots": 80, "ebikes": 7}}, {"id": "d5cf8683c2764ed28505eb10028f7adb", "name": "Schenkstrasse", "latitude": 46.94588, "longitude": 7.41549, "timestamp": "2025-05-03T03:15:32.800898+00:00Z", "free_bikes": 2, "empty_slots": 8, "extra": {"uid": 324, "address": "Huberstrasse 2", "zip": "3008", "city": "Bern", "slots": 10, "ebikes": 1}}, {"id": "d791fbdecf9a00aa2734335e31584381", "name": "Riedbachstrasse Park", "latitude": 46.9450382, "longitude": 7.3791687, "timestamp": "2025-05-03T03:15:32.800967+00:00Z", "free_bikes": 27, "empty_slots": 5, "extra": {"uid": 469, "address": "Riedbachstrasse 77", "zip": "3027", "city": "Bern", "slots": 32, "ebikes": 23}}, {"id": "d7a295918354e919937784864345cd19", "name": "Wankdorf Bhf Nord", "latitude": 46.9677817, "longitude": 7.4646494, "timestamp": "2025-05-03T03:15:32.800924+00:00Z", "free_bikes": 0, "empty_slots": 26, "extra": {"uid": 192, "address": "Tr\u00fcsselstrasse", "zip": "3014", "city": "Bern", "slots": 26, "ebikes": 0}}, {"id": "da87e0e101ae8bddb3332e50f61135db", "name": "UniS", "latitude": 46.9503428, "longitude": 7.435298, "timestamp": "2025-05-03T03:15:32.800130+00:00Z", "free_bikes": 0, "empty_slots": 13, "extra": {"uid": 213, "address": "Schanzeneckstrasse 1", "zip": "3012", "city": "Bern", "slots": 13, "ebikes": 0}}, {"id": "db3f13641d6b2b3e1680025d9a466c8f", "name": "Hallenbad Hirschengraben", "latitude": 46.9465416, "longitude": 7.4356627, "timestamp": "2025-05-03T03:15:32.800022+00:00Z", "free_bikes": 0, "empty_slots": 13, "extra": {"uid": 308, "address": "Maulbeerstrasse 17", "zip": "3011", "city": "Bern", "slots": 13, "ebikes": 0}}, {"id": "db6c99e10269a7f607d8e062f32f23b1", "name": "Zollgasse", "latitude": 46.95812, "longitude": 7.48801, "timestamp": "2025-05-03T03:15:32.800880+00:00Z", "free_bikes": 7, "empty_slots": 73, "extra": {"uid": 822, "address": "Untere Zollgasse 4", "zip": "3072", "city": "Ostermundigen", "slots": 80, "ebikes": 5}}, {"id": "dbd58befb9e9c2460f99c2c55ed3dda9", "name": "Markuskirche", "latitude": 46.9635131, "longitude": 7.4555218, "timestamp": "2025-05-03T03:15:32.800193+00:00Z", "free_bikes": 0, "empty_slots": 80, "extra": {"uid": 291, "address": "Winkelriedstrasse 56", "zip": "3014", "city": "Bern", "slots": 80, "ebikes": 0}}, {"id": "ddfeeaf20538e0d9dfb10a103ad767c8", "name": "Mittelstrasse S\u00fcd", "latitude": 46.9534206, "longitude": 7.4328277, "timestamp": "2025-05-03T03:15:32.800632+00:00Z", "free_bikes": 1, "empty_slots": 9, "extra": {"uid": 228, "address": "Mittelstrasse 5", "zip": "3012", "city": "Bern", "slots": 10, "ebikes": 0}}, {"id": "dff4ec547b3f75eb337111d8d66e171d", "name": "Sch\u00f6neggweg - wegen Baustelle verschoben", "latitude": 46.934534, "longitude": 7.441946, "timestamp": "2025-05-03T03:15:32.800746+00:00Z", "free_bikes": 30, "empty_slots": -20, "extra": {"uid": 322, "address": "Zinggstrasse 24", "zip": "3007", "city": "Bern", "slots": 10, "ebikes": 6}}, {"id": "e1b7f537f54c9e57d07eca1d6f6edee4", "name": "St\u00f6ckacker S\u00fcd", "latitude": 46.94303954532779, "longitude": 7.4016277739719145, "timestamp": "2025-05-03T03:15:32.800660+00:00Z", "free_bikes": 7, "empty_slots": 73, "extra": {"uid": 843, "address": "Bethlehemstrasse 118", "zip": "3018", "city": "Bern", "slots": 80, "ebikes": 4}}, {"id": "e2b390c191823289b7d3a8ddb138b4fe", "name": "Papierm\u00fchle Bahnhof", "latitude": 46.97422346344607, "longitude": 7.476819763848439, "timestamp": "2025-05-03T03:15:32.800354+00:00Z", "free_bikes": 9, "empty_slots": 17, "extra": {"uid": 877, "address": "Papierm\u00fchlestrasse 172", "zip": "3063", "city": "Ittigen", "slots": 26, "ebikes": 2}}, {"id": "e3c2f665f86a49d01975e3c7783fc8c8", "name": "Schwabgut", "latitude": 46.9454695, "longitude": 7.3928104, "timestamp": "2025-05-03T03:15:32.800905+00:00Z", "free_bikes": 2, "empty_slots": 4, "extra": {"uid": 179, "address": "Schwabstrasse 10", "zip": "3018", "city": "Bern", "slots": 6, "ebikes": 1}}, {"id": "e8cd13536bfff53b8dde4eac159bbba5", "name": "Cinedome Muri", "latitude": 46.92692, "longitude": 7.503482, "timestamp": "2025-05-03T03:15:32.800702+00:00Z", "free_bikes": 6, "empty_slots": 10, "extra": {"uid": 903, "address": "Feldstrasse 32", "zip": "3073", "city": "Muri bei Bern", "slots": 16, "ebikes": 3}}, {"id": "e9a416c77de6d1d6887cc1c8ac06dc56", "name": "Los Lorentes Residences", "latitude": 46.948670967854916, "longitude": 7.408147339558864, "timestamp": "2025-05-03T03:15:32.800398+00:00Z", "free_bikes": 7, "empty_slots": 19, "extra": {"uid": 878, "address": "Murtenstrasse 147", "zip": "3008", "city": "Bern", "slots": 26, "ebikes": 3}}, {"id": "e9f7c3b1d2924e9879012a49dc0b6736", "name": "PostParc Velostation (06:00-22:00) INSIDE the building!", "latitude": 46.947856328360984, "longitude": 7.436903989490435, "timestamp": "2025-05-03T03:15:32.800466+00:00Z", "free_bikes": 1, "empty_slots": 25, "extra": {"uid": 271, "address": "Schanzenstrasse 5", "zip": "3008", "city": "Bern", "slots": 26, "ebikes": 1}}, {"id": "eb89384e12dad757c59baec13ac76ba3", "name": "Weyermannshaus Bad", "latitude": 46.94774434260293, "longitude": 7.40357158919319, "timestamp": "2025-05-03T03:15:32.800909+00:00Z", "free_bikes": 6, "empty_slots": 26, "extra": {"uid": 471, "address": "St\u00f6ckackerstrasse 9", "zip": "3027", "city": "Bern", "slots": 32, "ebikes": 0}}, {"id": "ec2c356472d082600f9a57065767388c", "name": "Bodelenweg", "latitude": 46.927744881476436, "longitude": 7.370069357719424, "timestamp": "2025-05-03T03:15:32.800386+00:00Z", "free_bikes": 12, "empty_slots": 4, "extra": {"uid": 882, "address": "Bodelenweg 100", "zip": "3172", "city": "K\u00f6niz", "slots": 16, "ebikes": 12}}, {"id": "eda45c93f651f89777e1aea545126b91", "name": "RBS Deisswil", "latitude": 46.95751, "longitude": 7.514008, "timestamp": "2025-05-03T03:15:32.800486+00:00Z", "free_bikes": 13, "empty_slots": 13, "extra": {"uid": 907, "address": "Bahnhofplatz 2", "zip": "3066", "city": "Stettlen", "slots": 26, "ebikes": 9}}, {"id": "ee40e883883c0171be90b0b81686473b", "name": "Felsenaustrasse", "latitude": 46.97251813179933, "longitude": 7.441408311220162, "timestamp": "2025-05-03T03:15:32.800268+00:00Z", "free_bikes": 19, "empty_slots": 61, "extra": {"uid": 894, "address": "Felsenaustrasse 17", "zip": "3004", "city": "Bern", "slots": 80, "ebikes": 11}}, {"id": "ee8830396906a4c93856f9ab016b0d7b", "name": "Nationalbibliothek", "latitude": 46.9412568, "longitude": 7.4507099, "timestamp": "2025-05-03T03:15:32.800721+00:00Z", "free_bikes": 4, "empty_slots": 6, "extra": {"uid": 229, "address": "Helvetiastrasse 21", "zip": "3005", "city": "Bern", "slots": 10, "ebikes": 0}}, {"id": "ef37c9f682df77301f962f0517309c41", "name": "Innere Enge", "latitude": 46.9616862, "longitude": 7.4396136, "timestamp": "2025-05-03T03:15:32.800499+00:00Z", "free_bikes": 1, "empty_slots": 31, "extra": {"uid": 477, "address": "Engestrasse 54a", "zip": "3012", "city": "Bern", "slots": 32, "ebikes": 1}}, {"id": "ef745973896578f51242342a8cfaea07", "name": "Tiefenau Bahnhof", "latitude": 46.97293, "longitude": 7.450856, "timestamp": "2025-05-03T03:15:32.800942+00:00Z", "free_bikes": 20, "empty_slots": 18, "extra": {"uid": 593, "address": "Tiefenaustrasse 109", "zip": "3004", "city": "Bern", "slots": 38, "ebikes": 5}}, {"id": "f43aae9ef35ea1c61717078e6c86a334", "name": "Stauffacherstrasse", "latitude": 46.9662414, "longitude": 7.4558243, "timestamp": "2025-05-03T03:15:32.801010+00:00Z", "free_bikes": 0, "empty_slots": 19, "extra": {"uid": 460, "address": "Stauffacherstrasse 65", "zip": "3014", "city": "Bern", "slots": 19, "ebikes": 0}}, {"id": "f5c75bba5b6f6f302714ff66bc2c3bbb", "name": "Vidmar", "latitude": 46.9356189, "longitude": 7.4165883, "timestamp": "2025-05-03T03:15:32.800064+00:00Z", "free_bikes": 3, "empty_slots": 37, "extra": {"uid": 420, "address": "K\u00f6nizstrasse 161", "zip": "3097", "city": "K\u00f6niz", "slots": 40, "ebikes": 1}}, {"id": "f6a16305a63842e156144d4f35aa30c9", "name": "Altenbergstrasse", "latitude": 46.950519, "longitude": 7.451593, "timestamp": "2025-05-03T03:15:32.800288+00:00Z", "free_bikes": 21, "empty_slots": 59, "extra": {"uid": 898, "address": "Altenberg", "zip": "3013", "city": "Bern", "slots": 80, "ebikes": 2}}, {"id": "f78f66ee9de739805df363e68caa9f44", "name": "B\u00fcmpliz Post", "latitude": 46.9417265, "longitude": 7.3930062, "timestamp": "2025-05-03T03:15:32.800636+00:00Z", "free_bikes": 0, "empty_slots": 10, "extra": {"uid": 328, "address": "Keltenstrasse 106", "zip": "3018", "city": "Bern", "slots": 10, "ebikes": 0}}, {"id": "f900ccc0623eeb4950bd15c0da84f769", "name": "Fischerm\u00e4tteli", "latitude": 46.9405957, "longitude": 7.418738, "timestamp": "2025-05-03T03:15:32.800392+00:00Z", "free_bikes": 15, "empty_slots": -5, "extra": {"uid": 309, "address": "K\u00f6nizstrasse 73", "zip": "3008", "city": "Bern", "slots": 10, "ebikes": 8}}, {"id": "fa3f133d89ab795f3035ed462f30bda2", "name": "Egelsee", "latitude": 46.943536, "longitude": 7.463293, "timestamp": "2025-05-03T03:15:32.800725+00:00Z", "free_bikes": 4, "empty_slots": 28, "extra": {"uid": 545, "address": "Ensingerstrasse 3", "zip": "3006", "city": "Bern", "slots": 32, "ebikes": 3}}, {"id": "fa540d1648b62621aaba4c63ad9b2b1b", "name": "Wegm\u00fchleg\u00e4ssli", "latitude": 46.958152075321834, "longitude": 7.492620923918697, "timestamp": "2025-05-03T03:15:32.800283+00:00Z", "free_bikes": 9, "empty_slots": 71, "extra": {"uid": 821, "address": "Bernstrasse 96", "zip": "3072", "city": "Ostermundigen", "slots": 80, "ebikes": 6}}, {"id": "fb303becad3875159e7459c0bc43b339", "name": "Eigerplatz", "latitude": 46.9413996, "longitude": 7.4316924, "timestamp": "2025-05-03T03:15:32.801030+00:00Z", "free_bikes": 21, "empty_slots": -5, "extra": {"uid": 305, "address": "M\u00fchlemattstrasse 59", "zip": "3007", "city": "Bern", "slots": 16, "ebikes": 1}}, {"id": "fb3411fb56c1697ac516a88a8108e19e", "name": "SBB Wylerpark", "latitude": 46.9613082, "longitude": 7.4466679, "timestamp": "2025-05-03T03:15:32.800628+00:00Z", "free_bikes": 3, "empty_slots": 26, "extra": {"uid": 122, "address": "Wylerstrasse 123", "zip": "3014", "city": "Bern", "slots": 29, "ebikes": 2}}, {"id": "fe69cdc9f43f8c459c8d18dee4acc60e", "name": "Gurten Kulm", "latitude": 46.9191591, "longitude": 7.4383865, "timestamp": "2025-05-03T03:15:32.800706+00:00Z", "free_bikes": 1, "empty_slots": 79, "extra": {"uid": 772, "address": "Gurten - Park im Gr\u00fcnen", "zip": "3084", "city": "K\u00f6niz", "slots": 80, "ebikes": 1}}]}