{"id": "publibike-zuerich", "name": "PubliBike Z\u00fcrich", "location": {"latitude": 47.38728, "longitude": 8.53767, "city": "Z\u00fcrich", "country": "CH"}, "href": "/v2/networks/publibike-zuerich", "company": ["PubliBike AG"], "system": "PubliBike", "source": "https://api.publibike.ch/v1/static/api.html", "stations": [{"id": "001d98fcdd9234a5500805d6572052b5", "name": "Kinderspital", "latitude": 47.3708387, "longitude": 8.5595335, "timestamp": "2025-04-29T06:24:29.425894+00:00Z", "free_bikes": 0, "empty_slots": 18, "extra": {"uid": 364, "address": "Dolderstrasse 32", "zip": "8032", "city": "Z\u00fcrich", "slots": 18, "ebikes": 0}}, {"id": "004cb8085fccb433cd0ce5c4c7a74cbb", "name": "Bahnhof Oerlikon S\u00fcd", "latitude": 47.411057, "longitude": 8.543768, "timestamp": "2025-04-29T06:24:29.425915+00:00Z", "free_bikes": 0, "empty_slots": 14, "extra": {"uid": 387, "address": "Hofwiesenstrasse 369", "zip": "8050", "city": "Z\u00fcrich", "slots": 14, "ebikes": 0}}, {"id": "0095f5fb9eb87fce7b861ff0932840ff", "name": "Zwinglihaus", "latitude": 47.371868, "longitude": 8.515558, "timestamp": "2025-04-29T06:24:29.426092+00:00Z", "free_bikes": 0, "empty_slots": 22, "extra": {"uid": 159, "address": "Aemtlerstrasse 23", "zip": "8003", "city": "Z\u00fcrich", "slots": 22, "ebikes": 0}}, {"id": "039c577eb9b30e188cbd6e24e5a46e81", "name": "Stauffacherbr\u00fccke", "latitude": 47.3713591, "longitude": 8.5313344, "timestamp": "2025-04-29T06:24:29.426228+00:00Z", "free_bikes": 0, "empty_slots": 26, "extra": {"uid": 89, "address": "Selnaustrasse 32", "zip": "8001", "city": "Z\u00fcrich", "slots": 26, "ebikes": 0}}, {"id": "04f04bee45371c3adf755bec9d5e47b7", "name": "Kronwiesen", "latitude": 47.4039845, "longitude": 8.5787183, "timestamp": "2025-04-29T06:24:29.425776+00:00Z", "free_bikes": 0, "empty_slots": 13, "extra": {"uid": 426, "address": "Kronwiesenstrasse 35", "zip": "8051", "city": "Z\u00fcrich", "slots": 13, "ebikes": 0}}, {"id": "0528bdf453234bf2d2dfced443a637d9", "name": "R\u00f6merhof", "latitude": 47.368474, "longitude": 8.559983, "timestamp": "2025-04-29T06:24:29.425908+00:00Z", "free_bikes": 0, "empty_slots": 8, "extra": {"uid": 367, "address": "Ilgenstrasse 22", "zip": "8032", "city": "Z\u00fcrich", "slots": 8, "ebikes": 0}}, {"id": "05c4b2203137868fde2220126c201118", "name": "Werdm\u00fchleplatz", "latitude": 47.374785, "longitude": 8.539882, "timestamp": "2025-04-29T06:24:29.426039+00:00Z", "free_bikes": 0, "empty_slots": 13, "extra": {"uid": 60, "address": "Werdm\u00fchleplatz 1", "zip": "8001", "city": "Z\u00fcrich", "slots": 13, "ebikes": 0}}, {"id": "05e167673be27a05768f5a18b8245ce6", "name": "Center Eleven", "latitude": 47.413733, "longitude": 8.541541, "timestamp": "2025-04-29T06:24:29.425968+00:00Z", "free_bikes": 0, "empty_slots": 26, "extra": {"uid": 561, "address": "Therese-Giehse-Strasse 11", "zip": "8050", "city": "Z\u00fcrich", "slots": 26, "ebikes": 0}}, {"id": "0720b7f4d24aab8cb366b36a3e39e996", "name": "Schwamendingerplatz", "latitude": 47.4039985, "longitude": 8.5721264, "timestamp": "2025-04-29T06:24:29.426151+00:00Z", "free_bikes": 0, "empty_slots": 18, "extra": {"uid": 370, "address": "Winterthurerstrasse 519", "zip": "8051", "city": "Z\u00fcrich", "slots": 18, "ebikes": 0}}, {"id": "08a2cf8f6c27b3d4c5ce94d579a942f9", "name": "Rentenanstalt", "latitude": 47.3625938, "longitude": 8.5348427, "timestamp": "2025-04-29T06:24:29.425805+00:00Z", "free_bikes": 0, "empty_slots": 19, "extra": {"uid": 101, "address": "Breitingerstrasse 5", "zip": "8002", "city": "Z\u00fcrich", "slots": 19, "ebikes": 0}}, {"id": "0911f59e8fd1b1e95df6688b98e91f61", "name": "Turbinenplatz", "latitude": 47.3897772, "longitude": 8.5166922, "timestamp": "2025-04-29T06:24:29.426315+00:00Z", "free_bikes": 0, "empty_slots": 22, "extra": {"uid": 102, "address": "Technoparkstrasse 4", "zip": "8005", "city": "Z\u00fcrich", "slots": 22, "ebikes": 0}}, {"id": "09dbb437cf012bb3c809874b511e6f56", "name": "Strandbad Mythenquai", "latitude": 47.355381, "longitude": 8.535119, "timestamp": "2025-04-29T06:24:29.426196+00:00Z", "free_bikes": 0, "empty_slots": 13, "extra": {"uid": 157, "address": "Mythenquai 95", "zip": "8002", "city": "Z\u00fcrich", "slots": 13, "ebikes": 0}}, {"id": "0a47a7db1c3b007609f6723804d92ab1", "name": "Messe/Hallenstadion", "latitude": 47.410618, "longitude": 8.55189, "timestamp": "2025-04-29T06:24:29.426017+00:00Z", "free_bikes": 0, "empty_slots": 26, "extra": {"uid": 139, "address": "Wallisellenstrasse 46", "zip": "8050", "city": "Z\u00fcrich", "slots": 26, "ebikes": 0}}, {"id": "0bfe8b36323c648d72be892ca99afe22", "name": "Bleicherweg", "latitude": 47.366904, "longitude": 8.533736, "timestamp": "2025-04-29T06:24:29.425911+00:00Z", "free_bikes": 0, "empty_slots": 26, "extra": {"uid": 140, "address": "Bleicherweg 33", "zip": "8002", "city": "Z\u00fcrich", "slots": 26, "ebikes": 0}}, {"id": "0c645036955138b596c2f737362ade29", "name": "Glattzentrum", "latitude": 47.409405, "longitude": 8.596064, "timestamp": "2025-04-29T06:24:29.425686+00:00Z", "free_bikes": 0, "empty_slots": 27, "extra": {"uid": 603, "address": "Neue Winterthurerstrasse 82", "zip": "8304", "city": "Wallisellen", "slots": 27, "ebikes": 0}}, {"id": "0fb2137ef3fe1deefb8555185e869989", "name": "Lamprechtweg", "latitude": 47.413514, "longitude": 8.537816, "timestamp": "2025-04-29T06:24:29.426319+00:00Z", "free_bikes": 0, "empty_slots": 13, "extra": {"uid": 277, "address": "Birchstrasse 183", "zip": "8050", "city": "Z\u00fcrich", "slots": 13, "ebikes": 0}}, {"id": "12f2e67249b8d6a562358b1714e0dd50", "name": "Lindenplatz", "latitude": 47.387685, "longitude": 8.486284, "timestamp": "2025-04-29T06:24:29.425784+00:00Z", "free_bikes": 0, "empty_slots": 32, "extra": {"uid": 151, "address": "Lindenplatz 1", "zip": "8048", "city": "Z\u00fcrich", "slots": 32, "ebikes": 0}}, {"id": "137bd3efd2c923321eae49321e6500ac", "name": "Emil-Oberh\u00e4nsli", "latitude": 47.417701, "longitude": 8.545602, "timestamp": "2025-04-29T06:24:29.425780+00:00Z", "free_bikes": 0, "empty_slots": 8, "extra": {"uid": 278, "address": "Felsenrainstrasse 2", "zip": "8050", "city": "Z\u00fcrich", "slots": 8, "ebikes": 0}}, {"id": "194414b32400e126bdbdcd97aeda3eea", "name": "Marktplatz", "latitude": 47.4099615, "longitude": 8.5452956, "timestamp": "2025-04-29T06:24:29.426087+00:00Z", "free_bikes": 0, "empty_slots": 24, "extra": {"uid": 61, "address": "Querstrasse 8", "zip": "8050", "city": "Z\u00fcrich", "slots": 24, "ebikes": 0}}, {"id": "19b8f0ad69230d152635abe7448ec023", "name": "Hottingerplatz", "latitude": 47.3690153, "longitude": 8.5543974, "timestamp": "2025-04-29T06:24:29.425941+00:00Z", "free_bikes": 0, "empty_slots": 19, "extra": {"uid": 515, "address": "Kasinostrasse 10", "zip": "8032", "city": "Z\u00fcrich", "slots": 19, "ebikes": 0}}, {"id": "1bc7acad24a570ab132d24b076715684", "name": "ZSC Lions", "latitude": 47.394686, "longitude": 8.478455, "timestamp": "2025-04-29T06:24:29.426060+00:00Z", "free_bikes": 0, "empty_slots": 80, "extra": {"uid": 831, "address": "Vulkanstrasse 130", "zip": "8048", "city": "Z\u00fcrich", "slots": 80, "ebikes": 0}}, {"id": "1c91448c91298230f2530eb124b5425e", "name": "B\u00fcrkliplatz", "latitude": 47.367055, "longitude": 8.541683, "timestamp": "2025-04-29T06:24:29.425839+00:00Z", "free_bikes": 0, "empty_slots": 26, "extra": {"uid": 395, "address": "Stadthausquai 1", "zip": "8001", "city": "Z\u00fcrich", "slots": 26, "ebikes": 0}}, {"id": "1e3214038dfb517debafffb984686277", "name": "Feldeggstrasse", "latitude": 47.359978, "longitude": 8.552717, "timestamp": "2025-04-29T06:24:29.425972+00:00Z", "free_bikes": 0, "empty_slots": 19, "extra": {"uid": 263, "address": "Seefeldstrasse 96", "zip": "8008", "city": "Z\u00fcrich", "slots": 19, "ebikes": 0}}, {"id": "1eb0e71bd707cb2e2fe69d1b968099db", "name": "Bahnhof Glattbrugg", "latitude": 47.43117, "longitude": 8.55845, "timestamp": "2025-04-29T06:24:29.425604+00:00Z", "free_bikes": 0, "empty_slots": 16, "extra": {"uid": 523, "address": "Bahnhofplatz 1", "zip": "8152", "city": "Opfikon", "slots": 16, "ebikes": 0}}, {"id": "1fdf746be217cc435a0ad2dbf801c7c7", "name": "Louis-H\u00e4fliger-Park", "latitude": 47.412873, "longitude": 8.533265, "timestamp": "2025-04-29T06:24:29.425854+00:00Z", "free_bikes": 0, "empty_slots": 11, "extra": {"uid": 390, "address": "Regina-K\u00e4gi-Strasse 1", "zip": "8050", "city": "Z\u00fcrich", "slots": 11, "ebikes": 0}}, {"id": "2066073742c157cf454e2306faa078db", "name": "Hallwylstrasse", "latitude": 47.370141, "longitude": 8.527298, "timestamp": "2025-04-29T06:24:29.425660+00:00Z", "free_bikes": 0, "empty_slots": 18, "extra": {"uid": 357, "address": "Hallwylstrasse 71", "zip": "8004", "city": "Z\u00fcrich", "slots": 18, "ebikes": 0}}, {"id": "2083bc15d7a91995e746571a96185669", "name": "Schmiede Wiedikon", "latitude": 47.370037, "longitude": 8.518185, "timestamp": "2025-04-29T06:24:29.426232+00:00Z", "free_bikes": 0, "empty_slots": 27, "extra": {"uid": 558, "address": "Brinerstrasse 2", "zip": "8003", "city": "Z\u00fcrich", "slots": 27, "ebikes": 0}}, {"id": "22324eeef43788cc0ffee31fbfd2e6e3", "name": "Bitte benutzen Sie die neue App. Bahnhof Opfikon", "latitude": 47.430911, "longitude": 8.562033, "timestamp": "2025-04-29T06:24:29.425572+00:00Z", "free_bikes": 0, "empty_slots": 18, "extra": {"uid": 519, "address": "Schaffhauserstrasse 64", "zip": "8152", "city": "Opfikon", "slots": 18, "ebikes": 0}}, {"id": "23d8b8ab49c6f3a6f3353eb040531a52", "name": "Bederbr\u00fccke", "latitude": 47.365139, "longitude": 8.530916, "timestamp": "2025-04-29T06:24:29.425378+00:00Z", "free_bikes": 1, "empty_slots": 18, "extra": {"uid": 107, "address": "Gutenbergstrasse 1", "zip": "8002", "city": "Z\u00fcrich", "slots": 19, "ebikes": 0}}, {"id": "252d60b34539da5d566baed3e4a47499", "name": "Bellevue", "latitude": 47.366752, "longitude": 8.544935, "timestamp": "2025-04-29T06:24:29.425792+00:00Z", "free_bikes": 0, "empty_slots": 64, "extra": {"uid": 141, "address": "Bellevueplatz 2", "zip": "8001", "city": "Z\u00fcrich", "slots": 64, "ebikes": 0}}, {"id": "27ed4f1b5edaddcb96936f31a08bf92f", "name": "Meierhofplatz", "latitude": 47.401852, "longitude": 8.499265, "timestamp": "2025-04-29T06:24:29.425739+00:00Z", "free_bikes": 0, "empty_slots": 22, "extra": {"uid": 391, "address": "Limmattalstrasse 177", "zip": "8049", "city": "Z\u00fcrich", "slots": 22, "ebikes": 0}}, {"id": "28cdd31e94a2d2221e2d2dc9cf9bdc67", "name": "Schluefweg", "latitude": 47.444516, "longitude": 8.582115, "timestamp": "2025-04-29T06:24:29.425743+00:00Z", "free_bikes": 0, "empty_slots": 18, "extra": {"uid": 522, "address": "Schluefweg 10", "zip": "8302", "city": "Kloten", "slots": 18, "ebikes": 0}}, {"id": "2f2d6651e255175aca434b9266395874", "name": "Binz", "latitude": 47.36309, "longitude": 8.51813, "timestamp": "2025-04-29T06:24:29.426212+00:00Z", "free_bikes": 0, "empty_slots": 19, "extra": {"uid": 128, "address": "Haldenstrasse 7", "zip": "8045", "city": "Z\u00fcrich", "slots": 19, "ebikes": 0}}, {"id": "2f72f2b63d831f275d3ba9fb9bf7c3c3", "name": "Flugplatz D\u00fcbendorf", "latitude": 47.40245, "longitude": 8.62726, "timestamp": "2025-04-29T06:24:29.426082+00:00Z", "free_bikes": 0, "empty_slots": 16, "extra": {"uid": 520, "address": "Wangenstrasse 47-39", "zip": "8600", "city": "D\u00fcbendorf", "slots": 16, "ebikes": 0}}, {"id": "2ff7e3f47f34d42dc3fa0f028cbdd870", "name": "Hardplatz", "latitude": 47.381915, "longitude": 8.515252, "timestamp": "2025-04-29T06:24:29.425866+00:00Z", "free_bikes": 0, "empty_slots": 24, "extra": {"uid": 451, "address": "Sihlfeldstrasse 175", "zip": "8004", "city": "Z\u00fcrich", "slots": 24, "ebikes": 0}}, {"id": "3102c0cdd4b080a774c93a4e7c383f08", "name": "Bitte benutzen Sie die neue App. Beatenplatz", "latitude": 47.375991201, "longitude": 8.541239126, "timestamp": "2025-04-29T06:24:29.425565+00:00Z", "free_bikes": 0, "empty_slots": 13, "extra": {"uid": 274, "address": "Beatenplatz 1", "zip": "8001", "city": "Z\u00fcrich", "slots": 13, "ebikes": 0}}, {"id": "33139bbc45258a85cfdeabc6d8d5ac22", "name": "Manesseplatz", "latitude": 47.365272, "longitude": 8.52174, "timestamp": "2025-04-29T06:24:29.426295+00:00Z", "free_bikes": 0, "empty_slots": 32, "extra": {"uid": 153, "address": "Manessestrasse 87", "zip": "8045", "city": "Z\u00fcrich", "slots": 32, "ebikes": 0}}, {"id": "355ed1f1ad57e01953f7adf99a422e5b", "name": "Kunsthaus", "latitude": 47.370869, "longitude": 8.548045, "timestamp": "2025-04-29T06:24:29.425359+00:00Z", "free_bikes": 1, "empty_slots": 25, "extra": {"uid": 137, "address": "Heimplatz 1", "zip": "8001", "city": "Z\u00fcrich", "slots": 26, "ebikes": 0}}, {"id": "35dcc74a46b920b945339d5815f16e84", "name": "Z\u00fcrcher Kantonalbank", "latitude": 47.368064, "longitude": 8.539046, "timestamp": "2025-04-29T06:24:29.425886+00:00Z", "free_bikes": 0, "empty_slots": 11, "extra": {"uid": 100, "address": "Talstrasse 12", "zip": "8001", "city": "Z\u00fcrich", "slots": 11, "ebikes": 0}}, {"id": "35e4f4342d20aa70874e639e0005fdf0", "name": "Pauluskirche", "latitude": 47.394007, "longitude": 8.542036, "timestamp": "2025-04-29T06:24:29.425750+00:00Z", "free_bikes": 0, "empty_slots": 22, "extra": {"uid": 275, "address": "Milchbuckstrasse 52", "zip": "8057", "city": "Z\u00fcrich", "slots": 22, "ebikes": 0}}, {"id": "35ffc80300abe5f1d728f92527a3eb8f", "name": "Seebach Z\u00fcriMobil Station", "latitude": 47.421914, "longitude": 8.549832, "timestamp": "2025-04-29T06:24:29.426261+00:00Z", "free_bikes": 0, "empty_slots": 80, "extra": {"uid": 638, "address": "Schaffhauserstrasse 509", "zip": "8052", "city": "Z\u00fcrich", "slots": 80, "ebikes": 0}}, {"id": "367edc48dbc1a59363e3ad0e6563f0af", "name": "Aegerten", "latitude": 47.368939, "longitude": 8.523306, "timestamp": "2025-04-29T06:24:29.426276+00:00Z", "free_bikes": 0, "empty_slots": 26, "extra": {"uid": 385, "address": "Erlachstrasse 3", "zip": "8003", "city": "Z\u00fcrich", "slots": 26, "ebikes": 0}}, {"id": "36b3106bd853aff9e7722ee025d9440b", "name": "Pelikanplatz", "latitude": 47.371083, "longitude": 8.536101, "timestamp": "2025-04-29T06:24:29.425430+00:00Z", "free_bikes": 1, "empty_slots": 18, "extra": {"uid": 87, "address": "Pelikanplatz 5", "zip": "8001", "city": "Z\u00fcrich", "slots": 19, "ebikes": 0}}, {"id": "37690c661826ace3661f94f032160fb4", "name": "Josefwiese", "latitude": 47.385718, "longitude": 8.524762, "timestamp": "2025-04-29T06:24:29.425825+00:00Z", "free_bikes": 0, "empty_slots": 22, "extra": {"uid": 160, "address": "Otto-Str. 25", "zip": "8005", "city": "Z\u00fcrich", "slots": 22, "ebikes": 0}}, {"id": "3aa36a4394de41661c0012f45e2acfd9", "name": "Villa Bleuler", "latitude": 47.36162, "longitude": 8.554501, "timestamp": "2025-04-29T06:24:29.425674+00:00Z", "free_bikes": 0, "empty_slots": 16, "extra": {"uid": 133, "address": "Feldeggstrasse 80", "zip": "8008", "city": "Z\u00fcrich", "slots": 16, "ebikes": 0}}, {"id": "3b469b9b62fe57b3f5cb50d2612d9bfc", "name": "Ausser Betrieb wegen Bauarbeiten - Wipkingerplatz", "latitude": 47.392347, "longitude": 8.523549, "timestamp": "2025-04-29T06:24:29.425586+00:00Z", "free_bikes": 0, "empty_slots": 22, "extra": {"uid": 280, "address": "Wipkingerplatz 4", "zip": "8037", "city": "Z\u00fcrich", "slots": 22, "ebikes": 0}}, {"id": "3c0a9ef0616518209685efdc2ad48ebc", "name": "Stampfenbachplatz", "latitude": 47.379952, "longitude": 8.542726, "timestamp": "2025-04-29T06:24:29.425933+00:00Z", "free_bikes": 0, "empty_slots": 27, "extra": {"uid": 129, "address": "Walchestrasse 11", "zip": "8006", "city": "Z\u00fcrich", "slots": 27, "ebikes": 0}}, {"id": "3c233b7e1e01824f5b9197d0a04572a8", "name": "Werdstrasse, TX Group AG", "latitude": 47.37247535, "longitude": 8.53001018, "timestamp": "2025-04-29T06:24:29.425593+00:00Z", "free_bikes": 0, "empty_slots": 16, "extra": {"uid": 109, "address": "Werdstrasse 21", "zip": "8004", "city": "Z\u00fcrich", "slots": 16, "ebikes": 0}}, {"id": "3ee762e666aa85079026ca5d65c32ee4", "name": "Sackzelg", "latitude": 47.375247, "longitude": 8.496511, "timestamp": "2025-04-29T06:24:29.426291+00:00Z", "free_bikes": 0, "empty_slots": 19, "extra": {"uid": 444, "address": "Letzigraben 139", "zip": "8047", "city": "Z\u00fcrich", "slots": 19, "ebikes": 0}}, {"id": "3faf1fee43b95111a80e500bb9bee800", "name": "Glattwiesen", "latitude": 47.402801, "longitude": 8.58131, "timestamp": "2025-04-29T06:24:29.425710+00:00Z", "free_bikes": 0, "empty_slots": 19, "extra": {"uid": 539, "address": "Altwiesenstrasse 104", "zip": "8051", "city": "Z\u00fcrich", "slots": 19, "ebikes": 0}}, {"id": "40d82a50dfa4bd94c233891028ce3140", "name": "R\u00f6schibachplatz", "latitude": 47.393309, "longitude": 8.528074, "timestamp": "2025-04-29T06:24:29.425788+00:00Z", "free_bikes": 0, "empty_slots": 11, "extra": {"uid": 392, "address": "R\u00f6schibachstrasse 73", "zip": "8037", "city": "Z\u00fcrich", "slots": 11, "ebikes": 0}}, {"id": "4372e3f4b3ba89584e069887e500af3e", "name": "Oerliker Park", "latitude": 47.415721, "longitude": 8.538067, "timestamp": "2025-04-29T06:24:29.425919+00:00Z", "free_bikes": 0, "empty_slots": 13, "extra": {"uid": 393, "address": "Birchstrasse 191", "zip": "8050", "city": "Z\u00fcrich", "slots": 13, "ebikes": 0}}, {"id": "45ea4a3ba7534ddee36d92f7601c9576", "name": "Jugendherberge", "latitude": 47.347701, "longitude": 8.528049, "timestamp": "2025-04-29T06:24:29.425259+00:00Z", "free_bikes": 1, "empty_slots": 21, "extra": {"uid": 568, "address": "Mutschellenstrasse 114", "zip": "8038", "city": "Z\u00fcrich", "slots": 22, "ebikes": 0}}, {"id": "483cf4d6490d5d5ae6c422a23261d6ff", "name": "Vulkanplatz", "latitude": 47.392336, "longitude": 8.491061, "timestamp": "2025-04-29T06:24:29.425735+00:00Z", "free_bikes": 0, "empty_slots": 19, "extra": {"uid": 149, "address": "Vulkanplatz 1", "zip": "8048", "city": "Z\u00fcrich", "slots": 19, "ebikes": 0}}, {"id": "4a2565165ceee119092418e944ed6b4d", "name": "Binzallee", "latitude": 47.3663708, "longitude": 8.514176, "timestamp": "2025-04-29T06:24:29.425990+00:00Z", "free_bikes": 0, "empty_slots": 10, "extra": {"uid": 446, "address": "Talwiesenstrasse 92", "zip": "8055", "city": "Z\u00fcrich", "slots": 10, "ebikes": 0}}, {"id": "4ab3d60fcc1aa7f7a9c1ade01a34c5aa", "name": "Limmatplatz", "latitude": 47.384918, "longitude": 8.531935, "timestamp": "2025-04-29T06:24:29.426204+00:00Z", "free_bikes": 0, "empty_slots": 32, "extra": {"uid": 93, "address": "Kornhausbr\u00fccke 1", "zip": "8005", "city": "Z\u00fcrich", "slots": 32, "ebikes": 0}}, {"id": "518f53f177249db300957ad8a16fb6ed", "name": "Zollstrasse", "latitude": 47.381149, "longitude": 8.532405, "timestamp": "2025-04-29T06:24:29.426072+00:00Z", "free_bikes": 0, "empty_slots": 19, "extra": {"uid": 565, "address": "Neugasse 6", "zip": "8005", "city": "Z\u00fcrich", "slots": 19, "ebikes": 0}}, {"id": "525b09cd56ea22a4f7ebcea099581184", "name": "Gutstrasse", "latitude": 47.371455, "longitude": 8.5070564, "timestamp": "2025-04-29T06:24:29.425721+00:00Z", "free_bikes": 0, "empty_slots": 13, "extra": {"uid": 447, "address": "Gutstrasse 87", "zip": "8055", "city": "Z\u00fcrich", "slots": 13, "ebikes": 0}}, {"id": "52a9b02498f0885c04f9b2feead5db0d", "name": "Freibad Allenmoos", "latitude": 47.405751, "longitude": 8.539016, "timestamp": "2025-04-29T06:24:29.425835+00:00Z", "free_bikes": 0, "empty_slots": 24, "extra": {"uid": 569, "address": "Ringstrasse 82", "zip": "8057", "city": "Z\u00fcrich", "slots": 24, "ebikes": 0}}, {"id": "53dfb49125ee76578097fbb031abdfa1", "name": "Predigerplatz", "latitude": 47.373675, "longitude": 8.545505, "timestamp": "2025-04-29T06:24:29.426225+00:00Z", "free_bikes": 0, "empty_slots": 32, "extra": {"uid": 158, "address": "Predigerpatz 21", "zip": "8001", "city": "Z\u00fcrich", "slots": 32, "ebikes": 0}}, {"id": "54ecb39c75b96364f068a9258ae86aa0", "name": "Lochergut", "latitude": 47.375819, "longitude": 8.516676, "timestamp": "2025-04-29T06:24:29.425615+00:00Z", "free_bikes": 0, "empty_slots": 16, "extra": {"uid": 266, "address": "Badenerstrasse 246", "zip": "8004", "city": "Z\u00fcrich", "slots": 16, "ebikes": 0}}, {"id": "56e5eace16d6e0c57c048eb1259c3e88", "name": "Radiostudio", "latitude": 47.402749, "longitude": 8.5355, "timestamp": "2025-04-29T06:24:29.425879+00:00Z", "free_bikes": 0, "empty_slots": 19, "extra": {"uid": 572, "address": "Wehntalerstrasse 98", "zip": "8057", "city": "Z\u00fcrich", "slots": 19, "ebikes": 0}}, {"id": "56e773418fea549910408e331f09a04c", "name": "Kreuzplatz", "latitude": 47.365045, "longitude": 8.553922, "timestamp": "2025-04-29T06:24:29.425964+00:00Z", "free_bikes": 0, "empty_slots": 18, "extra": {"uid": 131, "address": "Kreuzplatz 1", "zip": "8032", "city": "Z\u00fcrich", "slots": 18, "ebikes": 0}}, {"id": "5868763db844a147b8fc46fa7d5a1923", "name": "ETH / Naturhistorisches Museum UZH", "latitude": 47.375522, "longitude": 8.547696, "timestamp": "2025-04-29T06:24:29.425976+00:00Z", "free_bikes": 0, "empty_slots": 80, "extra": {"uid": 701, "address": "Karl-Schmid-Strasse 1", "zip": "8006", "city": "Z\u00fcrich", "slots": 80, "ebikes": 0}}, {"id": "58ef852b12a8e7c62326f9d3b8d3980b", "name": "R\u00f6ntgenstrasse", "latitude": 47.3820827, "longitude": 8.5286468, "timestamp": "2025-04-29T06:24:29.425996+00:00Z", "free_bikes": 0, "empty_slots": 24, "extra": {"uid": 92, "address": "R\u00f6ntgenstrasse 6", "zip": "8005", "city": "Z\u00fcrich", "slots": 24, "ebikes": 0}}, {"id": "59d5d5f3af1f3184f5dea3450029cf4b", "name": "Rigiplatz", "latitude": 47.384902, "longitude": 8.547904, "timestamp": "2025-04-29T06:24:29.426173+00:00Z", "free_bikes": 0, "empty_slots": 14, "extra": {"uid": 386, "address": "Culmannstrasse 100", "zip": "8006", "city": "Z\u00fcrich", "slots": 14, "ebikes": 0}}, {"id": "617e0461f3d5b8ff8dc0c525d1e1f523", "name": "Dorfstrasse", "latitude": 47.394554, "longitude": 8.522117, "timestamp": "2025-04-29T06:24:29.425980+00:00Z", "free_bikes": 0, "empty_slots": 13, "extra": {"uid": 361, "address": "Dorfstrasse 40", "zip": "8037", "city": "Z\u00fcrich", "slots": 13, "ebikes": 0}}, {"id": "6316a182d5e76978abd5bea73bd12b72", "name": "Zwicky-Areal", "latitude": 47.40462, "longitude": 8.60465, "timestamp": "2025-04-29T06:24:29.426184+00:00Z", "free_bikes": 0, "empty_slots": 18, "extra": {"uid": 530, "address": "Seidenplatz 3", "zip": "8304", "city": "Wallisellen", "slots": 18, "ebikes": 0}}, {"id": "63e7caad6a5ab0553c5e1baa78c76dd0", "name": "Westpark", "latitude": 47.389862, "longitude": 8.514605, "timestamp": "2025-04-29T06:24:29.426287+00:00Z", "free_bikes": 0, "empty_slots": 16, "extra": {"uid": 273, "address": "Pfingstweidstrasse 60", "zip": "8005", "city": "Z\u00fcrich", "slots": 16, "ebikes": 0}}, {"id": "6409630fb5e71fdb5ab2151784d7d9c8", "name": "Letzipark", "latitude": 47.385711, "longitude": 8.499287, "timestamp": "2025-04-29T06:24:29.426052+00:00Z", "free_bikes": 0, "empty_slots": 13, "extra": {"uid": 455, "address": "Baslerstrasse 51", "zip": "8048", "city": "Z\u00fcrich", "slots": 13, "ebikes": 0}}, {"id": "65b84cca478be02ee7bf6e6d14930400", "name": "Puls 5", "latitude": 47.3917837, "longitude": 8.5181701, "timestamp": "2025-04-29T06:24:29.425922+00:00Z", "free_bikes": 0, "empty_slots": 26, "extra": {"uid": 91, "address": "Hardturmstrasse 11", "zip": "8005", "city": "Z\u00fcrich", "slots": 26, "ebikes": 0}}, {"id": "660768503e0e17fcaaa82efcd335e369", "name": "GZ Wollishofen", "latitude": 47.345298, "longitude": 8.53577, "timestamp": "2025-04-29T06:24:29.425851+00:00Z", "free_bikes": 0, "empty_slots": 26, "extra": {"uid": 564, "address": "Bachstrasse 15", "zip": "8038", "city": "Z\u00fcrich", "slots": 26, "ebikes": 0}}, {"id": "6935d3a9c66f89d2868e35f84db5cecd", "name": "Dorflinde", "latitude": 47.407098, "longitude": 8.55033, "timestamp": "2025-04-29T06:24:29.426242+00:00Z", "free_bikes": 0, "empty_slots": 19, "extra": {"uid": 366, "address": "Schwamendingenstrasse 41", "zip": "8050", "city": "Z\u00fcrich", "slots": 19, "ebikes": 0}}, {"id": "6aeaa89752805bc558a9d6dab022fa25", "name": "Goldbrunnenplatz", "latitude": 47.370238, "longitude": 8.514841, "timestamp": "2025-04-29T06:24:29.426208+00:00Z", "free_bikes": 0, "empty_slots": 19, "extra": {"uid": 562, "address": "Schrennengasse 37", "zip": "8003", "city": "Z\u00fcrich", "slots": 19, "ebikes": 0}}, {"id": "6b08f66fecfa667c2db3f4162d9a11e8", "name": "Seebad Utoquai", "latitude": 47.361335, "longitude": 8.547781, "timestamp": "2025-04-29T06:24:29.425956+00:00Z", "free_bikes": 0, "empty_slots": 19, "extra": {"uid": 135, "address": "Utoquai 50", "zip": "8008", "city": "Z\u00fcrich", "slots": 19, "ebikes": 0}}, {"id": "6b1c54cb792e63854623f1547581edec", "name": "Fischerweg", "latitude": 47.393365, "longitude": 8.512551, "timestamp": "2025-04-29T06:24:29.425648+00:00Z", "free_bikes": 0, "empty_slots": 11, "extra": {"uid": 359, "address": "Hardturmstrasse 161", "zip": "8005", "city": "Z\u00fcrich", "slots": 11, "ebikes": 0}}, {"id": "6e2f832e67c2ef110b2a3fa94b40cf23", "name": "Wahlenpark", "latitude": 47.416155, "longitude": 8.541712, "timestamp": "2025-04-29T06:24:29.426192+00:00Z", "free_bikes": 0, "empty_slots": 13, "extra": {"uid": 363, "address": "Eggb\u00fchlstrasse 21", "zip": "8050", "city": "Z\u00fcrich", "slots": 13, "ebikes": 0}}, {"id": "6f54253df3a0073df899e87459699e3e", "name": "M\u00fchlebachstrasse", "latitude": 47.358557, "longitude": 8.557088, "timestamp": "2025-04-29T06:24:29.426121+00:00Z", "free_bikes": 0, "empty_slots": 24, "extra": {"uid": 134, "address": "M\u00fchlebachstrasse 131", "zip": "8008", "city": "Z\u00fcrich", "slots": 24, "ebikes": 0}}, {"id": "704cf4dd1ee66ec74d33f24329fc07af", "name": "Birchd\u00f6rfli", "latitude": 47.406988, "longitude": 8.532464, "timestamp": "2025-04-29T06:24:29.426200+00:00Z", "free_bikes": 0, "empty_slots": 14, "extra": {"uid": 424, "address": "K\u00fcnzlistrasse 41", "zip": "8057", "city": "Z\u00fcrich", "slots": 14, "ebikes": 0}}, {"id": "766cc34c68663e222ee5a775519426a9", "name": "Bahnhof Affoltern", "latitude": 47.420757, "longitude": 8.508131, "timestamp": "2025-04-29T06:24:29.425938+00:00Z", "free_bikes": 0, "empty_slots": 14, "extra": {"uid": 425, "address": "S-Bahnhof 1", "zip": "8046", "city": "Z\u00fcrich", "slots": 14, "ebikes": 0}}, {"id": "77163810c531dfff2aa3558e2d2c35cc", "name": "Stauffacher", "latitude": 47.3742296, "longitude": 8.5285533, "timestamp": "2025-04-29T06:24:29.426132+00:00Z", "free_bikes": 0, "empty_slots": 13, "extra": {"uid": 142, "address": "Stauffacherstrasse 41", "zip": "8004", "city": "Z\u00fcrich", "slots": 13, "ebikes": 0}}, {"id": "77c7a4664c6ef0c210b199c5d84fc80e", "name": "Sihlpost", "latitude": 47.377359, "longitude": 8.535855, "timestamp": "2025-04-29T06:24:29.426303+00:00Z", "free_bikes": 0, "empty_slots": 56, "extra": {"uid": 105, "address": "Kasernenstrasse 101", "zip": "8004", "city": "Z\u00fcrich", "slots": 56, "ebikes": 0}}, {"id": "799372844f801c1dc0645dbd215a4911", "name": "Werd", "latitude": 47.372329, "longitude": 8.52714, "timestamp": "2025-04-29T06:24:29.426163+00:00Z", "free_bikes": 0, "empty_slots": 26, "extra": {"uid": 154, "address": "Werdstrasse 75", "zip": "8004", "city": "Z\u00fcrich", "slots": 26, "ebikes": 0}}, {"id": "7b430635cb9353f7aea90a27fe66ff02", "name": "Oberdorf", "latitude": 47.39572, "longitude": 8.62328, "timestamp": "2025-04-29T06:24:29.426158+00:00Z", "free_bikes": 0, "empty_slots": 14, "extra": {"uid": 518, "address": "Alte Oberdorfstrasse 15", "zip": "8600", "city": "D\u00fcbendorf", "slots": 14, "ebikes": 0}}, {"id": "7be131ab607f81c4b4a57b6885c1823e", "name": "Gasometerstrasse", "latitude": 47.383858, "longitude": 8.528796, "timestamp": "2025-04-29T06:24:29.425627+00:00Z", "free_bikes": 0, "empty_slots": 19, "extra": {"uid": 449, "address": "Gasometerstrasse 24", "zip": "8005", "city": "Z\u00fcrich", "slots": 19, "ebikes": 0}}, {"id": "7ca43145ccdbe8bc6604863c7f9d00d6", "name": "Hermann-Greulich-Strasse", "latitude": 47.378556, "longitude": 8.520168, "timestamp": "2025-04-29T06:24:29.425847+00:00Z", "free_bikes": 0, "empty_slots": 19, "extra": {"uid": 384, "address": "Herman-Greulich-Strasse 56", "zip": "8004", "city": "Z\u00fcrich", "slots": 19, "ebikes": 0}}, {"id": "7cf2fc6f79fed71f4fa6ef60830ceb19", "name": "Bahnhof Kloten", "latitude": 47.448799, "longitude": 8.583122, "timestamp": "2025-04-29T06:24:29.425714+00:00Z", "free_bikes": 0, "empty_slots": 16, "extra": {"uid": 528, "address": "Bahnhofstrasse 10", "zip": "8302", "city": "Kloten", "slots": 16, "ebikes": 0}}, {"id": "7f7d2452d7a66c0191d3430434a1d2b0", "name": "Kornhausstrasse", "latitude": 47.388689, "longitude": 8.536433, "timestamp": "2025-04-29T06:24:29.426097+00:00Z", "free_bikes": 0, "empty_slots": 10, "extra": {"uid": 365, "address": "Kornhausstrasse 30", "zip": "8006", "city": "Z\u00fcrich", "slots": 10, "ebikes": 0}}, {"id": "7fb50fd35a97f54b8fd30dbe810a33b7", "name": "Sirius-Platz", "latitude": 47.418472, "longitude": 8.561746, "timestamp": "2025-04-29T06:24:29.426236+00:00Z", "free_bikes": 0, "empty_slots": 18, "extra": {"uid": 516, "address": "Sirius-Platz", "zip": "8152", "city": "Opfikon", "slots": 18, "ebikes": 0}}, {"id": "83886587d4d5397ecbd51dbfa4aeefd8", "name": "Stapferstube", "latitude": 47.382577, "longitude": 8.546903, "timestamp": "2025-04-29T06:24:29.426116+00:00Z", "free_bikes": 0, "empty_slots": 11, "extra": {"uid": 430, "address": "Stapferstrasse 7", "zip": "8006", "city": "Z\u00fcrich", "slots": 11, "ebikes": 0}}, {"id": "83c594a74d8793b19930555178f7b72c", "name": "Bahnhof Hardbr\u00fccke", "latitude": 47.386741, "longitude": 8.518982, "timestamp": "2025-04-29T06:24:29.426280+00:00Z", "free_bikes": 0, "empty_slots": 32, "extra": {"uid": 108, "address": "Geroldstrasse 4", "zip": "8005", "city": "Z\u00fcrich", "slots": 32, "ebikes": 0}}, {"id": "87553a824faff0e51a4a53319319146c", "name": "Utogrund", "latitude": 47.378521, "longitude": 8.496727, "timestamp": "2025-04-29T06:24:29.425999+00:00Z", "free_bikes": 0, "empty_slots": 19, "extra": {"uid": 125, "address": "Albisriederstrasse 200", "zip": "8047", "city": "Z\u00fcrich", "slots": 19, "ebikes": 0}}, {"id": "885285ee2d460c7ab8188eae79708023", "name": "Kirche B\u00fchl", "latitude": 47.368014, "longitude": 8.515902, "timestamp": "2025-04-29T06:24:29.426254+00:00Z", "free_bikes": 0, "empty_slots": 19, "extra": {"uid": 538, "address": "Goldbrunnenstrasse 54", "zip": "8055", "city": "Z\u00fcrich", "slots": 19, "ebikes": 0}}, {"id": "889c34d867152d0aae062af5c4d9c825", "name": "Sihlquai - Ausser Betrieb wegen Bauarbeiten", "latitude": 47.379705, "longitude": 8.537728, "timestamp": "2025-04-29T06:24:29.425577+00:00Z", "free_bikes": 0, "empty_slots": 27, "extra": {"uid": 513, "address": "Sihlquai 25", "zip": "8005", "city": "Z\u00fcrich", "slots": 27, "ebikes": 0}}, {"id": "8a5f2c9758ef7d123bdc5ac646fda7ed", "name": "Klopstockwiese", "latitude": 47.361567, "longitude": 8.525525, "timestamp": "2025-04-29T06:24:29.425698+00:00Z", "free_bikes": 0, "empty_slots": 26, "extra": {"uid": 127, "address": "Klopstockstrasse 23", "zip": "8002", "city": "Z\u00fcrich", "slots": 26, "ebikes": 0}}, {"id": "8ac471ecd5eaa77cd33362f1ed6c527f", "name": "Freibad Letzigraben", "latitude": 47.379686, "longitude": 8.501312, "timestamp": "2025-04-29T06:24:29.425609+00:00Z", "free_bikes": 0, "empty_slots": 24, "extra": {"uid": 448, "address": "Letzigraben 43", "zip": "8003", "city": "Z\u00fcrich", "slots": 24, "ebikes": 0}}, {"id": "8ad858032b5aa2692c8a7bdfbf8716d0", "name": "Sihlstrasse", "latitude": 47.3731102, "longitude": 8.5333139, "timestamp": "2025-04-29T06:24:29.426300+00:00Z", "free_bikes": 0, "empty_slots": 13, "extra": {"uid": 98, "address": "Sihlstrasse 81", "zip": "8001", "city": "Z\u00fcrich", "slots": 13, "ebikes": 0}}, {"id": "8c25d9cc032c5da3d51a88bf917205fd", "name": "Luggweg", "latitude": 47.389823, "longitude": 8.49163, "timestamp": "2025-04-29T06:24:29.425762+00:00Z", "free_bikes": 0, "empty_slots": 26, "extra": {"uid": 152, "address": "Luggwegstrasse 2", "zip": "8048", "city": "Z\u00fcrich", "slots": 26, "ebikes": 0}}, {"id": "8ed9e454bbfaf0d119cd9b62ade2ca6a", "name": "Hardau", "latitude": 47.381356, "longitude": 8.510418, "timestamp": "2025-04-29T06:24:29.425321+00:00Z", "free_bikes": 1, "empty_slots": 25, "extra": {"uid": 126, "address": "Bullingerstrasse 73", "zip": "8004", "city": "Z\u00fcrich", "slots": 26, "ebikes": 0}}, {"id": "8f8be37e24d8b0f7dd212c27be714241", "name": "General-Guisan-Quai", "latitude": 47.364871, "longitude": 8.537971, "timestamp": "2025-04-29T06:24:29.425858+00:00Z", "free_bikes": 0, "empty_slots": 24, "extra": {"uid": 454, "address": "General-Guisan-Quai 17", "zip": "8002", "city": "Z\u00fcrich", "slots": 24, "ebikes": 0}}, {"id": "9011713081cb756212a55173668a90ce", "name": "Central", "latitude": 47.375933, "longitude": 8.543447, "timestamp": "2025-04-29T06:24:29.425503+00:00Z", "free_bikes": 1, "empty_slots": 28, "extra": {"uid": 138, "address": "Limmatquai 138", "zip": "8001", "city": "Z\u00fcrich", "slots": 29, "ebikes": 0}}, {"id": "906100da6d33e64cb5bfb4aa035a0dd5", "name": "Stauffachertor", "latitude": 47.37271, "longitude": 8.530437, "timestamp": "2025-04-29T06:24:29.425678+00:00Z", "free_bikes": 0, "empty_slots": 19, "extra": {"uid": 362, "address": "Werdstrasse 25", "zip": "8004", "city": "Z\u00fcrich", "slots": 19, "ebikes": 0}}, {"id": "929d4c599451dab851aea5ca3db82aa0", "name": "Rennweg", "latitude": 47.373935, "longitude": 8.538633, "timestamp": "2025-04-29T06:24:29.426106+00:00Z", "free_bikes": 0, "empty_slots": 19, "extra": {"uid": 104, "address": "Bahnhofstrasse 66", "zip": "8001", "city": "Z\u00fcrich", "slots": 19, "ebikes": 0}}, {"id": "994cf067ef171a20f617c5f9838f6630", "name": "Mythenschloss", "latitude": 47.360004, "longitude": 8.534227, "timestamp": "2025-04-29T06:24:29.425898+00:00Z", "free_bikes": 0, "empty_slots": 26, "extra": {"uid": 563, "address": "Alfred Escher-Strasse 76", "zip": "8002", "city": "Z\u00fcrich", "slots": 26, "ebikes": 0}}, {"id": "99546f4faacf878bbe12b592e4d206f0", "name": "Bucheggplatz", "latitude": 47.39808, "longitude": 8.533647, "timestamp": "2025-04-29T06:24:29.426137+00:00Z", "free_bikes": 0, "empty_slots": 19, "extra": {"uid": 279, "address": "Bucheggplatz 2", "zip": "8057", "city": "Z\u00fcrich", "slots": 19, "ebikes": 0}}, {"id": "9963da19e27f71a988a99925468b8ac0", "name": "Rieterplatz", "latitude": 47.356387, "longitude": 8.526158, "timestamp": "2025-04-29T06:24:29.426021+00:00Z", "free_bikes": 0, "empty_slots": 22, "extra": {"uid": 452, "address": "Waffenplatzstrasse 89", "zip": "8002", "city": "Z\u00fcrich", "slots": 22, "ebikes": 0}}, {"id": "9d1ad9045bf920b6c34e701b08fa2348", "name": "Airgate", "latitude": 47.414545, "longitude": 8.552747, "timestamp": "2025-04-29T06:24:29.426168+00:00Z", "free_bikes": 0, "empty_slots": 18, "extra": {"uid": 276, "address": "Hagenholzstrasse 51", "zip": "8050", "city": "Z\u00fcrich", "slots": 18, "ebikes": 0}}, {"id": "9e32af1b2541b6fe93dd4d0fb9766ede", "name": "Stadtplatz Kloten", "latitude": 47.451336, "longitude": 8.58205, "timestamp": "2025-04-29T06:24:29.425386+00:00Z", "free_bikes": 1, "empty_slots": 13, "extra": {"uid": 524, "address": "Bachstrasse 8", "zip": "8302", "city": "Kloten", "slots": 14, "ebikes": 0}}, {"id": "9e5797445420e3f00048c8b14d7ab753", "name": "Herdern", "latitude": 47.3899342, "longitude": 8.5104051, "timestamp": "2025-04-29T06:24:29.426269+00:00Z", "free_bikes": 0, "empty_slots": 32, "extra": {"uid": 81, "address": "Pfingstweidstrasse 96e", "zip": "8001", "city": "Z\u00fcrich", "slots": 32, "ebikes": 0}}, {"id": "9e6b42ef092361e873509bd4e4ab84f0", "name": "Max-Frisch-Platz", "latitude": 47.412732, "longitude": 8.544185, "timestamp": "2025-04-29T06:24:29.425843+00:00Z", "free_bikes": 0, "empty_slots": 22, "extra": {"uid": 388, "address": "Jungholzstrasse 6", "zip": "8050", "city": "Z\u00fcrich", "slots": 22, "ebikes": 0}}, {"id": "9fe9504c3125a89e390fda08252de692", "name": "Hallenbad Oerlikon", "latitude": 47.4095467, "longitude": 8.5563463, "timestamp": "2025-04-29T06:24:29.426031+00:00Z", "free_bikes": 0, "empty_slots": 13, "extra": {"uid": 445, "address": "K\u00fchriedweg", "zip": "8050", "city": "Z\u00fcrich", "slots": 13, "ebikes": 0}}, {"id": "a170f5826d0c5c1a83a65c36ec2f652c", "name": "Leutschenpark", "latitude": 47.416873, "longitude": 8.555639, "timestamp": "2025-04-29T06:24:29.425717+00:00Z", "free_bikes": 0, "empty_slots": 11, "extra": {"uid": 537, "address": "Leutschenbachstrasse 50", "zip": "8050", "city": "Z\u00fcrich", "slots": 11, "ebikes": 0}}, {"id": "a17786f16dbfc202fdf0b07ba237fd26", "name": "Muggenb\u00fchl", "latitude": 47.3525, "longitude": 8.527157, "timestamp": "2025-04-29T06:24:29.425665+00:00Z", "free_bikes": 0, "empty_slots": 26, "extra": {"uid": 660, "address": "Mutschellenstrasse 36", "zip": "8038", "city": "Z\u00fcrich", "slots": 26, "ebikes": 0}}, {"id": "a50363d1a293805330df32b1979cb984", "name": "Forch", "latitude": 47.325159, "longitude": 8.647915, "timestamp": "2025-04-29T06:24:29.425772+00:00Z", "free_bikes": 0, "empty_slots": 16, "extra": {"uid": 798, "address": "Kaltensteinstrasse 32", "zip": "8127", "city": "Forch", "slots": 16, "ebikes": 0}}, {"id": "a61e658d2ad03c09a0e8414483ff62cc", "name": "Bahnhof Wiedikon", "latitude": 47.3716661, "longitude": 8.5235479, "timestamp": "2025-04-29T06:24:29.425926+00:00Z", "free_bikes": 0, "empty_slots": 38, "extra": {"uid": 85, "address": "Birmensdorferstrasse 80", "zip": "8003", "city": "Z\u00fcrich", "slots": 38, "ebikes": 0}}, {"id": "a9c517bf648444d27c80d084079d7b6c", "name": "Am Wasser", "latitude": 47.396172, "longitude": 8.50373, "timestamp": "2025-04-29T06:24:29.425901+00:00Z", "free_bikes": 0, "empty_slots": 24, "extra": {"uid": 566, "address": "Hardeggstrasse 6", "zip": "8049", "city": "Z\u00fcrich", "slots": 24, "ebikes": 0}}, {"id": "aa04a02dd54075596d812c71c41e0c75", "name": "Zurlindenstrasse", "latitude": 47.3771535, "longitude": 8.5104883, "timestamp": "2025-04-29T06:24:29.426102+00:00Z", "free_bikes": 0, "empty_slots": 24, "extra": {"uid": 97, "address": "Zurlindenstrasse 291", "zip": "8003", "city": "Z\u00fcrich", "slots": 24, "ebikes": 0}}, {"id": "aa0510f18f751da12a748a0c74f597bd", "name": "Gr\u00fcnau", "latitude": 47.396401, "longitude": 8.4860017, "timestamp": "2025-04-29T06:24:29.426257+00:00Z", "free_bikes": 0, "empty_slots": 19, "extra": {"uid": 110, "address": "Gr\u00fcnauring 37", "zip": "8064", "city": "Z\u00fcrich", "slots": 19, "ebikes": 0}}, {"id": "aa222f82a5d0c6f1b0e12c4d84b5d618", "name": "Stadthaus", "latitude": 47.369783, "longitude": 8.541732, "timestamp": "2025-04-29T06:24:29.426067+00:00Z", "free_bikes": 0, "empty_slots": 80, "extra": {"uid": 661, "address": "Kappelergasse", "zip": "8001", "city": "Z\u00fcrich", "slots": 80, "ebikes": 0}}, {"id": "abd46d5f5dd85813f59cf215b89ce1f8", "name": "Holunderhof", "latitude": 47.409881, "longitude": 8.535767, "timestamp": "2025-04-29T06:24:29.425702+00:00Z", "free_bikes": 0, "empty_slots": 19, "extra": {"uid": 396, "address": "Regensbergstrasse 195", "zip": "8050", "city": "Z\u00fcrich", "slots": 19, "ebikes": 0}}, {"id": "ac176a26e02265f3f87ff8ee1e53c4df", "name": "Markthalle", "latitude": 47.387531, "longitude": 8.527138, "timestamp": "2025-04-29T06:24:29.426283+00:00Z", "free_bikes": 0, "empty_slots": 16, "extra": {"uid": 164, "address": "R\u00f6ntgenstrasse 87", "zip": "8005", "city": "Z\u00fcrich", "slots": 16, "ebikes": 0}}, {"id": "af9a3ea8ac53d6d288a3166a7e5f218e", "name": "Siriuswiese", "latitude": 47.380319, "longitude": 8.552615, "timestamp": "2025-04-29T06:24:29.426143+00:00Z", "free_bikes": 0, "empty_slots": 11, "extra": {"uid": 356, "address": "Siriusstrasse 4", "zip": "8044", "city": "Z\u00fcrich", "slots": 11, "ebikes": 0}}, {"id": "b0b65c38437bcbf52c04ee163cb558c9", "name": "Museum f\u00fcr Gestaltung", "latitude": 47.382798, "longitude": 8.53545, "timestamp": "2025-04-29T06:24:29.425813+00:00Z", "free_bikes": 0, "empty_slots": 24, "extra": {"uid": 106, "address": "Ausstellungsstrasse 44", "zip": "8005", "city": "Z\u00fcrich", "slots": 24, "ebikes": 0}}, {"id": "b0b7fe9a09479988645857f8b853a92c", "name": "B\u00e4ckeranlage", "latitude": 47.377148, "longitude": 8.523818, "timestamp": "2025-04-29T06:24:29.425746+00:00Z", "free_bikes": 0, "empty_slots": 40, "extra": {"uid": 95, "address": "Stauffacherstrasse 127", "zip": "8004", "city": "Z\u00fcrich", "slots": 40, "ebikes": 0}}, {"id": "b15b08229fd80ac3003b3546c2ced12a", "name": "Escher-Wyss-Platz", "latitude": 47.3899, "longitude": 8.523722, "timestamp": "2025-04-29T06:24:29.426004+00:00Z", "free_bikes": 0, "empty_slots": 19, "extra": {"uid": 143, "address": "Limmatstrasse 310", "zip": "8005", "city": "Z\u00fcrich", "slots": 19, "ebikes": 0}}, {"id": "b41a8c08394dcfb94fc2c829350cf834", "name": "Flughafen Kloten", "latitude": 47.45041071949902, "longitude": 8.563071583930034, "timestamp": "2025-04-29T06:24:29.426111+00:00Z", "free_bikes": 0, "empty_slots": 16, "extra": {"uid": 574, "address": "Veloabstellplatz Parking 2", "zip": "8302", "city": "Kloten", "slots": 16, "ebikes": 0}}, {"id": "b60385758066b8473754152008e6d02d", "name": "Bahnhof Stettbach", "latitude": 47.397885, "longitude": 8.596202, "timestamp": "2025-04-29T06:24:29.426273+00:00Z", "free_bikes": 0, "empty_slots": 26, "extra": {"uid": 514, "address": "Bahnhof Stettbach", "zip": "8051", "city": "Z\u00fcrich", "slots": 26, "ebikes": 0}}, {"id": "b6afdace468a2afcdb2e6b31e2f55adf", "name": "Bahnhof Altstetten", "latitude": 47.391366, "longitude": 8.488108, "timestamp": "2025-04-29T06:24:29.425960+00:00Z", "free_bikes": 0, "empty_slots": 19, "extra": {"uid": 130, "address": "Altstetterplatz 1", "zip": "8048", "city": "Z\u00fcrich", "slots": 19, "ebikes": 0}}, {"id": "ba0ccb81b91048da078562636ec2ff78", "name": "Bullingerplatz", "latitude": 47.3795837, "longitude": 8.5156327, "timestamp": "2025-04-29T06:24:29.425670+00:00Z", "free_bikes": 0, "empty_slots": 19, "extra": {"uid": 80, "address": "Bullingerstrasse 5", "zip": "8004", "city": "Z\u00fcrich", "slots": 19, "ebikes": 0}}, {"id": "bc9c45111001bd2079e36b66fa157503", "name": "Bahnhof Balsberg", "latitude": 47.44173, "longitude": 8.56879, "timestamp": "2025-04-29T06:24:29.426249+00:00Z", "free_bikes": 0, "empty_slots": 18, "extra": {"uid": 527, "address": "Kloten Balsberg", "zip": "8302", "city": "Kloten", "slots": 18, "ebikes": 0}}, {"id": "bec79a16c91be8382519f26c4e46ce01", "name": "Bezirksgeb\u00e4ude", "latitude": 47.374241, "longitude": 8.525602, "timestamp": "2025-04-29T06:24:29.426012+00:00Z", "free_bikes": 0, "empty_slots": 19, "extra": {"uid": 559, "address": "Badenerstrasse 90", "zip": "8004", "city": "Z\u00fcrich", "slots": 19, "ebikes": 0}}, {"id": "c05fadff2908e1d32ef859a2b7c63355", "name": "Kalkbreite", "latitude": 47.37497, "longitude": 8.519782, "timestamp": "2025-04-29T06:24:29.425945+00:00Z", "free_bikes": 0, "empty_slots": 35, "extra": {"uid": 99, "address": "Badenerstrasse 172", "zip": "8004", "city": "Z\u00fcrich", "slots": 35, "ebikes": 0}}, {"id": "c26a62aae11f89ffcebf5ff8964fdc11", "name": "Luegisland", "latitude": 47.4080095, "longitude": 8.5777038, "timestamp": "2025-04-29T06:24:29.425930+00:00Z", "free_bikes": 0, "empty_slots": 10, "extra": {"uid": 429, "address": "Luegislandstrasse 412", "zip": "8051", "city": "Z\u00fcrich", "slots": 10, "ebikes": 0}}, {"id": "c54bc7de84cec0d31c15f5ac61d74100", "name": "Dennlerstrasse", "latitude": 47.381447, "longitude": 8.497982, "timestamp": "2025-04-29T06:24:29.425599+00:00Z", "free_bikes": 0, "empty_slots": 27, "extra": {"uid": 567, "address": "Dennlerstrasse 23", "zip": "8047", "city": "Z\u00fcrich", "slots": 27, "ebikes": 0}}, {"id": "c5d23714136fb94aa3436a3b049f1673", "name": "Stadthaus D\u00fcbendorf", "latitude": 47.39733, "longitude": 8.61865, "timestamp": "2025-04-29T06:24:29.426307+00:00Z", "free_bikes": 0, "empty_slots": 16, "extra": {"uid": 521, "address": "Usterstrasse 1", "zip": "8600", "city": "D\u00fcbendorf", "slots": 16, "ebikes": 0}}, {"id": "c65a2811a3cb87d3f7df92c02056499b", "name": "H\u00fcrlimannplatz", "latitude": 47.364946, "longitude": 8.525788, "timestamp": "2025-04-29T06:24:29.425371+00:00Z", "free_bikes": 1, "empty_slots": 55, "extra": {"uid": 88, "address": "H\u00fcrlimannplatz 90", "zip": "8002", "city": "Z\u00fcrich", "slots": 56, "ebikes": 0}}, {"id": "c677a66ba1ec66b168356361d31252f1", "name": "ETH H\u00f6nggerberg", "latitude": 47.40781197, "longitude": 8.506822854, "timestamp": "2025-04-29T06:24:29.425754+00:00Z", "free_bikes": 0, "empty_slots": 19, "extra": {"uid": 86, "address": "Stefano-Franscini-Platz 5", "zip": "8093", "city": "Z\u00fcrich", "slots": 19, "ebikes": 0}}, {"id": "cb615c6f35a63d87d6a4c8165eda8214", "name": "Gustav-Gull-Platz", "latitude": 47.378548, "longitude": 8.531836, "timestamp": "2025-04-29T06:24:29.425821+00:00Z", "free_bikes": 0, "empty_slots": 32, "extra": {"uid": 96, "address": "Lagerstrasse 44", "zip": "8004", "city": "Z\u00fcrich", "slots": 32, "ebikes": 0}}, {"id": "cc553923f8f5fdbf3eb5079e5eb2533a", "name": "T\u00fcffenwies", "latitude": 47.3985553, "longitude": 8.493822, "timestamp": "2025-04-29T06:24:29.425758+00:00Z", "free_bikes": 0, "empty_slots": 26, "extra": {"uid": 286, "address": "Meierwiesenstrasse 12-4", "zip": "8064", "city": "Z\u00fcrich", "slots": 26, "ebikes": 0}}, {"id": "cd9041cdbad2abef9c230580ada32a29", "name": "Boulevard Lilienthal", "latitude": 47.424155, "longitude": 8.562301, "timestamp": "2025-04-29T06:24:29.425949+00:00Z", "free_bikes": 0, "empty_slots": 18, "extra": {"uid": 529, "address": "Boulevard Lilienthal 2", "zip": "8152", "city": "Opfikon", "slots": 18, "ebikes": 0}}, {"id": "cfc0319efd6ced0cd5416f49dc9871b8", "name": "Freilager", "latitude": 47.381591, "longitude": 8.49038, "timestamp": "2025-04-29T06:24:29.425768+00:00Z", "free_bikes": 0, "empty_slots": 26, "extra": {"uid": 536, "address": "Rautistrasse 60", "zip": "8048", "city": "Z\u00fcrich", "slots": 26, "ebikes": 0}}, {"id": "cfd3af676b297abb2509aefb9e9373ac", "name": "Briefzentrum Z\u00fcrich-M\u00fclligen", "latitude": 47.395257, "longitude": 8.469131, "timestamp": "2025-04-29T06:24:29.425883+00:00Z", "free_bikes": 0, "empty_slots": 80, "extra": {"uid": 886, "address": "Z\u00fcrcherstrasse 161", "zip": "8952", "city": "Schlieren", "slots": 80, "ebikes": 0}}, {"id": "d052bd878a6485c5eb1e156836d09be1", "name": "Hafen Enge", "latitude": 47.359675, "longitude": 8.535718, "timestamp": "2025-04-29T06:24:29.425706+00:00Z", "free_bikes": 0, "empty_slots": 32, "extra": {"uid": 82, "address": "Mythenquai 50", "zip": "8002", "city": "Z\u00fcrich", "slots": 32, "ebikes": 0}}, {"id": "d218130dcbc3e7f97e7abd01a445609e", "name": "Skyguide", "latitude": 47.407433, "longitude": 8.639147, "timestamp": "2025-04-29T06:24:29.426178+00:00Z", "free_bikes": 0, "empty_slots": 80, "extra": {"uid": 866, "address": "Flugsicherungsstrasse 2", "zip": "8602", "city": "Wangen", "slots": 80, "ebikes": 0}}, {"id": "d684025219e493ad64909fec33de535c", "name": "Hirzenbachstrasse", "latitude": 47.40158, "longitude": 8.58841, "timestamp": "2025-04-29T06:24:29.425691+00:00Z", "free_bikes": 0, "empty_slots": 16, "extra": {"uid": 428, "address": "Hirzenbachstrasse 2-4", "zip": "8051", "city": "Z\u00fcrich", "slots": 16, "ebikes": 0}}, {"id": "d6b5050110bc12d399fee797aad7f2b1", "name": "Landesmuseum", "latitude": 47.3789825, "longitude": 8.5412505, "timestamp": "2025-04-29T06:24:29.425725+00:00Z", "free_bikes": 0, "empty_slots": 64, "extra": {"uid": 84, "address": "Museumstrasse 2", "zip": "8001", "city": "Z\u00fcrich", "slots": 64, "ebikes": 0}}, {"id": "d752c3452b2970765b78da71476b37a0", "name": "Comerge", "latitude": 47.358663827, "longitude": 8.520370505, "timestamp": "2025-04-29T06:24:29.426077+00:00Z", "free_bikes": 0, "empty_slots": 10, "extra": {"uid": 83, "address": "Bubenbergstrasse 1", "zip": "8045", "city": "Z\u00fcrich", "slots": 10, "ebikes": 0}}, {"id": "d7b883162aaec4af503fd16ee1f8648f", "name": "Hegibachplatz", "latitude": 47.3619068, "longitude": 8.5609218, "timestamp": "2025-04-29T06:24:29.426311+00:00Z", "free_bikes": 0, "empty_slots": 11, "extra": {"uid": 368, "address": "Forchstrasse 99", "zip": "8032", "city": "Z\u00fcrich", "slots": 11, "ebikes": 0}}, {"id": "d8227fca3d32c0c239cf3f8aca04751f", "name": "Bahnhof Stadelhofen", "latitude": 47.36691, "longitude": 8.548562, "timestamp": "2025-04-29T06:24:29.425809+00:00Z", "free_bikes": 0, "empty_slots": 26, "extra": {"uid": 285, "address": "Galerie \u00fcber Gleis 3", "zip": "8001", "city": "Z\u00fcrich", "slots": 26, "ebikes": 0}}, {"id": "d955a390144d8830de1783ebe36b378a", "name": "Utoplatz", "latitude": 47.359884, "longitude": 8.523071, "timestamp": "2025-04-29T06:24:29.426127+00:00Z", "free_bikes": 0, "empty_slots": 19, "extra": {"uid": 150, "address": "Kalendergasse 2", "zip": "8045", "city": "Z\u00fcrich", "slots": 19, "ebikes": 0}}, {"id": "da647e5e0ae550b9e4738e565ff9f541", "name": "Sportweg", "latitude": 47.3917964, "longitude": 8.5056978, "timestamp": "2025-04-29T06:24:29.426323+00:00Z", "free_bikes": 0, "empty_slots": 27, "extra": {"uid": 90, "address": "Sportweg 25", "zip": "8005", "city": "Z\u00fcrich", "slots": 27, "ebikes": 0}}, {"id": "daa85dab0664664e0e29c9f2c81d0af1", "name": "Lake Side", "latitude": 47.353198, "longitude": 8.553189, "timestamp": "2025-04-29T06:24:29.425436+00:00Z", "free_bikes": 1, "empty_slots": 25, "extra": {"uid": 264, "address": "Bellerivestrasse 170", "zip": "8008", "city": "Z\u00fcrich", "slots": 26, "ebikes": 0}}, {"id": "db63aae843e10e5e5cc3b77e7235a560", "name": "Milchbuck", "latitude": 47.397293, "longitude": 8.541453, "timestamp": "2025-04-29T06:24:29.426245+00:00Z", "free_bikes": 0, "empty_slots": 13, "extra": {"uid": 358, "address": "Schaffhauserstrasse 137", "zip": "8057", "city": "Z\u00fcrich", "slots": 13, "ebikes": 0}}, {"id": "dc6fc0d0ce4a512ccf547f0d226a90ec", "name": "Gessnerallee", "latitude": 47.3758639, "longitude": 8.5354006, "timestamp": "2025-04-29T06:24:29.425871+00:00Z", "free_bikes": 0, "empty_slots": 29, "extra": {"uid": 94, "address": "Gessnerallee 15", "zip": "8001", "city": "Z\u00fcrich", "slots": 29, "ebikes": 0}}, {"id": "ddc0c707d7d283995da9d3fa75dc2206", "name": "Hunziker-Areal", "latitude": 47.413032, "longitude": 8.558096, "timestamp": "2025-04-29T06:24:29.426220+00:00Z", "free_bikes": 0, "empty_slots": 19, "extra": {"uid": 389, "address": "Andreasstrasse", "zip": "8050", "city": "Z\u00fcrich", "slots": 19, "ebikes": 0}}, {"id": "ddfd218075579d17a77c390392b07d6a", "name": "Bahnhof Wallisellen", "latitude": 47.412103, "longitude": 8.592144, "timestamp": "2025-04-29T06:24:29.425642+00:00Z", "free_bikes": 0, "empty_slots": 18, "extra": {"uid": 532, "address": "Signum-Platz", "zip": "8304", "city": "Wallisellen", "slots": 18, "ebikes": 0}}, {"id": "de241b80117646a805822a1bd4273025", "name": "Luggwegstrasse VBZ", "latitude": 47.386596, "longitude": 8.490837, "timestamp": "2025-04-29T06:24:29.425695+00:00Z", "free_bikes": 0, "empty_slots": 26, "extra": {"uid": 156, "address": "Badenerstrasse 627", "zip": "8048", "city": "Z\u00fcrich", "slots": 26, "ebikes": 0}}, {"id": "df5e86056b2ee8569ce0fac778e68986", "name": "Schaffhauserplatz", "latitude": 47.391286, "longitude": 8.5371, "timestamp": "2025-04-29T06:24:29.425654+00:00Z", "free_bikes": 0, "empty_slots": 18, "extra": {"uid": 556, "address": "Rotbuchstrasse 19", "zip": "8006", "city": "Z\u00fcrich", "slots": 18, "ebikes": 0}}, {"id": "dfaae84480ec59b152f871cadca57a38", "name": "Berninaplatz", "latitude": 47.403822, "longitude": 8.546464, "timestamp": "2025-04-29T06:24:29.425636+00:00Z", "free_bikes": 0, "empty_slots": 22, "extra": {"uid": 540, "address": "Berninastrasse 45", "zip": "8057", "city": "Z\u00fcrich", "slots": 22, "ebikes": 0}}, {"id": "e0bc64ae480bdc15d6b9b8764d1921c0", "name": "Weststrasse", "latitude": 47.37209, "longitude": 8.520482, "timestamp": "2025-04-29T06:24:29.426045+00:00Z", "free_bikes": 0, "empty_slots": 22, "extra": {"uid": 124, "address": "Weststrasse 115", "zip": "8003", "city": "Z\u00fcrich", "slots": 22, "ebikes": 0}}, {"id": "e1fd744dfb8e6210e184847c8b09289d", "name": "Binz Center", "latitude": 47.362209, "longitude": 8.510788, "timestamp": "2025-04-29T06:24:29.425953+00:00Z", "free_bikes": 0, "empty_slots": 40, "extra": {"uid": 431, "address": "Grubenstrasse 52", "zip": "8045", "city": "Z\u00fcrich", "slots": 40, "ebikes": 0}}, {"id": "e26fe2beaf5bf4a4745b0849703b9926", "name": "Eawag", "latitude": 47.403145, "longitude": 8.609221, "timestamp": "2025-04-29T06:24:29.425830+00:00Z", "free_bikes": 0, "empty_slots": 40, "extra": {"uid": 771, "address": "Ueberlandstrasse 137", "zip": "8600", "city": "D\u00fcbendorf", "slots": 40, "ebikes": 0}}, {"id": "e29f81878a445fb55c8cba2fc83a96bc", "name": "Idaplatz", "latitude": 47.374192, "longitude": 8.514116, "timestamp": "2025-04-29T06:24:29.426009+00:00Z", "free_bikes": 0, "empty_slots": 24, "extra": {"uid": 557, "address": "Idaplatz 4", "zip": "8003", "city": "Z\u00fcrich", "slots": 24, "ebikes": 0}}, {"id": "e42a9c4dccccfc97206f298e71857f3a", "name": "Heuried Z\u00fcriMobil Station", "latitude": 47.369181, "longitude": 8.505787, "timestamp": "2025-04-29T06:24:29.426025+00:00Z", "free_bikes": 0, "empty_slots": 80, "extra": {"uid": 662, "address": "Wassersch\u00f6pfi", "zip": "8055", "city": "Z\u00fcrich", "slots": 80, "ebikes": 0}}, {"id": "e448b9c879b0a275a29e3018d7450ffc", "name": "Bahnhof Tiefenbrunnen", "latitude": 47.350578, "longitude": 8.560587, "timestamp": "2025-04-29T06:24:29.425862+00:00Z", "free_bikes": 0, "empty_slots": 19, "extra": {"uid": 450, "address": "Bellerivestrasse 245", "zip": "8008", "city": "Z\u00fcrich", "slots": 19, "ebikes": 0}}, {"id": "e642864dcf7dac2c41e6850dff9bebc4", "name": "ETH Zentrum Leonhardstrasse", "latitude": 47.377779, "longitude": 8.546183, "timestamp": "2025-04-29T06:24:29.425904+00:00Z", "free_bikes": 0, "empty_slots": 80, "extra": {"uid": 702, "address": "Leonhardstrasse 25a", "zip": "8001", "city": "Z\u00fcrich", "slots": 80, "ebikes": 0}}, {"id": "e6c97bb19b1291a81a4b11df622366ca", "name": "Kirche Unterstrass", "latitude": 47.387653, "longitude": 8.542125, "timestamp": "2025-04-29T06:24:29.425817+00:00Z", "free_bikes": 0, "empty_slots": 18, "extra": {"uid": 360, "address": "Turnerstrasse 47", "zip": "8006", "city": "Z\u00fcrich", "slots": 18, "ebikes": 0}}, {"id": "eabd3251194b1e570fdc02af4efdba0b", "name": "Bahnhof D\u00fcbendorf", "latitude": 47.400393, "longitude": 8.622367, "timestamp": "2025-04-29T06:24:29.425729+00:00Z", "free_bikes": 0, "empty_slots": 16, "extra": {"uid": 525, "address": "Bettlistrasse 1", "zip": "8600", "city": "D\u00fcbendorf", "slots": 16, "ebikes": 0}}, {"id": "eb2ec66cbd11b8a56e7b4a25807b5595", "name": "Zehntenhausplatz", "latitude": 47.4188324, "longitude": 8.5064743, "timestamp": "2025-04-29T06:24:29.425410+00:00Z", "free_bikes": 1, "empty_slots": 18, "extra": {"uid": 427, "address": "Wehntalerstrasse 541", "zip": "8046", "city": "Z\u00fcrich", "slots": 19, "ebikes": 0}}, {"id": "ec90dd6c554ae9dffa59f55e5e88e96b", "name": "Steinfelsareal", "latitude": 47.388151, "longitude": 8.520449, "timestamp": "2025-04-29T06:24:29.425890+00:00Z", "free_bikes": 0, "empty_slots": 13, "extra": {"uid": 112, "address": "Josefstrasse 224", "zip": "8005", "city": "Z\u00fcrich", "slots": 13, "ebikes": 0}}, {"id": "ed51673ed3ef5ff2d8bc1e42b099e723", "name": "Stadthaus Opfikon", "latitude": 47.43281, "longitude": 8.566564, "timestamp": "2025-04-29T06:24:29.425441+00:00Z", "free_bikes": 1, "empty_slots": 15, "extra": {"uid": 517, "address": "Oberhauserstrasse 25", "zip": "8152", "city": "Opfikon", "slots": 16, "ebikes": 0}}, {"id": "ee3ec4762aa0044c4ba4a2446ca307fa", "name": "Bitte benutzen Sie die neue App. Sonnental", "latitude": 47.395368, "longitude": 8.603989, "timestamp": "2025-04-29T06:24:29.425582+00:00Z", "free_bikes": 0, "empty_slots": 11, "extra": {"uid": 526, "address": "Z\u00fcrichstrasse 94", "zip": "8600", "city": "D\u00fcbendorf", "slots": 11, "ebikes": 0}}, {"id": "f1769908c37a3fc246e0127bbf792533", "name": "Flurpark", "latitude": 47.3836391, "longitude": 8.4941268, "timestamp": "2025-04-29T06:24:29.425874+00:00Z", "free_bikes": 0, "empty_slots": 19, "extra": {"uid": 453, "address": "Flurstrasse 62", "zip": "8048", "city": "Z\u00fcrich", "slots": 19, "ebikes": 0}}, {"id": "fa6eddb1993a11b747725d6e84f8e5f2", "name": "Frankental", "latitude": 47.405478, "longitude": 8.481071, "timestamp": "2025-04-29T06:24:29.425682+00:00Z", "free_bikes": 0, "empty_slots": 32, "extra": {"uid": 827, "address": "Frankentalerstrasse 10", "zip": "8049", "city": "Z\u00fcrich", "slots": 32, "ebikes": 0}}, {"id": "faf9158757a656a799925098d317233c", "name": "Schwimmbad Wallisellen", "latitude": 47.417668, "longitude": 8.593612, "timestamp": "2025-04-29T06:24:29.426188+00:00Z", "free_bikes": 0, "empty_slots": 13, "extra": {"uid": 531, "address": "Alte Winterthurerstrasse 64", "zip": "8304", "city": "Wallisellen", "slots": 13, "ebikes": 0}}, {"id": "fb6ab44408421a7b30eac86c822f1d4a", "name": "Helvetiaplatz", "latitude": 47.376467, "longitude": 8.526609, "timestamp": "2025-04-29T06:24:29.426265+00:00Z", "free_bikes": 0, "empty_slots": 19, "extra": {"uid": 560, "address": "Molkenstrasse 15", "zip": "8004", "city": "Z\u00fcrich", "slots": 19, "ebikes": 0}}, {"id": "fbb3837710dea17e3cf9510027aaaaaf", "name": "Blatterwiese", "latitude": 47.35594, "longitude": 8.549852, "timestamp": "2025-04-29T06:24:29.426327+00:00Z", "free_bikes": 0, "empty_slots": 24, "extra": {"uid": 132, "address": "H\u00f6schgasse 3", "zip": "8008", "city": "Z\u00fcrich", "slots": 24, "ebikes": 0}}]}