{"id": "reddy-bike-share", "name": "Reddy Bike Share", "location": {"latitude": 42.89373841865211, "longitude": -78.8718044757843, "city": "Buffalo, NY", "country": "US"}, "href": "/v2/networks/reddy-bike-share", "company": ["Shared Mobility Inc.", "Social Bicycles Inc."], "gbfs_href": "https://reddybikeshare.socialbicycles.com/opendata/gbfs.json", "stations": [{"id": "003acf1c450226c8d9bc7d11cbafdb12", "name": "High & Lemon", "latitude": 42.9002397396838, "longitude": -78.85889366269112, "timestamp": "2025-05-03T02:54:40.679576+00:00Z", "free_bikes": 2, "empty_slots": 3, "extra": {"uid": "hub_5704", "renting": 1, "returning": 1, "last_updated": 1746236533, "address": "233 Lemon Street, Buffalo", "payment": ["key", "applepay", "androidpay", "transitcard", "accountnumber", "phone"], "payment-terminal": false, "virtual": false}}, {"id": "05b071d957cab4d7b458e2e94557c58e", "name": "Clement/Goodyear", "latitude": 42.95715275421302, "longitude": -78.81498992443085, "timestamp": "2025-05-03T02:54:40.678935+00:00Z", "free_bikes": 6, "empty_slots": 0, "extra": {"uid": "hub_1768", "renting": 1, "returning": 1, "last_updated": 1746236533, "address": "Goodyear Road, Buffalo", "payment": ["key", "applepay", "androidpay", "transitcard", "accountnumber", "phone"], "payment-terminal": false, "virtual": false}}, {"id": "066231f4f8796cf91b779c5a7d999dff", "name": "DeVeaux Woods State Park", "latitude": 43.120109699017235, "longitude": -79.05826896429062, "timestamp": "2025-05-03T02:54:40.679854+00:00Z", "free_bikes": 4, "empty_slots": 1, "extra": {"uid": "hub_6143", "renting": 1, "returning": 1, "last_updated": 1746236533, "address": "3100 Lewiston Road, Niagara Falls", "payment": ["key", "applepay", "androidpay", "transitcard", "accountnumber", "phone"], "payment-terminal": false, "virtual": false}}, {"id": "0685a7cc44ef5f41b480b0c4941d026d", "name": "Five Points ", "latitude": 42.91129545088175, "longitude": -78.88597190380096, "timestamp": "2025-05-03T02:54:40.679051+00:00Z", "free_bikes": 4, "empty_slots": 1, "extra": {"uid": "hub_1781", "renting": 1, "returning": 1, "last_updated": 1746236533, "address": "524 West Utica Street, Buffalo", "payment": ["key", "applepay", "androidpay", "transitcard", "accountnumber", "phone"], "payment-terminal": false, "virtual": false}}, {"id": "08e111501d4b3f4ada7e5cc639f3488f", "name": "NFTA-Military", "latitude": 42.95911153302448, "longitude": -78.89016687870026, "timestamp": "2025-05-03T02:54:40.679628+00:00Z", "free_bikes": 0, "empty_slots": 3, "extra": {"uid": "hub_5800", "renting": 1, "returning": 1, "last_updated": 1746236533, "address": "1000 Military Road, Kenmore", "payment": ["key", "applepay", "androidpay", "transitcard", "accountnumber", "phone"], "payment-terminal": false, "virtual": false}}, {"id": "0a2bae34c20bd82c61c21d9cbe01fc7c", "name": "Norton Hall", "latitude": 43.0004023057163, "longitude": -78.78885447978973, "timestamp": "2025-05-03T02:54:40.678644+00:00Z", "free_bikes": 0, "empty_slots": 5, "extra": {"uid": "hub_1758", "renting": 1, "returning": 1, "last_updated": 1746236533, "address": "Putnam Way, University at Buffalo, Buffalo", "payment": ["key", "applepay", "androidpay", "transitcard", "accountnumber", "phone"], "payment-terminal": false, "virtual": false}}, {"id": "0b4a510786ac7dcb2f54f97aa55312a2", "name": "Delavan Grider Community Center", "latitude": 42.92249936270482, "longitude": -78.82435083389282, "timestamp": "2025-05-03T02:54:40.679728+00:00Z", "free_bikes": 3, "empty_slots": 2, "extra": {"uid": "hub_5878", "renting": 1, "returning": 1, "last_updated": 1746236533, "address": "640 Moselle Street, Buffalo", "payment": ["key", "applepay", "androidpay", "transitcard", "accountnumber", "phone"], "payment-terminal": false, "virtual": false}}, {"id": "10b593977cb2aac4a23f3e1f906918ba", "name": "500 Seneca", "latitude": 42.87774284649804, "longitude": -78.85616317391396, "timestamp": "2025-05-03T02:54:40.679720+00:00Z", "free_bikes": 3, "empty_slots": 2, "extra": {"uid": "hub_5877", "renting": 1, "returning": 1, "last_updated": 1746236533, "address": "Hamburg Street, Buffalo", "payment": ["key", "applepay", "androidpay", "transitcard", "accountnumber", "phone"], "payment-terminal": false, "virtual": false}}, {"id": "130dffd341ee42f5b7a3bac83a554588", "name": "Cataract House Park", "latitude": 43.084139158075246, "longitude": -79.06344965100288, "timestamp": "2025-05-03T02:54:40.679406+00:00Z", "free_bikes": 4, "empty_slots": 3, "extra": {"uid": "hub_5537", "renting": 1, "returning": 1, "last_updated": 1746236533, "address": "Old Main Street, Niagara Falls", "payment": ["key", "applepay", "androidpay", "transitcard", "accountnumber", "phone"], "payment-terminal": false, "virtual": false}}, {"id": "16e137ef1ff1121b1ff352bc91fef936", "name": "Canisius College ", "latitude": 42.924434411195165, "longitude": -78.85479658842085, "timestamp": "2025-05-03T02:54:40.678452+00:00Z", "free_bikes": 5, "empty_slots": 0, "extra": {"uid": "hub_1726", "renting": 1, "returning": 1, "last_updated": 1746236533, "address": "1953 Main Street, Buffalo", "payment": ["key", "applepay", "androidpay", "transitcard", "accountnumber", "phone"], "payment-terminal": false, "virtual": false}}, {"id": "19768213dfbb27917a6e111bff4d9aff", "name": "Beane Center", "latitude": 42.994039360380675, "longitude": -78.79581347105841, "timestamp": "2025-05-03T02:54:40.680159+00:00Z", "free_bikes": 1, "empty_slots": 1, "extra": {"uid": "hub_6318", "renting": 1, "returning": 1, "last_updated": 1746236533, "address": "15 Sprague Road, Amherst", "payment": ["key", "applepay", "androidpay", "transitcard", "accountnumber", "phone"], "payment-terminal": false, "virtual": false}}, {"id": "1a903e5d5b7d438b44b85ec9be8a1313", "name": "Hertel & Virgil", "latitude": 42.94792394921927, "longitude": -78.8646000623703, "timestamp": "2025-05-03T02:54:40.679508+00:00Z", "free_bikes": 2, "empty_slots": 4, "extra": {"uid": "hub_5653", "renting": 1, "returning": 1, "last_updated": 1746236533, "address": "1176, Hertel Avenue, North Park, Buffalo, New York", "payment": ["key", "applepay", "androidpay", "transitcard", "accountnumber", "phone"], "payment-terminal": false, "virtual": false}}, {"id": "1cf6c365314d874a9fbeefd2b396bf3b", "name": "Flint West", "latitude": 42.99737922823016, "longitude": -78.79100427031517, "timestamp": "2025-05-03T02:54:40.679997+00:00Z", "free_bikes": 3, "empty_slots": 0, "extra": {"uid": "hub_6181", "renting": 1, "returning": 1, "last_updated": 1746236533, "address": "Flint Entrance, Buffalo", "payment": ["key", "applepay", "androidpay", "transitcard", "accountnumber", "phone"], "payment-terminal": false, "virtual": false}}, {"id": "1d142eb2847dcfd21e442a3377e7fd82", "name": "Kensington & Parkridge", "latitude": 42.935194525004135, "longitude": -78.82073521614075, "timestamp": "2025-05-03T02:54:40.679910+00:00Z", "free_bikes": 2, "empty_slots": 3, "extra": {"uid": "hub_6158", "renting": 1, "returning": 1, "last_updated": 1746236533, "address": "894 Kensington Avenue, Buffalo", "payment": ["key", "applepay", "androidpay", "transitcard", "accountnumber", "phone"], "payment-terminal": false, "virtual": false}}, {"id": "1dd116f2bcb52f2a5e51d7e34d2188eb", "name": "Niagara Falls City Hall", "latitude": 43.09648492465632, "longitude": -79.05486926436424, "timestamp": "2025-05-03T02:54:40.679280+00:00Z", "free_bikes": 4, "empty_slots": 2, "extra": {"uid": "hub_5524", "renting": 1, "returning": 1, "last_updated": 1746236533, "address": "701 Cedar Avenue, Niagara Falls", "payment": ["key", "applepay", "androidpay", "transitcard", "accountnumber", "phone"], "payment-terminal": false, "virtual": false}}, {"id": "1dd1ff179513c514110634f8a6f5b9b9", "name": "Natural Sciences Complex", "latitude": 43.000464457184336, "longitude": -78.79172310233116, "timestamp": "2025-05-03T02:54:40.679966+00:00Z", "free_bikes": 2, "empty_slots": 2, "extra": {"uid": "hub_6178", "renting": 1, "returning": 1, "last_updated": 1746236533, "address": "Natural Sciences Complex, Putnam Way North, Ellicott Complex, North Bailey, New York", "payment": ["key", "applepay", "androidpay", "transitcard", "accountnumber", "phone"], "payment-terminal": false, "virtual": false}}, {"id": "20b2bd7a561ae9fd9b986594610de278", "name": "NFTA-Michigan", "latitude": 42.916727332825985, "longitude": -78.86177569627762, "timestamp": "2025-05-03T02:54:40.679638+00:00Z", "free_bikes": 0, "empty_slots": 5, "extra": {"uid": "hub_5801", "renting": 1, "returning": 1, "last_updated": 1746236533, "address": "1547 Michigan Avenue, Buffalo", "payment": ["key", "applepay", "androidpay", "transitcard", "accountnumber", "phone"], "payment-terminal": false, "virtual": false}}, {"id": "238bb2332d1381fdeadd98235e5eeeb4", "name": "201 Ellicott", "latitude": 42.88454137998203, "longitude": -78.87218803167343, "timestamp": "2025-05-03T02:54:40.679711+00:00Z", "free_bikes": 4, "empty_slots": 1, "extra": {"uid": "hub_5866", "renting": 1, "returning": 1, "last_updated": 1746236533, "address": "201 Ellicott Street, Buffalo", "payment": ["key", "applepay", "androidpay", "transitcard", "accountnumber", "phone"], "payment-terminal": false, "virtual": false}}, {"id": "26d19ee94b9c48a665833f952cc5e5ef", "name": "Cooke/Hochstetter Halls", "latitude": 42.9996654484344, "longitude": -78.79109680652618, "timestamp": "2025-05-03T02:54:40.679956+00:00Z", "free_bikes": 1, "empty_slots": 4, "extra": {"uid": "hub_6177", "renting": 1, "returning": 1, "last_updated": 1746236533, "address": "Putnam Way, Buffalo", "payment": ["key", "applepay", "androidpay", "transitcard", "accountnumber", "phone"], "payment-terminal": false, "virtual": false}}, {"id": "2b2e3161da08f36e205978f0d058afba", "name": "Courtyard Marriott", "latitude": 43.084127817465955, "longitude": -79.05270606279373, "timestamp": "2025-05-03T02:54:40.679416+00:00Z", "free_bikes": 5, "empty_slots": 4, "extra": {"uid": "hub_5539", "renting": 1, "returning": 1, "last_updated": 1746236533, "address": "John B. Daly Boulevard, Niagara Falls", "payment": ["key", "applepay", "androidpay", "transitcard", "accountnumber", "phone"], "payment-terminal": false, "virtual": false}}, {"id": "2cc74693598c45dfb3ca19763b770739", "name": "Niawanda Park", "latitude": 43.01609138561865, "longitude": -78.8919049501419, "timestamp": "2025-05-03T02:54:40.680090+00:00Z", "free_bikes": 7, "empty_slots": 3, "extra": {"uid": "hub_6243", "renting": 1, "returning": 1, "last_updated": 1746236533, "address": "369 Niagara Street, Tonawanda", "payment": ["key", "applepay", "androidpay", "transitcard", "accountnumber", "phone"], "payment-terminal": false, "virtual": false}}, {"id": "2e616a2dbcf3213644dfb5a01af5dc3d", "name": "Theater District", "latitude": 42.89140391563053, "longitude": -78.87238383293152, "timestamp": "2025-05-03T02:54:40.678954+00:00Z", "free_bikes": 1, "empty_slots": 4, "extra": {"uid": "hub_1769", "renting": 1, "returning": 1, "last_updated": 1746236533, "address": "657 Main Street, Buffalo", "payment": ["key", "applepay", "androidpay", "transitcard", "accountnumber", "phone"], "payment-terminal": false, "virtual": false}}, {"id": "307e16579b8a96a4b8d4edd73414e99b", "name": "Outer Harbor", "latitude": 42.85792758843358, "longitude": -78.86968150734901, "timestamp": "2025-05-03T02:54:40.679618+00:00Z", "free_bikes": 15, "empty_slots": 0, "extra": {"uid": "hub_5723", "renting": 1, "returning": 1, "last_updated": 1746236533, "address": "819-849 Fuhrmann Boulevard, Buffalo", "payment": ["key", "applepay", "androidpay", "transitcard", "accountnumber", "phone"], "payment-terminal": false, "virtual": false}}, {"id": "30a8b1f773f6974c158b8103f3b3ff13", "name": "Niagara Falls Memorial Hospital", "latitude": 43.09325960352125, "longitude": -79.04994875192642, "timestamp": "2025-05-03T02:54:40.679291+00:00Z", "free_bikes": 3, "empty_slots": 2, "extra": {"uid": "hub_5525", "renting": 1, "returning": 1, "last_updated": 1746236533, "address": "1015 Walnut Avenue, Niagara Falls", "payment": ["key", "applepay", "androidpay", "transitcard", "accountnumber", "phone"], "payment-terminal": false, "virtual": false}}, {"id": "311ba704a83f295b2b5b86967654a574", "name": "Rath Building", "latitude": 42.88426330049647, "longitude": -78.87672364703576, "timestamp": "2025-05-03T02:54:40.680116+00:00Z", "free_bikes": 2, "empty_slots": 4, "extra": {"uid": "hub_6245", "renting": 1, "returning": 1, "last_updated": 1746236533, "address": "170 Pearl Street, Buffalo", "payment": ["key", "applepay", "androidpay", "transitcard", "accountnumber", "phone"], "payment-terminal": false, "virtual": false}}, {"id": "317ff1633ca36f714b03950cdffe71cc", "name": "Aquarium ", "latitude": 43.09404381370041, "longitude": -79.06003654003142, "timestamp": "2025-05-03T02:54:40.679492+00:00Z", "free_bikes": 2, "empty_slots": 4, "extra": {"uid": "hub_5548", "renting": 1, "returning": 1, "last_updated": 1746236533, "address": "631 3rd Street, Niagara Falls", "payment": ["key", "applepay", "androidpay", "transitcard", "accountnumber", "phone"], "payment-terminal": false, "virtual": false}}, {"id": "31b49f3fb3b8c35502ddc452ec115416", "name": "Northland", "latitude": 42.918946322727265, "longitude": -78.83544713258743, "timestamp": "2025-05-03T02:54:40.679587+00:00Z", "free_bikes": 4, "empty_slots": 1, "extra": {"uid": "hub_5708", "renting": 1, "returning": 1, "last_updated": 1746236533, "address": "644 Northland Avenue, Buffalo", "payment": ["key", "applepay", "androidpay", "transitcard", "accountnumber", "phone"], "payment-terminal": false, "virtual": false}}, {"id": "32795e78521a3cb80cf1a311b830c380", "name": "Lafayette & Grant", "latitude": 42.92028422427558, "longitude": -78.88998985290527, "timestamp": "2025-05-03T02:54:40.679040+00:00Z", "free_bikes": 3, "empty_slots": 2, "extra": {"uid": "hub_1780", "renting": 1, "returning": 1, "last_updated": 1746236533, "address": "230 Lafayette Avenue, Buffalo", "payment": ["key", "applepay", "androidpay", "transitcard", "accountnumber", "phone"], "payment-terminal": false, "virtual": false}}, {"id": "34dff5b6bd71a662e4d1b5e986ee3da0", "name": "345 West Ferry", "latitude": 42.9152771712744, "longitude": -78.88908863067627, "timestamp": "2025-05-03T02:54:40.679607+00:00Z", "free_bikes": 3, "empty_slots": 2, "extra": {"uid": "hub_5710", "renting": 1, "returning": 1, "last_updated": 1746236533, "address": "339 West Ferry Street, Buffalo", "payment": ["key", "applepay", "androidpay", "transitcard", "accountnumber", "phone"], "payment-terminal": false, "virtual": false}}, {"id": "3783812b2a85298fbb6b3fd58b03ed8a", "name": "Niagara Falls Visitor Center", "latitude": 43.084976039373885, "longitude": -79.0621930360794, "timestamp": "2025-05-03T02:54:40.679344+00:00Z", "free_bikes": 4, "empty_slots": 4, "extra": {"uid": "hub_5531", "renting": 1, "returning": 1, "last_updated": 1746236533, "address": "318-398 Rainbow Boulevard, Niagara Falls", "payment": ["key", "applepay", "androidpay", "transitcard", "accountnumber", "phone"], "payment-terminal": false, "virtual": false}}, {"id": "39b05fb0868cd98a421d7c5c043f5b93", "name": "Flickinger Court", "latitude": 43.00540425761059, "longitude": -78.80099952220917, "timestamp": "2025-05-03T02:54:40.678914+00:00Z", "free_bikes": 3, "empty_slots": 0, "extra": {"uid": "hub_1767", "renting": 1, "returning": 1, "last_updated": 1746236533, "address": "1-9 Flickinger Court, Buffalo", "payment": ["key", "applepay", "androidpay", "transitcard", "accountnumber", "phone"], "payment-terminal": false, "virtual": false}}, {"id": "3b9a98394350ef8414111297fc2e4c50", "name": "Elmwood & Forest", "latitude": 42.92745701667058, "longitude": -78.87706160545349, "timestamp": "2025-05-03T02:54:40.678554+00:00Z", "free_bikes": 0, "empty_slots": 5, "extra": {"uid": "hub_1748", "renting": 1, "returning": 1, "last_updated": 1746236533, "address": "1110 Elmwood Avenue, Buffalo", "payment": ["key", "applepay", "androidpay", "transitcard", "accountnumber", "phone", "creditcard"], "payment-terminal": true, "virtual": false}}, {"id": "3cf1da307d1ca5c837e8cea627bab9ef", "name": "Riverworks", "latitude": 42.86938292622982, "longitude": -78.87235701084137, "timestamp": "2025-05-03T02:54:40.679017+00:00Z", "free_bikes": 2, "empty_slots": 2, "extra": {"uid": "hub_1775", "renting": 1, "returning": 1, "last_updated": 1746236533, "address": "Agway Elevator, Ganson Street, Buffalo, New York", "payment": ["key", "applepay", "androidpay", "transitcard", "accountnumber", "phone"], "payment-terminal": false, "virtual": false}}, {"id": "3e3f9175e55a304b8ed149ec82c2827b", "name": "Old Falls St. & 3rd St.", "latitude": 43.086349799013945, "longitude": -79.05917823314667, "timestamp": "2025-05-03T02:54:40.679396+00:00Z", "free_bikes": 8, "empty_slots": 4, "extra": {"uid": "hub_5536", "renting": 1, "returning": 1, "last_updated": 1746236533, "address": "300 Third Street, Niagara Falls", "payment": ["key", "applepay", "androidpay", "transitcard", "accountnumber", "phone"], "payment-terminal": false, "virtual": false}}, {"id": "3f6fb0bb13eee5621310e6699d638d06", "name": "The Westin Hotel ", "latitude": 42.89088119493353, "longitude": -78.87683629989624, "timestamp": "2025-05-03T02:54:40.678424+00:00Z", "free_bikes": 7, "empty_slots": 0, "extra": {"uid": "hub_1722", "renting": 1, "returning": 1, "last_updated": 1746236533, "address": "Spot Coffee, West Chippewa Street, Allentown, Buffalo, New York", "payment": ["key", "applepay", "androidpay", "transitcard", "accountnumber", "phone"], "payment-terminal": false, "virtual": false}}, {"id": "421e1b4623666187ca762f693cdeeb85", "name": "Broadway Market", "latitude": 42.89316462643675, "longitude": -78.83799791336058, "timestamp": "2025-05-03T02:54:40.678353+00:00Z", "free_bikes": 3, "empty_slots": 2, "extra": {"uid": "hub_1455", "renting": 1, "returning": 1, "last_updated": 1746236533, "address": "999-1007 Broadway, Buffalo", "payment": ["key", "applepay", "androidpay", "transitcard", "accountnumber", "phone"], "payment-terminal": false, "virtual": false}}, {"id": "42625b0670f5b43efc000d1fb3c27fe8", "name": "Rotary & Hayes", "latitude": 42.94980987138116, "longitude": -78.81885230541229, "timestamp": "2025-05-03T02:54:40.679210+00:00Z", "free_bikes": 0, "empty_slots": 5, "extra": {"uid": "hub_5276", "renting": 1, "returning": 1, "last_updated": 1746236533, "address": "Rotary Road, University at Buffalo School of Public Health and Health Professions, Buffalo", "payment": ["key", "applepay", "androidpay", "transitcard", "accountnumber", "phone"], "payment-terminal": false, "virtual": false}}, {"id": "43bcfcbeb5c939b2d09c199ab1fbdf46", "name": "Goat Island", "latitude": 43.0819617407914, "longitude": -79.07018870115279, "timestamp": "2025-05-03T02:54:40.679895+00:00Z", "free_bikes": 5, "empty_slots": 2, "extra": {"uid": "hub_6153", "renting": 1, "returning": 1, "last_updated": 1746236533, "address": "Niagara Falls Prison, Niagara Falls", "payment": ["key", "applepay", "androidpay", "transitcard", "accountnumber", "phone"], "payment-terminal": false, "virtual": false}}, {"id": "4a5a6be74937ba0435ac18e21e1e6bb8", "name": "The Foundry", "latitude": 42.90753589219403, "longitude": -78.85586813092232, "timestamp": "2025-05-03T02:54:40.679825+00:00Z", "free_bikes": 2, "empty_slots": 3, "extra": {"uid": "hub_5899", "renting": 1, "returning": 1, "last_updated": 1746236533, "address": "312 Northampton Street, Buffalo", "payment": ["key", "applepay", "androidpay", "transitcard", "accountnumber", "phone"], "payment-terminal": false, "virtual": false}}, {"id": "4ad108e693878681115bf1fbdf96c7df", "name": "City Hall ", "latitude": 42.886207953674734, "longitude": -78.87916445732117, "timestamp": "2025-05-03T02:54:40.678993+00:00Z", "free_bikes": 5, "empty_slots": 2, "extra": {"uid": "hub_1773", "renting": 1, "returning": 1, "last_updated": 1746236533, "address": "Buffalo", "payment": ["key", "applepay", "androidpay", "transitcard", "accountnumber", "phone"], "payment-terminal": false, "virtual": false}}, {"id": "4ad40e9250a3b480abe1b2b372edd651", "name": "3rd and Niagara St", "latitude": 43.08872587971297, "longitude": -79.05913531780243, "timestamp": "2025-05-03T02:54:40.679333+00:00Z", "free_bikes": 5, "empty_slots": 3, "extra": {"uid": "hub_5530", "renting": 1, "returning": 1, "last_updated": 1746236533, "address": "402 Third Street, Niagara Falls", "payment": ["key", "applepay", "androidpay", "transitcard", "accountnumber", "phone"], "payment-terminal": false, "virtual": false}}, {"id": "4ca53043c980bea2de7e3cf41055677f", "name": "Roosevelt Plaza", "latitude": 42.88846797578509, "longitude": -78.87313216924667, "timestamp": "2025-05-03T02:54:40.678968+00:00Z", "free_bikes": 11, "empty_slots": 0, "extra": {"uid": "hub_1770", "renting": 1, "returning": 1, "last_updated": 1746236533, "address": "5 East Huron Street, Buffalo", "payment": ["key", "applepay", "androidpay", "transitcard", "accountnumber", "phone"], "payment-terminal": false, "virtual": false}}, {"id": "4cd9a2c706dba8dc377b08e03adef0bc", "name": "Spaulding", "latitude": 43.009476138961624, "longitude": -78.78365635871887, "timestamp": "2025-05-03T02:54:40.678897+00:00Z", "free_bikes": 5, "empty_slots": 0, "extra": {"uid": "hub_1766", "renting": 1, "returning": 1, "last_updated": 1746236533, "address": "Frontier Road, University at Buffalo, Getzville", "payment": ["key", "applepay", "androidpay", "transitcard", "accountnumber", "phone"], "payment-terminal": false, "virtual": false}}, {"id": "4d916b13e605d6c0c42681fe2a8a65f7", "name": "Lasalle Library", "latitude": 43.07766292340321, "longitude": -78.96280109882355, "timestamp": "2025-05-03T02:54:40.679476+00:00Z", "free_bikes": 4, "empty_slots": 1, "extra": {"uid": "hub_5546", "renting": 1, "returning": 1, "last_updated": 1746236533, "address": "8720 Buffalo Avenue, Niagara Falls", "payment": ["key", "applepay", "androidpay", "transitcard", "accountnumber", "phone"], "payment-terminal": false, "virtual": false}}, {"id": "4ef04442322abd6698d99d275bbd74f9", "name": "EM Tea Cup", "latitude": 42.92425427539075, "longitude": -78.84652063250542, "timestamp": "2025-05-03T02:54:40.679780+00:00Z", "free_bikes": 3, "empty_slots": 2, "extra": {"uid": "hub_5880", "renting": 1, "returning": 1, "last_updated": 1746236533, "address": "78 Oakgrove Avenue, Buffalo", "payment": ["key", "applepay", "androidpay", "transitcard", "accountnumber", "phone"], "payment-terminal": false, "virtual": false}}, {"id": "4f43429d1c8258b6bab72a6e55583fd1", "name": "Buffalo State College ", "latitude": 42.932142842152835, "longitude": -78.87782871723175, "timestamp": "2025-05-03T02:54:40.678563+00:00Z", "free_bikes": 0, "empty_slots": 4, "extra": {"uid": "hub_1750", "renting": 1, "returning": 1, "last_updated": 1746236533, "address": "Rockwell Road, Buffalo", "payment": ["key", "applepay", "androidpay", "transitcard", "accountnumber", "phone"], "payment-terminal": false, "virtual": false}}, {"id": "5036b7db4c930237ed0559c8afd1c3d4", "name": "Frank Lloyd Wright's Martin House", "latitude": 42.935767926074504, "longitude": -78.84874820709229, "timestamp": "2025-05-03T02:54:40.679839+00:00Z", "free_bikes": 3, "empty_slots": 2, "extra": {"uid": "hub_5904", "renting": 1, "returning": 1, "last_updated": 1746236533, "address": "143 Jewett Parkway, Buffalo", "payment": ["key", "applepay", "androidpay", "transitcard", "accountnumber", "phone"], "payment-terminal": false, "virtual": false}}, {"id": "51adfaec09b0df53efe4099a7719c022", "name": "Niagara Street Elementary School", "latitude": 43.088373989479614, "longitude": -79.0313221514225, "timestamp": "2025-05-03T02:54:40.679435+00:00Z", "free_bikes": 3, "empty_slots": 2, "extra": {"uid": "hub_5542", "renting": 1, "returning": 1, "last_updated": 1746236533, "address": "2502 Niagara Street, Niagara Falls", "payment": ["key", "applepay", "androidpay", "transitcard", "accountnumber", "phone"], "payment-terminal": false, "virtual": false}}, {"id": "51f71d81a7f0fc1d37e2f721510b064b", "name": "NFTA Bus Station", "latitude": 42.88373362572425, "longitude": -78.87241065502167, "timestamp": "2025-05-03T02:54:40.679028+00:00Z", "free_bikes": 2, "empty_slots": 3, "extra": {"uid": "hub_1776", "renting": 1, "returning": 1, "last_updated": 1746236533, "address": "181 Ellicott Street, Buffalo", "payment": ["key", "applepay", "androidpay", "transitcard", "accountnumber", "phone"], "payment-terminal": false, "virtual": false}}, {"id": "53a627c9e6403625f8eff89f37b02a8f", "name": "GObike HQ", "latitude": 42.888023414056335, "longitude": -78.86184141039848, "timestamp": "2025-05-03T02:54:40.679832+00:00Z", "free_bikes": 2, "empty_slots": 3, "extra": {"uid": "hub_5900", "renting": 1, "returning": 1, "last_updated": 1746236533, "address": "313 Broadway, Buffalo", "payment": ["key", "applepay", "androidpay", "transitcard", "accountnumber", "phone"], "payment-terminal": false, "virtual": false}}, {"id": "54be68287fcee3c144d56733c250df15", "name": "Main and Allen", "latitude": 42.89915209116616, "longitude": -78.86980354785919, "timestamp": "2025-05-03T02:54:40.679163+00:00Z", "free_bikes": 3, "empty_slots": 2, "extra": {"uid": "hub_4083", "renting": 1, "returning": 1, "last_updated": 1746236533, "address": "911-917 Main Street, Buffalo", "payment": ["key", "applepay", "androidpay", "transitcard", "accountnumber", "phone"], "payment-terminal": false, "virtual": false}}, {"id": "5592f85db267da3c876d8e06106d661e", "name": "Riverway", "latitude": 43.08140867343752, "longitude": -79.06079292297363, "timestamp": "2025-05-03T02:54:40.679902+00:00Z", "free_bikes": 2, "empty_slots": 4, "extra": {"uid": "hub_6154", "renting": 1, "returning": 1, "last_updated": 1746236533, "address": "Riverway, Niagara Falls", "payment": ["key", "applepay", "androidpay", "transitcard", "accountnumber", "phone"], "payment-terminal": false, "virtual": false}}, {"id": "57a272a3ce7aa60c561662ef6faa3528", "name": "Devil's Hole State Park", "latitude": 43.13292414495205, "longitude": -79.04804840683937, "timestamp": "2025-05-03T02:54:40.679887+00:00Z", "free_bikes": 5, "empty_slots": 2, "extra": {"uid": "hub_6145", "renting": 1, "returning": 1, "last_updated": 1746236533, "address": "Niagara Scenic Parkway, Niagara University", "payment": ["key", "applepay", "androidpay", "transitcard", "accountnumber", "phone"], "payment-terminal": false, "virtual": false}}, {"id": "58a7cbfe3724e6915175c390570896b0", "name": "Hertel & North Park", "latitude": 42.94775706804299, "longitude": -78.85556638240814, "timestamp": "2025-05-03T02:54:40.679004+00:00Z", "free_bikes": 4, "empty_slots": 2, "extra": {"uid": "hub_1774", "renting": 1, "returning": 1, "last_updated": 1746236533, "address": "1422 Hertel Avenue, Buffalo", "payment": ["key", "applepay", "androidpay", "transitcard", "accountnumber", "phone"], "payment-terminal": false, "virtual": false}}, {"id": "58ccd7def0e567a05e0475c48d00592f", "name": "Moody Terrace", "latitude": 43.00922900950813, "longitude": -78.78604888916014, "timestamp": "2025-05-03T02:54:40.679222+00:00Z", "free_bikes": 4, "empty_slots": 5, "extra": {"uid": "hub_5459", "renting": 1, "returning": 1, "last_updated": 1746236533, "address": "490 Frontier Road, University at Buffalo, Getzville", "payment": ["key", "applepay", "androidpay", "transitcard", "accountnumber", "phone"], "payment-terminal": false, "virtual": false}}, {"id": "5a72d7e57017ebcbe5dce063c5285e8d", "name": "Amtrak Station ", "latitude": 43.109795115724246, "longitude": -79.05524611473083, "timestamp": "2025-05-03T02:54:40.679245+00:00Z", "free_bikes": 4, "empty_slots": 4, "extra": {"uid": "hub_5521", "renting": 1, "returning": 1, "last_updated": 1746236533, "address": "825 Depot Avenue, Niagara Falls", "payment": ["key", "applepay", "androidpay", "transitcard", "accountnumber", "phone"], "payment-terminal": false, "virtual": false}}, {"id": "5bac87acdc966506a2286ffb97054b6d", "name": "Ohio Street", "latitude": 42.86651989001953, "longitude": -78.86781871318817, "timestamp": "2025-05-03T02:54:40.679817+00:00Z", "free_bikes": 5, "empty_slots": 3, "extra": {"uid": "hub_5898", "renting": 1, "returning": 1, "last_updated": 1746236533, "address": "353-383 Ohio Street, Buffalo", "payment": ["key", "applepay", "androidpay", "transitcard", "accountnumber", "phone"], "payment-terminal": false, "virtual": false}}, {"id": "5c00ebb24d62a6905474f1be341644d4", "name": "Sal Maglie Stadium", "latitude": 43.099983509484545, "longitude": -79.02586251497269, "timestamp": "2025-05-03T02:54:40.679323+00:00Z", "free_bikes": 3, "empty_slots": 2, "extra": {"uid": "hub_5528", "renting": 1, "returning": 1, "last_updated": 1746236533, "address": "1124 Hyde Park Boulevard, Niagara Falls", "payment": ["key", "applepay", "androidpay", "transitcard", "accountnumber", "phone"], "payment-terminal": false, "virtual": false}}, {"id": "6426ccadd094f9e4d3ea1300dc191d77", "name": "Allen & Wadsworth", "latitude": 42.89941710165983, "longitude": -78.87975454330443, "timestamp": "2025-05-03T02:54:40.678571+00:00Z", "free_bikes": 6, "empty_slots": 1, "extra": {"uid": "hub_1751", "renting": 1, "returning": 1, "last_updated": 1746236533, "address": "The Bend, Allen Street, Allentown, New York", "payment": ["key", "applepay", "androidpay", "transitcard", "accountnumber", "phone"], "payment-terminal": false, "virtual": false}}, {"id": "6b503b9291e46faff2f0bf56bc247d5a", "name": "Main Street Library", "latitude": 43.101832823007236, "longitude": -79.05176192522049, "timestamp": "2025-05-03T02:54:40.679269+00:00Z", "free_bikes": 5, "empty_slots": 0, "extra": {"uid": "hub_5523", "renting": 1, "returning": 1, "last_updated": 1746236533, "address": "1326 Portage Road, Niagara Falls", "payment": ["key", "applepay", "androidpay", "transitcard", "accountnumber", "phone"], "payment-terminal": false, "virtual": false}}, {"id": "6e8312fd3a84829889d9e2551ce6a110", "name": "LaSalle Station", "latitude": 42.947961252008554, "longitude": -78.82992446422577, "timestamp": "2025-05-03T02:54:40.679175+00:00Z", "free_bikes": 2, "empty_slots": 4, "extra": {"uid": "hub_4105", "renting": 1, "returning": 1, "last_updated": 1746236533, "address": "3030 Main Street, Buffalo", "payment": ["key", "applepay", "androidpay", "transitcard", "accountnumber", "phone"], "payment-terminal": false, "virtual": false}}, {"id": "6fd018003cbe3256be6103d1295bda47", "name": "University Station", "latitude": 42.95413749652004, "longitude": -78.81952285766602, "timestamp": "2025-05-03T02:54:40.678621+00:00Z", "free_bikes": 2, "empty_slots": 3, "extra": {"uid": "hub_1756", "renting": 1, "returning": 1, "last_updated": 1746236533, "address": "Main Circle, University at Buffalo School of Public Health and Health Professions, Buffalo", "payment": ["key", "applepay", "androidpay", "transitcard", "accountnumber", "phone"], "payment-terminal": false, "virtual": false}}, {"id": "73ea20c9df789294714f3dd2100d1c4f", "name": "Delaware Park", "latitude": 42.940181290411175, "longitude": -78.85886281728745, "timestamp": "2025-05-03T02:54:40.679117+00:00Z", "free_bikes": 10, "empty_slots": 1, "extra": {"uid": "hub_2339", "renting": 1, "returning": 1, "last_updated": 1746236533, "address": "1215 Amherst Street, Buffalo", "payment": ["key", "applepay", "androidpay", "transitcard", "accountnumber", "phone"], "payment-terminal": false, "virtual": false}}, {"id": "742d17989bd3b6d24326e9537ac6609a", "name": "Crofts Hall", "latitude": 42.994662306346434, "longitude": -78.79499673843384, "timestamp": "2025-05-03T02:54:40.679128+00:00Z", "free_bikes": 1, "empty_slots": 1, "extra": {"uid": "hub_3334", "renting": 1, "returning": 1, "last_updated": 1746236533, "address": "Sprague Road, University at Buffalo, Buffalo", "payment": ["key", "applepay", "androidpay", "transitcard", "accountnumber", "phone"], "payment-terminal": false, "virtual": false}}, {"id": "74b58c2cc43d89c6f8404f0766e93cf4", "name": "D'youville College", "latitude": 42.90210716993107, "longitude": -78.89011323451996, "timestamp": "2025-05-03T02:54:40.679140+00:00Z", "free_bikes": 5, "empty_slots": 0, "extra": {"uid": "hub_4044", "renting": 1, "returning": 1, "last_updated": 1746236533, "address": "327 Porter Avenue, Buffalo", "payment": ["key", "applepay", "androidpay", "transitcard", "accountnumber", "phone"], "payment-terminal": false, "virtual": false}}, {"id": "78bcbe9aad9e5a20a2137cae7ae7765e", "name": "Student Union", "latitude": 43.00170481465968, "longitude": -78.78592014312744, "timestamp": "2025-05-03T02:54:40.678633+00:00Z", "free_bikes": 0, "empty_slots": 14, "extra": {"uid": "hub_1757", "renting": 1, "returning": 1, "last_updated": 1746236533, "address": "Putnam Way, University at Buffalo, Buffalo", "payment": ["key", "applepay", "androidpay", "transitcard", "accountnumber", "phone"], "payment-terminal": false, "virtual": false}}, {"id": "7dbf4ad7003e3ceed6876bc284793a70", "name": "Buffalo & Erie County Public Library ", "latitude": 42.88544149259178, "longitude": -78.87318849563597, "timestamp": "2025-05-03T02:54:40.678444+00:00Z", "free_bikes": 4, "empty_slots": 1, "extra": {"uid": "hub_1725", "renting": 1, "returning": 1, "last_updated": 1746236533, "address": "387 Washington Street, Buffalo", "payment": ["key", "applepay", "androidpay", "transitcard", "accountnumber", "phone"], "payment-terminal": false, "virtual": false}}, {"id": "823bbdfd26129ebe83d24302f7bd94c1", "name": "Rensch Villas", "latitude": 42.99916790167077, "longitude": -78.80040943622589, "timestamp": "2025-05-03T02:54:40.679987+00:00Z", "free_bikes": 4, "empty_slots": 6, "extra": {"uid": "hub_6180", "renting": 1, "returning": 1, "last_updated": 1746236533, "address": "Rensch Road, North Bailey, New York", "payment": ["key", "applepay", "androidpay", "transitcard", "accountnumber", "phone"], "payment-terminal": false, "virtual": false}}, {"id": "83f00a02ceb50041b4832bc4661e1fb8", "name": "Creekside", "latitude": 43.01103930778592, "longitude": -78.79060864448547, "timestamp": "2025-05-03T02:54:40.679084+00:00Z", "free_bikes": 6, "empty_slots": 0, "extra": {"uid": "hub_1838", "renting": 1, "returning": 1, "last_updated": 1746236533, "address": "495 Skinnersville Road, Buffalo", "payment": ["key", "applepay", "androidpay", "transitcard", "accountnumber", "phone"], "payment-terminal": false, "virtual": false}}, {"id": "8536eb936f4f47d999e44bc43947871a", "name": "Richardson Complex", "latitude": 42.9282612522103, "longitude": -78.88331115245819, "timestamp": "2025-05-03T02:54:40.679531+00:00Z", "free_bikes": 3, "empty_slots": 4, "extra": {"uid": "hub_5657", "renting": 1, "returning": 1, "last_updated": 1746236533, "address": "844 Richmond Avenue, Buffalo", "payment": ["key", "applepay", "androidpay", "transitcard", "accountnumber", "phone"], "payment-terminal": false, "virtual": false}}, {"id": "86549838aab6dff86c3251af571e07f6", "name": "Whirlpool State Park", "latitude": 43.12042686252162, "longitude": -79.06267046928406, "timestamp": "2025-05-03T02:54:40.679861+00:00Z", "free_bikes": 2, "empty_slots": 3, "extra": {"uid": "hub_6144", "renting": 1, "returning": 1, "last_updated": 1746236533, "address": "Niagara Scenic Parkway, Niagara Falls", "payment": ["key", "applepay", "androidpay", "transitcard", "accountnumber", "phone"], "payment-terminal": false, "virtual": false}}, {"id": "8d2720be96920f3c61626662154d5a07", "name": "NFTA- New Babcock", "latitude": 42.881674609413814, "longitude": -78.82605940103531, "timestamp": "2025-05-03T02:54:40.679692+00:00Z", "free_bikes": 0, "empty_slots": 3, "extra": {"uid": "hub_5802", "renting": 1, "returning": 1, "last_updated": 1746236533, "address": "721 New Babcock Street, Buffalo", "payment": ["key", "applepay", "androidpay", "transitcard", "accountnumber", "phone"], "payment-terminal": false, "virtual": false}}, {"id": "8e18a1b052d94190ef30e00435ef1a31", "name": "Alumni", "latitude": 43.000217912158774, "longitude": -78.7824010848999, "timestamp": "2025-05-03T02:54:40.678656+00:00Z", "free_bikes": 0, "empty_slots": 5, "extra": {"uid": "hub_1760", "renting": 1, "returning": 1, "last_updated": 1746236533, "address": "1699 Amherst Manor Drive, University at Buffalo, Buffalo", "payment": ["key", "applepay", "androidpay", "transitcard", "accountnumber", "phone"], "payment-terminal": false, "virtual": false}}, {"id": "8e76fb79947f1e512d52c56c9b7b1409", "name": "Elmwood & West Ferry", "latitude": 42.91555624593546, "longitude": -78.87701600790022, "timestamp": "2025-05-03T02:54:40.678517+00:00Z", "free_bikes": 5, "empty_slots": 1, "extra": {"uid": "hub_1742", "renting": 1, "returning": 1, "last_updated": 1746236533, "address": "695 Elmwood Avenue, Buffalo", "payment": ["key", "applepay", "androidpay", "transitcard", "accountnumber", "phone"], "payment-terminal": false, "virtual": false}}, {"id": "8ef9717bfb1c162459fda7915e5f980d", "name": "Summer-Best Station", "latitude": 42.904580515822225, "longitude": -78.86763095855713, "timestamp": "2025-05-03T02:54:40.679523+00:00Z", "free_bikes": 1, "empty_slots": 4, "extra": {"uid": "hub_5656", "renting": 1, "returning": 1, "last_updated": 1746236533, "address": "1135 Main Street, Buffalo", "payment": ["key", "applepay", "androidpay", "transitcard", "accountnumber", "phone"], "payment-terminal": false, "virtual": false}}, {"id": "8f267cbd3dbba9a8f36bfcacd1356e40", "name": "Elmwood & Bryant", "latitude": 42.908517623229784, "longitude": -78.87707233428955, "timestamp": "2025-05-03T02:54:40.678525+00:00Z", "free_bikes": 2, "empty_slots": 3, "extra": {"uid": "hub_1746", "renting": 1, "returning": 1, "last_updated": 1746236533, "address": "414-424 Elmwood Avenue, Buffalo", "payment": ["key", "applepay", "androidpay", "transitcard", "accountnumber", "phone"], "payment-terminal": false, "virtual": false}}, {"id": "8f5f8bf55f9365b8f14a6a0b6fd10fe9", "name": "Niagara Falls Ice Pavilion", "latitude": 43.0965492740323, "longitude": -79.02116060256957, "timestamp": "2025-05-03T02:54:40.679313+00:00Z", "free_bikes": 3, "empty_slots": 3, "extra": {"uid": "hub_5527", "renting": 1, "returning": 1, "last_updated": 1746236533, "address": "Robbins Drive, Niagara Falls", "payment": ["key", "applepay", "androidpay", "transitcard", "accountnumber", "phone"], "payment-terminal": false, "virtual": false}}, {"id": "90f7419ed84072a99b394b43a1d8c898", "name": "Niagara Falls Convention Center", "latitude": 43.086073029443014, "longitude": -79.06061053276062, "timestamp": "2025-05-03T02:54:40.679386+00:00Z", "free_bikes": 2, "empty_slots": 4, "extra": {"uid": "hub_5535", "renting": 1, "returning": 1, "last_updated": 1746236533, "address": "217 Old Falls Street, Niagara Falls", "payment": ["key", "applepay", "androidpay", "transitcard", "accountnumber", "phone"], "payment-terminal": false, "virtual": false}}, {"id": "90fd8cd99693ac1420d2e045e096fdb4", "name": "Amherst Street Station", "latitude": 42.94009845318447, "longitude": -78.83887230302207, "timestamp": "2025-05-03T02:54:40.679515+00:00Z", "free_bikes": 1, "empty_slots": 5, "extra": {"uid": "hub_5655", "renting": 1, "returning": 1, "last_updated": 1746236533, "address": "41 Parker Avenue, Buffalo", "payment": ["key", "applepay", "androidpay", "transitcard", "accountnumber", "phone"], "payment-terminal": false, "virtual": false}}, {"id": "93332ec045c0ad19d5bfeede44296a68", "name": "Niagara & Jersey", "latitude": 42.89963688821956, "longitude": -78.89046728610992, "timestamp": "2025-05-03T02:54:40.679597+00:00Z", "free_bikes": 3, "empty_slots": 2, "extra": {"uid": "hub_5709", "renting": 1, "returning": 1, "last_updated": 1746236533, "address": "585A Niagara Street, Buffalo", "payment": ["key", "applepay", "androidpay", "transitcard", "accountnumber", "phone"], "payment-terminal": false, "virtual": false}}, {"id": "9a9721b2cfc9e3627253fee121623c29", "name": "Gill Creek Park", "latitude": 43.08809122249669, "longitude": -79.02334660291672, "timestamp": "2025-05-03T02:54:40.679425+00:00Z", "free_bikes": 0, "empty_slots": 5, "extra": {"uid": "hub_5541", "renting": 1, "returning": 1, "last_updated": 1746236533, "address": "3060 Niagara Street, Niagara Falls", "payment": ["key", "applepay", "androidpay", "transitcard", "accountnumber", "phone"], "payment-terminal": false, "virtual": false}}, {"id": "9d3705c8e624a5cdace5419788f1cfee", "name": "Griffon Park", "latitude": 43.075913933006014, "longitude": -78.95247191190718, "timestamp": "2025-05-03T02:54:40.679465+00:00Z", "free_bikes": 2, "empty_slots": 3, "extra": {"uid": "hub_5545", "renting": 1, "returning": 1, "last_updated": 1746236533, "address": "9551 Buffalo Avenue, Niagara Falls", "payment": ["key", "applepay", "androidpay", "transitcard", "accountnumber", "phone"], "payment-terminal": false, "virtual": false}}, {"id": "a2744146083706f46740829ec671ca21", "name": "West Side Bazaar", "latitude": 42.923423896949195, "longitude": -78.89844551682472, "timestamp": "2025-05-03T02:54:40.680018+00:00Z", "free_bikes": 3, "empty_slots": 2, "extra": {"uid": "hub_6192", "renting": 1, "returning": 1, "last_updated": 1746236533, "address": "1440 Niagara Street, Buffalo", "payment": ["key", "applepay", "androidpay", "transitcard", "accountnumber", "phone"], "payment-terminal": false, "virtual": false}}, {"id": "a424d1746201eb82050cd555975c7c1f", "name": "Military & Amherst St.", "latitude": 42.93753031529806, "longitude": -78.89330103993416, "timestamp": "2025-05-03T02:54:40.679232+00:00Z", "free_bikes": 2, "empty_slots": 2, "extra": {"uid": "hub_5460", "renting": 1, "returning": 1, "last_updated": 1746236533, "address": "24 Military Road, Buffalo", "payment": ["key", "applepay", "androidpay", "transitcard", "accountnumber", "phone"], "payment-terminal": false, "virtual": false}}, {"id": "ace5b15f44dee70003c081398fa364df", "name": "South Lake", "latitude": 43.00236782806464, "longitude": -78.77711713314056, "timestamp": "2025-05-03T02:54:40.678824+00:00Z", "free_bikes": 2, "empty_slots": 1, "extra": {"uid": "hub_1764", "renting": 1, "returning": 1, "last_updated": 1746236533, "address": "Webster Entrance, University at Buffalo, Buffalo", "payment": ["key", "applepay", "androidpay", "transitcard", "accountnumber", "phone"], "payment-terminal": false, "virtual": false}}, {"id": "acf4eb6a6cf6fdf574db7411e187be1c", "name": "Flint", "latitude": 42.99739701378073, "longitude": -78.78735780715942, "timestamp": "2025-05-03T02:54:40.678693+00:00Z", "free_bikes": 7, "empty_slots": 1, "extra": {"uid": "hub_1763", "renting": 1, "returning": 1, "last_updated": 1746236533, "address": "Augspurger Road, University at Buffalo, Buffalo", "payment": ["key", "applepay", "androidpay", "transitcard", "accountnumber", "phone"], "payment-terminal": false, "virtual": false}}, {"id": "b22c2b616ee76669e0a789297ff935ff", "name": "Porter & Normal ", "latitude": 42.902515594961365, "longitude": -78.88469785451889, "timestamp": "2025-05-03T02:54:40.679073+00:00Z", "free_bikes": 1, "empty_slots": 4, "extra": {"uid": "hub_1794", "renting": 1, "returning": 1, "last_updated": 1746236533, "address": "52-66 Normal Avenue, Buffalo", "payment": ["key", "applepay", "androidpay", "transitcard", "accountnumber", "phone"], "payment-terminal": false, "virtual": false}}, {"id": "b6bb92407bee2f9c36cfe23a714c2ff4", "name": "Beverly Gray Center", "latitude": 42.9111481152353, "longitude": -78.85337769985199, "timestamp": "2025-05-03T02:54:40.679564+00:00Z", "free_bikes": 2, "empty_slots": 2, "extra": {"uid": "hub_5664", "renting": 1, "returning": 1, "last_updated": 1746236533, "address": "334 East Utica Street, Buffalo", "payment": ["key", "applepay", "androidpay", "transitcard", "accountnumber", "phone"], "payment-terminal": false, "virtual": false}}, {"id": "b7976458f65f6f20c36a83b9ff46ff15", "name": "Prospect Street", "latitude": 43.08730907851219, "longitude": -79.06459093093872, "timestamp": "2025-05-03T02:54:40.679354+00:00Z", "free_bikes": 8, "empty_slots": 7, "extra": {"uid": "hub_5532", "renting": 1, "returning": 1, "last_updated": 1746236533, "address": "365-391 Prospect Street, Niagara Falls", "payment": ["key", "applepay", "androidpay", "transitcard", "accountnumber", "phone"], "payment-terminal": false, "virtual": false}}, {"id": "ba121ba1c714390d29c45d5bbf81e4b8", "name": "Larkinville", "latitude": 42.87688399583103, "longitude": -78.85012149810791, "timestamp": "2025-05-03T02:54:40.679095+00:00Z", "free_bikes": 2, "empty_slots": 1, "extra": {"uid": "hub_1901", "renting": 1, "returning": 1, "last_updated": 1746236533, "address": "694 Swan Street, Buffalo, NY", "payment": ["key", "applepay", "androidpay", "transitcard", "accountnumber", "phone"], "payment-terminal": false, "virtual": false}}, {"id": "bbff9bdde53a6e8158a4236588616f63", "name": "Davis Hall", "latitude": 43.002775702626224, "longitude": -78.78673821687698, "timestamp": "2025-05-03T02:54:40.679977+00:00Z", "free_bikes": 3, "empty_slots": 7, "extra": {"uid": "hub_6179", "renting": 1, "returning": 1, "last_updated": 1746236533, "address": "Buffalo", "payment": ["key", "applepay", "androidpay", "transitcard", "accountnumber", "phone"], "payment-terminal": false, "virtual": false}}, {"id": "bd32eec6ea45469d42df1e59b666ff60", "name": "Fargo", "latitude": 43.0072087870068, "longitude": -78.78559291362762, "timestamp": "2025-05-03T02:54:40.678844+00:00Z", "free_bikes": 8, "empty_slots": 0, "extra": {"uid": "hub_1765", "renting": 1, "returning": 1, "last_updated": 1746236533, "address": "Core Road, University at Buffalo, Buffalo", "payment": ["key", "applepay", "androidpay", "transitcard", "accountnumber", "phone"], "payment-terminal": false, "virtual": false}}, {"id": "c267bf3b60f0d4c735065f88a86f3481", "name": "Alumni East", "latitude": 43.00046089394232, "longitude": -78.78029555082321, "timestamp": "2025-05-03T02:54:40.680008+00:00Z", "free_bikes": 2, "empty_slots": 3, "extra": {"uid": "hub_6182", "renting": 1, "returning": 1, "last_updated": 1746236533, "address": "Augspurger Road, University at Buffalo, Buffalo", "payment": ["key", "applepay", "androidpay", "transitcard", "accountnumber", "phone"], "payment-terminal": false, "virtual": false}}, {"id": "c653b243bac4464a302b4b0413ae6ce7", "name": "Niagara U. IPD", "latitude": 43.08882031559641, "longitude": -79.05409544706345, "timestamp": "2025-05-03T02:54:40.679445+00:00Z", "free_bikes": 4, "empty_slots": 3, "extra": {"uid": "hub_5543", "renting": 1, "returning": 1, "last_updated": 1746236533, "address": "414 7th Street, Niagara Falls", "payment": ["key", "applepay", "androidpay", "transitcard", "accountnumber", "phone"], "payment-terminal": false, "virtual": false}}, {"id": "d10f85f234b61b98de9db1946951abeb", "name": "Buffalo Harbor State Park", "latitude": 42.8452685586053, "longitude": -78.86091202497482, "timestamp": "2025-05-03T02:54:40.680028+00:00Z", "free_bikes": 4, "empty_slots": 3, "extra": {"uid": "hub_6223", "renting": 1, "returning": 1, "last_updated": 1746236533, "address": "1141 Fuhrmann Boulevard, Buffalo", "payment": ["key", "applepay", "androidpay", "transitcard", "accountnumber", "phone"], "payment-terminal": false, "virtual": false}}, {"id": "d15375ae899afa77720e8d21a27e0922", "name": "Left Bank", "latitude": 42.91284343632416, "longitude": -78.8830429315567, "timestamp": "2025-05-03T02:54:40.678493+00:00Z", "free_bikes": 1, "empty_slots": 4, "extra": {"uid": "hub_1728", "renting": 1, "returning": 1, "last_updated": 1746236533, "address": "511 Rhode Island Street, Buffalo", "payment": ["key", "applepay", "androidpay", "transitcard", "accountnumber", "phone"], "payment-terminal": false, "virtual": false}}, {"id": "d53844d45d80a83a1a62bcec7ea4131b", "name": "BNMC", "latitude": 42.89690989986477, "longitude": -78.86802792549133, "timestamp": "2025-05-03T02:54:40.679152+00:00Z", "free_bikes": 4, "empty_slots": 3, "extra": {"uid": "hub_4082", "renting": 1, "returning": 1, "last_updated": 1746236533, "address": "567-603 North Oak Street, Buffalo", "payment": ["key", "applepay", "androidpay", "transitcard", "accountnumber", "phone"], "payment-terminal": false, "virtual": false}}, {"id": "d73cfce8fe347298240856b61c344f4e", "name": "Seneca One", "latitude": 42.880477443871726, "longitude": -78.87554883956909, "timestamp": "2025-05-03T02:54:40.679703+00:00Z", "free_bikes": 7, "empty_slots": 1, "extra": {"uid": "hub_5865", "renting": 1, "returning": 1, "last_updated": 1746236533, "address": "3 Seneca Street, Buffalo", "payment": ["key", "applepay", "androidpay", "transitcard", "accountnumber", "phone"], "payment-terminal": false, "virtual": false}}, {"id": "d7fe976602c0916c0a6e33492fdcfc4c", "name": "City Market", "latitude": 43.09526011603493, "longitude": -79.0395525097847, "timestamp": "2025-05-03T02:54:40.679302+00:00Z", "free_bikes": 4, "empty_slots": 2, "extra": {"uid": "hub_5526", "renting": 1, "returning": 1, "last_updated": 1746236533, "address": "740 East Market Street, Niagara Falls", "payment": ["key", "applepay", "androidpay", "transitcard", "accountnumber", "phone"], "payment-terminal": false, "virtual": false}}, {"id": "d8f2d0e74a3e52045f6ff6cdc04af9ba", "name": "M & T Plaza", "latitude": 42.88327569723957, "longitude": -78.87487828731537, "timestamp": "2025-05-03T02:54:40.678980+00:00Z", "free_bikes": 2, "empty_slots": 3, "extra": {"uid": "hub_1772", "renting": 1, "returning": 1, "last_updated": 1746236533, "address": "345 Main Street, Buffalo", "payment": ["key", "applepay", "androidpay", "transitcard", "accountnumber", "phone"], "payment-terminal": false, "virtual": false}}, {"id": "dabed0601c6cb9e126d70f9c51290c9f", "name": "City Court Building", "latitude": 43.106160144073485, "longitude": -79.05324786901474, "timestamp": "2025-05-03T02:54:40.679500+00:00Z", "free_bikes": 2, "empty_slots": 3, "extra": {"uid": "hub_5550", "renting": 1, "returning": 1, "last_updated": 1746236533, "address": "1925 Main St, Niagara Falls", "payment": ["key", "applepay", "androidpay", "transitcard", "accountnumber", "phone"], "payment-terminal": false, "virtual": false}}, {"id": "db1e0efe8edd6dffb8f07696158cf334", "name": "Amherst St.", "latitude": 42.93983509069705, "longitude": -78.8860684633255, "timestamp": "2025-05-03T02:54:40.679199+00:00Z", "free_bikes": 3, "empty_slots": 3, "extra": {"uid": "hub_4476", "renting": 1, "returning": 1, "last_updated": 1746236533, "address": "492 Amherst Street, Buffalo, NY", "payment": ["key", "applepay", "androidpay", "transitcard", "accountnumber", "phone"], "payment-terminal": false, "virtual": false}}, {"id": "dc538ddf6e4b087cbc657add0b1aa9d8", "name": "Buffalo Science Museum ", "latitude": 42.90605794288799, "longitude": -78.8437968492508, "timestamp": "2025-05-03T02:54:40.678372+00:00Z", "free_bikes": 4, "empty_slots": 1, "extra": {"uid": "hub_1456", "renting": 1, "returning": 1, "last_updated": 1746236533, "address": "1020 Humboldt Parkway, Buffalo", "payment": ["key", "applepay", "androidpay", "transitcard", "accountnumber", "phone"], "payment-terminal": false, "virtual": false}}, {"id": "de929cc7c5af00edb28d303b94d8487c", "name": "Oakwood Cemetery", "latitude": 43.09687068671299, "longitude": -79.04979586593072, "timestamp": "2025-05-03T02:54:40.680044+00:00Z", "free_bikes": 3, "empty_slots": 2, "extra": {"uid": "hub_6234", "renting": 1, "returning": 1, "last_updated": 1746236533, "address": "763 Portage Road, Niagara Falls", "payment": ["key", "applepay", "androidpay", "transitcard", "accountnumber", "phone"], "payment-terminal": false, "virtual": false}}, {"id": "deac548dbe264c7daaf263fe254dacc5", "name": "Allen & Park", "latitude": 42.89942299621477, "longitude": -78.87593775987625, "timestamp": "2025-05-03T02:54:40.678483+00:00Z", "free_bikes": 8, "empty_slots": 0, "extra": {"uid": "hub_1727", "renting": 1, "returning": 1, "last_updated": 1746236533, "address": "NY Pizza, Allen Street, Allentown, New York", "payment": ["key", "applepay", "androidpay", "transitcard", "accountnumber", "phone"], "payment-terminal": false, "virtual": false}}, {"id": "e00f5279ad5c8d3ef8f64f69964a7949", "name": "Buffalo Museum of History ", "latitude": 42.93562261262304, "longitude": -78.87788236141203, "timestamp": "2025-05-03T02:54:40.679944+00:00Z", "free_bikes": 1, "empty_slots": 5, "extra": {"uid": "hub_6160", "renting": 1, "returning": 1, "last_updated": 1746236533, "address": "1393-1425 Elmwood Avenue, Buffalo", "payment": ["key", "applepay", "androidpay", "transitcard", "accountnumber", "phone"], "payment-terminal": false, "virtual": false}}, {"id": "e1d5bc968f133e97f8bf9af3a882be87", "name": "West Side Community Services", "latitude": 42.905969533967074, "longitude": -78.89187544584274, "timestamp": "2025-05-03T02:54:40.679062+00:00Z", "free_bikes": 2, "empty_slots": 3, "extra": {"uid": "hub_1784", "renting": 1, "returning": 1, "last_updated": 1746236533, "address": "161-179 Vermont Street, Buffalo", "payment": ["key", "applepay", "androidpay", "transitcard", "accountnumber", "phone"], "payment-terminal": false, "virtual": false}}, {"id": "e3248f627e15ea533e54cac6c90c2ab4", "name": "Hadley", "latitude": 42.99869958672152, "longitude": -78.7951147556305, "timestamp": "2025-05-03T02:54:40.678679+00:00Z", "free_bikes": 5, "empty_slots": 3, "extra": {"uid": "hub_1762", "renting": 1, "returning": 1, "last_updated": 1746236533, "address": "Hadley Community Center, Hadley Road, Ellicott Complex, North Bailey, New York", "payment": ["key", "applepay", "androidpay", "transitcard", "accountnumber", "phone"], "payment-terminal": false, "virtual": false}}, {"id": "e345dc099a8a17a959473d01234ab933", "name": "African Heritage Food Co-Op ", "latitude": 43.11261741851877, "longitude": -79.0492969751358, "timestamp": "2025-05-03T02:54:40.679257+00:00Z", "free_bikes": 2, "empty_slots": 3, "extra": {"uid": "hub_5522", "renting": 1, "returning": 1, "last_updated": 1746236533, "address": "1047 Centre Avenue, Niagara Falls", "payment": ["key", "applepay", "androidpay", "transitcard", "accountnumber", "phone"], "payment-terminal": false, "virtual": false}}, {"id": "e494835d338873fa2fb5578e6e152171", "name": "Bidwell Parkway ", "latitude": 42.92337184863346, "longitude": -78.8770079612732, "timestamp": "2025-05-03T02:54:40.678502+00:00Z", "free_bikes": 8, "empty_slots": 3, "extra": {"uid": "hub_1729", "renting": 1, "returning": 1, "last_updated": 1746236533, "address": "951 Elmwood Avenue, Buffalo", "payment": ["key", "applepay", "androidpay", "transitcard", "accountnumber", "phone"], "payment-terminal": false, "virtual": false}}, {"id": "e4bd022e6c2fdddfa7688fee2eff3489", "name": "Canalside at Naval Park", "latitude": 42.87777046137176, "longitude": -78.87949973344803, "timestamp": "2025-05-03T02:54:40.678436+00:00Z", "free_bikes": 9, "empty_slots": 1, "extra": {"uid": "hub_1724", "renting": 1, "returning": 1, "last_updated": 1746236533, "address": "3-7 Marine Drive, Buffalo", "payment": ["key", "applepay", "androidpay", "transitcard", "accountnumber", "phone"], "payment-terminal": false, "virtual": false}}, {"id": "e4ffed7ec25b5bfdb782302bd80740d8", "name": "Fillmore & Glenwood", "latitude": 42.912511693271036, "longitude": -78.83852362632751, "timestamp": "2025-05-03T02:54:40.679187+00:00Z", "free_bikes": 2, "empty_slots": 2, "extra": {"uid": "hub_4335", "renting": 1, "returning": 1, "last_updated": 1746236533, "address": "712 Glenwood Avenue, Buffalo", "payment": ["key", "applepay", "androidpay", "transitcard", "accountnumber", "phone"], "payment-terminal": false, "virtual": false}}, {"id": "e7d5d22b2c66701ac3847ac781b46193", "name": "Governor's", "latitude": 43.00217951718819, "longitude": -78.79352152347565, "timestamp": "2025-05-03T02:54:40.678667+00:00Z", "free_bikes": 1, "empty_slots": 2, "extra": {"uid": "hub_1761", "renting": 1, "returning": 1, "last_updated": 1746236533, "address": "Hadley Road, University at Buffalo, Buffalo", "payment": ["key", "applepay", "androidpay", "transitcard", "accountnumber", "phone"], "payment-terminal": false, "virtual": false}}, {"id": "e9feaecc606f6fc31a9390a9b1a75f94", "name": "Gorge Discovery Center", "latitude": 43.09342840030237, "longitude": -79.06184434890747, "timestamp": "2025-05-03T02:54:40.679846+00:00Z", "free_bikes": 0, "empty_slots": 5, "extra": {"uid": "hub_5948", "renting": 1, "returning": 1, "last_updated": 1746236533, "address": "Niagara Falls State Park, Niagara Falls", "payment": ["key", "applepay", "androidpay", "transitcard", "accountnumber", "phone"], "payment-terminal": false, "virtual": false}}, {"id": "e9ff31c52bb83e4a296444a29c924e1c", "name": "Sahlen Field", "latitude": 42.88138105436499, "longitude": -78.87435793876648, "timestamp": "2025-05-03T02:54:40.678510+00:00Z", "free_bikes": 1, "empty_slots": 5, "extra": {"uid": "hub_1730", "renting": 1, "returning": 1, "last_updated": 1746236533, "address": "Coca-Cola Field, 275, Washington Street, Allentown, Buffalo, New York", "payment": ["key", "applepay", "androidpay", "transitcard", "accountnumber", "phone"], "payment-terminal": false, "virtual": false}}, {"id": "ebc4ae97311693c1b3940c2dcf843472", "name": "1242 Niagara Street", "latitude": 42.91750932382048, "longitude": -78.89936819672585, "timestamp": "2025-05-03T02:54:40.679788+00:00Z", "free_bikes": 2, "empty_slots": 4, "extra": {"uid": "hub_5881", "renting": 1, "returning": 1, "last_updated": 1746236533, "address": "1226-1242 Niagara Street, Buffalo", "payment": ["key", "applepay", "androidpay", "transitcard", "accountnumber", "phone"], "payment-terminal": false, "virtual": false}}, {"id": "eca5dfdc9e1a12a0a2ddd23e1728a330", "name": "Broadway & Michigan", "latitude": 42.88681521992493, "longitude": -78.86729836463928, "timestamp": "2025-05-03T02:54:40.679772+00:00Z", "free_bikes": 2, "empty_slots": 3, "extra": {"uid": "hub_5879", "renting": 1, "returning": 1, "last_updated": 1746236533, "address": "511 Michigan Avenue, Buffalo", "payment": ["key", "applepay", "androidpay", "transitcard", "accountnumber", "phone"], "payment-terminal": false, "virtual": false}}, {"id": "ed5564024a3fc77fcaa8516579c9f9c2", "name": "Intermodal Hub", "latitude": 43.02023503479449, "longitude": -78.87707836923937, "timestamp": "2025-05-03T02:54:40.680103+00:00Z", "free_bikes": 4, "empty_slots": 3, "extra": {"uid": "hub_6244", "renting": 1, "returning": 1, "last_updated": 1746236533, "address": "2 Young Street, Tonawanda", "payment": ["key", "applepay", "androidpay", "transitcard", "accountnumber", "phone"], "payment-terminal": false, "virtual": false}}, {"id": "f43978df81fe61ed2068ee832e18aacc", "name": "Allen & Franklin", "latitude": 42.899295280731494, "longitude": -78.87235164642334, "timestamp": "2025-05-03T02:54:40.678609+00:00Z", "free_bikes": 8, "empty_slots": 0, "extra": {"uid": "hub_1753", "renting": 1, "returning": 1, "last_updated": 1746236533, "address": "Studio Hart, Allen Street, Allentown, New York", "payment": ["key", "applepay", "androidpay", "transitcard", "accountnumber", "phone"], "payment-terminal": false, "virtual": false}}, {"id": "f7a651f2f1e288c586c8ec338af58cc0", "name": "Old Falls & 1st Street", "latitude": 43.08623814250109, "longitude": -79.06179338693619, "timestamp": "2025-05-03T02:54:40.679374+00:00Z", "free_bikes": 4, "empty_slots": 2, "extra": {"uid": "hub_5534", "renting": 1, "returning": 1, "last_updated": 1746236533, "address": "302 1st Street, Niagara Falls", "payment": ["key", "applepay", "androidpay", "transitcard", "accountnumber", "phone"], "payment-terminal": false, "virtual": false}}, {"id": "f9dc230e762e803a8cd412c182079c77", "name": "Hertel & Parkside", "latitude": 42.94794947218281, "longitude": -78.84956359863281, "timestamp": "2025-05-03T02:54:40.679106+00:00Z", "free_bikes": 4, "empty_slots": 1, "extra": {"uid": "hub_1968", "renting": 1, "returning": 1, "last_updated": 1746236533, "address": "651-661 Parkside Avenue, Buffalo", "payment": ["key", "applepay", "androidpay", "transitcard", "accountnumber", "phone"], "payment-terminal": false, "virtual": false}}, {"id": "fab56479c4f5bac0b4a2ca7a6ee9156f", "name": "Lasalle Waterfront Park", "latitude": 43.0742505342695, "longitude": -78.98783683776855, "timestamp": "2025-05-03T02:54:40.679455+00:00Z", "free_bikes": 3, "empty_slots": 5, "extra": {"uid": "hub_5544", "renting": 1, "returning": 1, "last_updated": 1746236533, "address": "6611 Buffalo Avenue, Niagara Falls", "payment": ["key", "applepay", "androidpay", "transitcard", "accountnumber", "phone"], "payment-terminal": false, "virtual": false}}, {"id": "fccb5ea1f89b0791ca29b9571e62aeff", "name": "Doris Jones Resource Center", "latitude": 43.11754435540563, "longitude": -79.04895633459091, "timestamp": "2025-05-03T02:54:40.679483+00:00Z", "free_bikes": 2, "empty_slots": 3, "extra": {"uid": "hub_5547", "renting": 1, "returning": 1, "last_updated": 1746236533, "address": "2962 9th Street, Niagara Falls", "payment": ["key", "applepay", "androidpay", "transitcard", "accountnumber", "phone"], "payment-terminal": false, "virtual": false}}, {"id": "fdbf1b9f83b1c2670ecf7d0a185984b2", "name": "Hyatt Place", "latitude": 43.086300826884234, "longitude": -79.06312644481659, "timestamp": "2025-05-03T02:54:40.679363+00:00Z", "free_bikes": 8, "empty_slots": 7, "extra": {"uid": "hub_5533", "renting": 1, "returning": 1, "last_updated": 1746236533, "address": "Rainbow Boulevard, Niagara Falls", "payment": ["key", "applepay", "androidpay", "transitcard", "accountnumber", "phone"], "payment-terminal": false, "virtual": false}}]}