{"id": "rimini", "name": "Mi Muovo in Bici", "location": {"latitude": 44.0570817, "longitude": 12.5646003, "city": "Rimini", "country": "IT"}, "href": "/v2/networks/rimini", "company": ["Comunicare S.r.l."], "system": "Bicincitt\u00e0", "source": "http://www.mimuovoinbici.it/frmLeStazioni.aspx?ID=149", "stations": [{"id": "1516614c7deb3ed9c70d215f5b2f1e3e", "name": "04. Mercato coperto", "latitude": 44.058833631009804, "longitude": 12.572994232177734, "timestamp": "2025-05-03T03:15:50.653744+00:00Z", "free_bikes": 5, "empty_slots": 3, "extra": {"uid": "954", "number": 4, "status": "offline", "score": 3.4, "reviews": 7}}, {"id": "22cc33c159c04bf22442961d6b1717ba", "name": "01. Stazione FF.SS.", "latitude": 44.062821505484834, "longitude": 12.573029100894928, "timestamp": "2025-05-03T03:15:50.653203+00:00Z", "free_bikes": 5, "empty_slots": 3, "extra": {"uid": "951", "number": 1, "status": "offline", "score": 3.2, "reviews": 24}}, {"id": "30005f382567a2a66ae785f641e322da", "name": "08. Piazzale Boscovich", "latitude": 44.07698024068153, "longitude": 12.574925422668457, "timestamp": "2025-05-03T03:15:50.653758+00:00Z", "free_bikes": 5, "empty_slots": 3, "extra": {"uid": "958", "number": 8, "status": "offline", "score": 3.8, "reviews": 5}}, {"id": "36a6914e208d158ec69fc50d40a1f4a9", "name": "02. Arco d'Augusto", "latitude": 44.05712198142915, "longitude": 12.57110595703125, "timestamp": "2025-05-03T03:15:50.653724+00:00Z", "free_bikes": 5, "empty_slots": 3, "extra": {"uid": "952", "number": 2, "status": "offline", "score": 1.0, "reviews": 2}}, {"id": "4138a79af1c44229a2d7df5c1c1606d0", "name": "09. Castello Malatestiano", "latitude": 44.0588182109642, "longitude": 12.5628662109375, "timestamp": "2025-05-03T03:15:50.653765+00:00Z", "free_bikes": 5, "empty_slots": 3, "extra": {"uid": "959", "number": 9, "status": "offline", "score": 1.5, "reviews": 18}}, {"id": "f4f253f7c4b34e6c5fb4cd73d97252e4", "name": "03. Domus del chirurgo", "latitude": 44.06254589012873, "longitude": 12.567688822746277, "timestamp": "2025-05-03T03:15:50.653736+00:00Z", "free_bikes": 5, "empty_slots": 3, "extra": {"uid": "953", "number": 3, "status": "offline", "score": 3.4, "reviews": 4}}, {"id": "f94c88844eade82fb6b8faf2fdfb22fd", "name": "06. Piazzale Kennedy", "latitude": 44.06699027217852, "longitude": 12.581883072853088, "timestamp": "2025-05-03T03:15:50.653751+00:00Z", "free_bikes": 5, "empty_slots": 3, "extra": {"uid": "956", "number": 6, "status": "offline", "score": 3.6, "reviews": 3}}]}