{"id": "rowerowe-lodzkie-rl-lodz-rl", "name": "Rowerowe \u0141\u00f3dzkie", "location": {"latitude": 51.7674, "longitude": 19.4575, "city": "\u0141\u00f3d\u017a", "country": "PL"}, "href": "/v2/networks/rowerowe-lodzkie-rl-lodz-rl", "company": ["Nextbike GmbH"], "system": "Nextbike", "stations": [{"id": "14cb32f1a717c8a17c5520df7587c36e", "name": "Rowerowe \u0141\u00f3dzkie - \u0141\u00f3d\u017a \u017babieniec", "latitude": 51.793212, "longitude": 19.407833, "timestamp": "2025-05-03T03:15:37.723698+00:00Z", "free_bikes": 3, "empty_slots": 5, "extra": {"uid": "10282809", "number": "7476", "slots": 15, "bike_uids": ["71998", "72000", "72013"], "virtual": false}}, {"id": "1615de30b541b395fe158d709108f4b1", "name": "Rowerowe \u0141\u00f3dzkie - \u0141\u00f3d\u017a Kaliska", "latitude": 51.757765, "longitude": 19.429125, "timestamp": "2025-05-03T03:15:37.723724+00:00Z", "free_bikes": 4, "empty_slots": 10, "extra": {"uid": "10282840", "number": "7477", "slots": 15, "bike_uids": ["71940", "71930", "71919", "72632"], "virtual": false}}, {"id": "3d2a923a6161873b4a54167895eb6c91", "name": "Rowerowe \u0141\u00f3dzkie - \u0141\u00f3d\u017a Artur\u00f3wek", "latitude": 51.81678, "longitude": 19.454454, "timestamp": "2025-05-03T03:15:37.723946+00:00Z", "free_bikes": 4, "empty_slots": 10, "extra": {"uid": "10284108", "number": "7487", "slots": 15, "bike_uids": ["71983", "71933", "71926", "72014"], "virtual": false}}, {"id": "43c6d5a231e1bf8ab9f6566a65a189c2", "name": "Rowerowe \u0141\u00f3dzkie - \u0141\u00f3d\u017a D\u0105browa", "latitude": 51.735905, "longitude": 19.510728, "timestamp": "2025-05-03T03:15:37.723817+00:00Z", "free_bikes": 3, "empty_slots": 12, "extra": {"uid": "10283003", "number": "7481", "slots": 15, "bike_uids": ["71978", "71929", "72006"], "virtual": false}}, {"id": "5e21c62867b51c53a12b486cb104761d", "name": "Rowerowe \u0141\u00f3dzkie - \u0141\u00f3d\u017a Marysin", "latitude": 51.799997, "longitude": 19.485202, "timestamp": "2025-05-03T03:15:37.723926+00:00Z", "free_bikes": 5, "empty_slots": 5, "extra": {"uid": "10284007", "number": "7486", "slots": 15, "bike_uids": ["71962", "71958", "71931", "71904", "71885"], "virtual": false}}, {"id": "5f69e9d8d8a2b4c18d28e8fe4c2a53cd", "name": "Rowerowe \u0141\u00f3dzkie - \u0141\u00f3d\u017a Fabryczna", "latitude": 51.770171, "longitude": 19.466538, "timestamp": "2025-05-03T03:15:37.723965+00:00Z", "free_bikes": 1, "empty_slots": 13, "extra": {"uid": "10284149", "number": "7488", "slots": 15, "bike_uids": ["71892"], "virtual": false}}, {"id": "730ce14b93fdbcd81c3156fa6cfc6490", "name": "Rowerowe \u0141\u00f3dzkie - \u0141\u00f3d\u017a Pabianicka", "latitude": 51.725503, "longitude": 19.44554, "timestamp": "2025-05-03T03:15:37.723768+00:00Z", "free_bikes": 6, "empty_slots": 9, "extra": {"uid": "10282910", "number": "7479", "slots": 15, "bike_uids": ["71977", "71963", "71950", "72472", "72558", "72518"], "virtual": false}}, {"id": "9bcb09f45f0c311c1e5f1522f4d7bf5c", "name": "Rowerowe \u0141\u00f3dzkie - \u0141\u00f3d\u017a Chojny", "latitude": 51.72735, "longitude": 19.480294, "timestamp": "2025-05-03T03:15:37.723790+00:00Z", "free_bikes": 15, "empty_slots": 0, "extra": {"uid": "10282939", "number": "7480", "slots": 15, "bike_uids": ["71986", "71976", "71969", "71956", "71954", "71936", "71922", "71914", "71909", "71906", "71896", "71891", "71886", "71829", "72001"], "virtual": false}}, {"id": "9ebeadc0fda2144e03dda21eea1f6e9c", "name": "Rowerowe \u0141\u00f3dzkie - ZOO Orientarium", "latitude": 51.763879, "longitude": 19.412686, "timestamp": "2025-05-03T03:15:37.723984+00:00Z", "free_bikes": 8, "empty_slots": 0, "extra": {"uid": "35916716", "number": "8697", "slots": 5, "bike_uids": ["71971", "71966", "71946", "71944", "71905", "71881", "72538", "72633"], "virtual": false}}, {"id": "a67615bfd65563a83d42d3223fa22fc7", "name": "Rowerowe \u0141\u00f3dzkie - \u0141\u00f3d\u017a Stoki", "latitude": 51.776328, "longitude": 19.509129, "timestamp": "2025-05-03T03:15:37.723906+00:00Z", "free_bikes": 4, "empty_slots": 10, "extra": {"uid": "10283363", "number": "7485", "slots": 15, "bike_uids": ["71902", "72458", "72641", "72639"], "virtual": false}}, {"id": "b4e7739392418eb5affe89ee43b314d5", "name": "Rowerowe \u0141\u00f3dzkie - \u0141\u00f3d\u017a Andrzej\u00f3w", "latitude": 51.741516, "longitude": 19.61441, "timestamp": "2025-05-03T03:15:37.723840+00:00Z", "free_bikes": 5, "empty_slots": 10, "extra": {"uid": "10283060", "number": "7482", "slots": 15, "bike_uids": ["71988", "71982", "71970", "71924", "72534"], "virtual": false}}, {"id": "cf68fffe2990e2591825b85d2a7d61c6", "name": "Rowerowe \u0141\u00f3dzkie - \u0141\u00f3d\u017a Widzew", "latitude": 51.762458, "longitude": 19.543435, "timestamp": "2025-05-03T03:15:37.723864+00:00Z", "free_bikes": 0, "empty_slots": 15, "extra": {"uid": "10283278", "number": "7483", "slots": 15, "bike_uids": [], "virtual": false}}, {"id": "d1428b5c2cf61ce53c4212f253b30e15", "name": "Rowerowe \u0141\u00f3dzkie - \u0141\u00f3d\u017a Radogoszcz Zach\u00f3d", "latitude": 51.821019, "longitude": 19.416565, "timestamp": "2025-05-03T03:15:37.723642+00:00Z", "free_bikes": 10, "empty_slots": 4, "extra": {"uid": "10282778", "number": "7475", "slots": 15, "bike_uids": ["71995", "71965", "71953", "71927", "71910", "72018", "72005", "72003", "72528", "72637"], "virtual": false}}, {"id": "d1e49dc564e14bac5352b824dd3b1c95", "name": "Rowerowe \u0141\u00f3dzkie - \u0141\u00f3d\u017a Niciarniana", "latitude": 51.767161, "longitude": 19.506071, "timestamp": "2025-05-03T03:15:37.723883+00:00Z", "free_bikes": 6, "empty_slots": 9, "extra": {"uid": "10283322", "number": "7484", "slots": 15, "bike_uids": ["71947", "71937", "71932", "71899", "72477", "72016"], "virtual": false}}, {"id": "fadd9d1123a18a00680faa53a62012b3", "name": "Rowerowe \u0141\u00f3dzkie - \u0141\u00f3d\u017a Lublinek", "latitude": 51.719154, "longitude": 19.359089, "timestamp": "2025-05-03T03:15:37.723747+00:00Z", "free_bikes": 2, "empty_slots": 8, "extra": {"uid": "10282871", "number": "7478", "slots": 15, "bike_uids": ["71980", "72642"], "virtual": false}}]}