{"id": "rower-powiatowy-sokolow-podlaski", "name": "Rower Powiatowy Soko\u0142\u00f3w Podlaski", "location": {"latitude": 52.4082, "longitude": 22.2525, "city": "Soko\u0142\u00f3w Podlaski", "country": "PL"}, "href": "/v2/networks/rower-powiatowy-sokolow-podlaski", "company": ["Nextbike GmbH"], "system": "Nextbike", "stations": [{"id": "245c6e9f9e431b2155ee41427a0cb003", "name": "Starostwo Powiatowe", "latitude": 52.4069, "longitude": 22.24183, "timestamp": "2024-09-15T21:57:27.514552Z", "free_bikes": 6, "empty_slots": 4, "extra": {"uid": "50993086", "number": "6286", "slots": 8, "bike_uids": ["62777", "62769", "62762", "62760", "62755", "62786"]}}, {"id": "4c59710fcf6050c77eee7c5218b7de64", "name": "Rolnik", "latitude": 52.41142, "longitude": 22.21888, "timestamp": "2024-09-15T21:57:27.514253Z", "free_bikes": 2, "empty_slots": 7, "extra": {"uid": "50993032", "number": "6282", "slots": 8, "bike_uids": ["62784", "62761"]}}, {"id": "639dc9a404cfa1e4d7b7049a8223b99a", "name": "Sabnie", "latitude": 52.49621, "longitude": 22.30837, "timestamp": "2024-09-15T21:57:27.514312Z", "free_bikes": 6, "empty_slots": 2, "extra": {"uid": "50993061", "number": "6284", "slots": 8, "bike_uids": ["62751", "62783", "62771", "62764", "62763", "62754"]}}, {"id": "69160c237ebfdf21f5684d6043acdf35", "name": "Jab\u0142onna Lacka", "latitude": 52.47632, "longitude": 22.43914, "timestamp": "2024-09-15T21:57:27.514525Z", "free_bikes": 5, "empty_slots": 4, "extra": {"uid": "50993071", "number": "6285", "slots": 8, "bike_uids": ["62781", "62775", "62772", "62768", "62787"]}}, {"id": "73091aede96782230c88be904460b418", "name": "Targowa", "latitude": 52.41302, "longitude": 22.24537, "timestamp": "2024-09-15T21:57:27.514208Z", "free_bikes": 5, "empty_slots": 4, "extra": {"uid": "50993020", "number": "6281", "slots": 8, "bike_uids": ["62782", "62776", "62774", "62767", "62758"]}}, {"id": "dae94eba878663d4e0261754512a2f22", "name": "Ko\u015bcielna", "latitude": 52.40803, "longitude": 22.2528, "timestamp": "2024-09-15T21:57:27.514283Z", "free_bikes": 7, "empty_slots": 2, "extra": {"uid": "50993043", "number": "6283", "slots": 8, "bike_uids": ["62785", "62778", "62773", "62759", "62756", "62753", "62752"]}}]}