{"id": "santander-cycles-swansea-swansea-university", "name": "Santander Cycles", "location": {"latitude": 51.6106, "longitude": -3.9764, "city": "Swansea", "country": "GB"}, "href": "/v2/networks/santander-cycles-swansea-swansea-university", "company": ["Nextbike GmbH"], "system": "Nextbike", "stations": [{"id": "0d95295aa52c383a6488b1cc5dc80d70", "name": "True - Student Accommodation ", "latitude": 51.630414, "longitude": -3.935065, "timestamp": "2025-05-03T03:15:36.878466+00:00Z", "free_bikes": 3, "empty_slots": null, "extra": {"uid": "525343989", "number": "8773", "bike_uids": ["81805", "81770", "81769"], "virtual": true}}, {"id": "395028de99d8efcfa2d28061b5fbe8b4", "name": "Swansea Bus Station", "latitude": 51.617134, "longitude": -3.94598, "timestamp": "2025-05-03T03:15:36.878449+00:00Z", "free_bikes": 23, "empty_slots": 0, "extra": {"uid": "485164474", "number": "8772", "slots": 8, "bike_uids": ["81816", "81813", "81810", "81800", "81790", "81783", "81781", "81776", "81774", "81768", "81767", "81766", "824066", "824064", "824063", "824054", "824053", "824025", "824020", "824010", "824008", "824007", "824000"], "virtual": false}}, {"id": "3bdc2d2c0b3a149660985f5382abaa47", "name": "Oystermouth", "latitude": 51.574668, "longitude": -3.9969, "timestamp": "2025-05-03T03:15:36.878420+00:00Z", "free_bikes": 1, "empty_slots": 9, "extra": {"uid": "10478722", "number": "8769", "slots": 10, "bike_uids": ["81819"], "virtual": false}}, {"id": "84c858f3dfcbca7b744ee5af7db9cff9", "name": "Guildhall", "latitude": 51.614204, "longitude": -3.958592, "timestamp": "2025-05-03T03:15:36.878435+00:00Z", "free_bikes": 4, "empty_slots": 5, "extra": {"uid": "485164078", "number": "8771", "slots": 10, "bike_uids": ["81808", "81787", "81762", "824024"], "virtual": false}}, {"id": "9a24ed036305987808a07e4e521e85db", "name": "Fabian Way Park and Ride", "latitude": 51.621572, "longitude": -3.910753, "timestamp": "2025-05-03T03:15:36.878399+00:00Z", "free_bikes": 6, "empty_slots": 4, "extra": {"uid": "6344970", "number": "8766", "slots": 10, "bike_uids": ["81804", "81795", "81772", "824047", "824023", "824011"], "virtual": false}}, {"id": "aa5108e42a1e86b8ee94d53a746a7d38", "name": "Swansea University Bay Campus", "latitude": 51.61855, "longitude": -3.87902, "timestamp": "2025-05-03T03:15:36.878378+00:00Z", "free_bikes": 2, "empty_slots": 17, "extra": {"uid": "6344959", "number": "8764", "slots": 20, "bike_uids": ["81792", "81777"], "virtual": false}}, {"id": "d99b652aa381afe5ad88a86f6a98fb9b", "name": "Swansea University Singleton Campus", "latitude": 51.609306, "longitude": -3.980886, "timestamp": "2025-05-03T03:15:36.878343+00:00Z", "free_bikes": 3, "empty_slots": 16, "extra": {"uid": "6344888", "number": "8765", "slots": 20, "bike_uids": ["81794", "81763", "824026"], "virtual": false}}]}