{"id": "santander-monchengladbach", "name": "Santander M\u00f6nchengladbach", "location": {"latitude": 51.1817, "longitude": 6.43578, "city": "M\u00f6nchengladbach", "country": "DE"}, "href": "/v2/networks/santander-monchengladbach", "company": ["Nextbike GmbH"], "system": "Nextbike", "stations": [{"id": "02850e10a3913e37917bf06ca7ed5a0e", "name": "Alter Markt", "latitude": 51.193707, "longitude": 6.43392, "timestamp": "2025-05-03T03:15:37.046891+00:00Z", "free_bikes": 0, "empty_slots": 8, "extra": {"uid": "9575651", "number": "30036", "slots": 8, "bike_uids": [], "virtual": false}}, {"id": "04c048a05e92ad28491ae27f84102c7d", "name": "Bahnhof Wickrath", "latitude": 51.132297, "longitude": 6.41067, "timestamp": "2025-05-03T03:15:37.047327+00:00Z", "free_bikes": 10, "empty_slots": null, "extra": {"uid": "115821308", "number": "30050", "bike_uids": ["350293", "350321", "350192", "350092", "350230", "350380", "350510", "350444", "350490", "350512"], "virtual": false}}, {"id": "126852b9a33ba885b81d0022398d07fa", "name": "Schm\u00f6lderpark - Urftstra\u00dfe", "latitude": 51.161541, "longitude": 6.429552, "timestamp": "2025-05-03T03:15:37.047089+00:00Z", "free_bikes": 7, "empty_slots": 0, "extra": {"uid": "9575955", "number": "30046", "slots": 5, "bike_uids": ["350145", "350107", "350056", "350303", "350448", "350446", "350437"], "virtual": false}}, {"id": "1be1c7e9a6a4aa35be9f28c8db45f66c", "name": "Marktplatz Rheydt", "latitude": 51.167377, "longitude": 6.44562, "timestamp": "2025-05-03T03:15:37.046473+00:00Z", "free_bikes": 9, "empty_slots": 0, "extra": {"uid": "9575377", "number": "30021", "slots": 6, "bike_uids": ["350319", "350088", "350243", "350217", "350546", "350047", "350000", "350504", "350511"], "virtual": false}}, {"id": "1c2410305b57563c4b7fc00ded219f59", "name": "Ludwig-Weber-Stra\u00dfe", "latitude": 51.198853, "longitude": 6.426499, "timestamp": "2025-05-03T03:15:37.047033+00:00Z", "free_bikes": 1, "empty_slots": 4, "extra": {"uid": "9575932", "number": "30044", "slots": 5, "bike_uids": ["350117"], "virtual": false}}, {"id": "1d20f656e15dc8e7c3ad769f98f1eecf", "name": "Croonsallee", "latitude": 51.19524, "longitude": 6.436878, "timestamp": "2025-05-03T03:15:37.047003+00:00Z", "free_bikes": 5, "empty_slots": null, "extra": {"uid": "9575893", "number": "30042", "bike_uids": ["350246", "350281", "350329", "350454", "350451"], "virtual": false}}, {"id": "1e3f33dd9303a850178226a35cf01877", "name": "Musikschule", "latitude": 51.19174, "longitude": 6.43711, "timestamp": "2025-05-03T03:15:37.046659+00:00Z", "free_bikes": 5, "empty_slots": 0, "extra": {"uid": "9575515", "number": "30030", "slots": 5, "bike_uids": ["350235", "350336", "350526", "350385", "350008"], "virtual": false}}, {"id": "21ee874d5247d695112561c8cb8bc00c", "name": "Holt Kirche", "latitude": 51.182343, "longitude": 6.409407, "timestamp": "2025-05-03T03:15:37.047366+00:00Z", "free_bikes": 5, "empty_slots": 1, "extra": {"uid": "115822451", "number": "30052", "slots": 6, "bike_uids": ["350285", "350239", "350335", "350515", "350536"], "virtual": false}}, {"id": "24161a088f88ad9b1d9a443ee046715e", "name": "Rheydt Hauptbahnhof", "latitude": 51.163646, "longitude": 6.440451, "timestamp": "2025-05-03T03:15:37.046535+00:00Z", "free_bikes": 16, "empty_slots": 0, "extra": {"uid": "9575430", "number": "30024", "slots": 9, "bike_uids": ["350229", "350097", "350316", "350241", "350260", "350181", "350112", "350298", "350212", "350275", "350396", "350332", "350481", "350457", "350514", "350439"], "virtual": false}}, {"id": "2b3795b74ec4f04d988174d78034c5fb", "name": "Bahnhof L\u00fcrrip", "latitude": 51.1991, "longitude": 6.47309, "timestamp": "2025-05-03T03:15:37.046918+00:00Z", "free_bikes": 13, "empty_slots": 0, "extra": {"uid": "9575810", "number": "30038", "slots": 5, "bike_uids": ["350320", "350221", "350078", "350412", "350341", "350411", "350353", "350413", "350371", "350012", "350007", "350442", "350499"], "virtual": false}}, {"id": "2e7986e4fac494c743baa264b3aec9b6", "name": "Studentenwohnheim Rheydt", "latitude": 51.16145, "longitude": 6.41933, "timestamp": "2025-05-03T03:15:37.046597+00:00Z", "free_bikes": 4, "empty_slots": 1, "extra": {"uid": "9575462", "number": "30027", "slots": 5, "bike_uids": ["350252", "350253", "350545", "350471"], "virtual": false}}, {"id": "305a07c65253866e03e9f5cdc253b2e8", "name": "Grenzlandstadion ", "latitude": 51.178268, "longitude": 6.44835, "timestamp": "2025-05-03T03:15:37.046437+00:00Z", "free_bikes": 28, "empty_slots": 0, "extra": {"uid": "9575252", "number": "30019", "slots": 5, "bike_uids": ["350261", "350146", "350304", "350080", "350211", "350223", "350231", "350162", "350270", "350208", "350379", "350388", "350378", "350340", "350358", "350539", "350480", "350369", "350367", "350038", "350016", "350001", "350478", "350466", "350496", "350519", "350440", "350455"], "virtual": false}}, {"id": "327742115d3f84eb396ae5e0bd94dbe8", "name": "Amtsgericht - Brucknerallee", "latitude": 51.17241, "longitude": 6.44366, "timestamp": "2025-05-03T03:15:37.046454+00:00Z", "free_bikes": 22, "empty_slots": 0, "extra": {"uid": "9575354", "number": "30020", "slots": 5, "bike_uids": ["350138", "350269", "350294", "350109", "350234", "350178", "350104", "350084", "350203", "350153", "350191", "350161", "350177", "350100", "350391", "350331", "350364", "350384", "350046", "350024", "350462", "350541"], "virtual": false}}, {"id": "3369f269b28d8687dc8582638061212e", "name": "Geroplatz", "latitude": 51.191164, "longitude": 6.430998, "timestamp": "2025-05-03T03:15:37.046638+00:00Z", "free_bikes": 14, "empty_slots": null, "extra": {"uid": "9575508", "number": "30029", "bike_uids": ["350267", "350093", "350151", "350291", "350086", "350218", "350370", "350399", "350495", "350344", "350311", "350299", "350470", "350472"], "virtual": true}}, {"id": "35123afb8c7d2b1d6d10c78693517fb5", "name": "Aachener Stra\u00dfe/ Sandradstra\u00dfe", "latitude": 51.196152, "longitude": 6.431151, "timestamp": "2025-05-03T03:15:37.046963+00:00Z", "free_bikes": 0, "empty_slots": 5, "extra": {"uid": "9575878", "number": "30041", "slots": 5, "bike_uids": [], "virtual": false}}, {"id": "4360630e1f1583797fc0dfd99868a0e9", "name": "Am Landgericht", "latitude": 51.20377, "longitude": 6.44102, "timestamp": "2025-05-03T03:15:37.046933+00:00Z", "free_bikes": 1, "empty_slots": 4, "extra": {"uid": "9575832", "number": "30039", "slots": 5, "bike_uids": ["350377"], "virtual": false}}, {"id": "4fb54a19e4e078e178ee812705ac7082", "name": "Geneicken Bahnhof", "latitude": 51.1699, "longitude": 6.45664, "timestamp": "2025-05-03T03:15:37.046496+00:00Z", "free_bikes": 10, "empty_slots": 0, "extra": {"uid": "9575385", "number": "30022", "slots": 5, "bike_uids": ["350187", "350121", "350247", "350144", "350148", "350136", "350282", "350021", "350015", "350543"], "virtual": false}}, {"id": "5e9f2526a17475047837017a9a516405", "name": "K\u00fcnkelstrasse", "latitude": 51.212476, "longitude": 6.448994, "timestamp": "2025-05-03T03:15:37.047406+00:00Z", "free_bikes": 14, "empty_slots": null, "extra": {"uid": "115823786", "number": "30054", "bike_uids": ["350167", "350224", "350156", "350202", "350149", "350232", "350338", "350356", "350334", "350314", "350516", "350483", "350460", "350528"], "virtual": false}}, {"id": "6638b47bbbeb34eb28d13417408ca14f", "name": "Schm\u00f6lderpark - Eisenbahnstra\u00dfe", "latitude": 51.162636, "longitude": 6.435345, "timestamp": "2025-05-03T03:15:37.047072+00:00Z", "free_bikes": 3, "empty_slots": 2, "extra": {"uid": "9575941", "number": "30045", "slots": 5, "bike_uids": ["350216", "350535", "350450"], "virtual": false}}, {"id": "685df8ac5d1103f30609991c457410d9", "name": "Berliner Platz", "latitude": 51.19199, "longitude": 6.44019, "timestamp": "2025-05-03T03:15:37.046693+00:00Z", "free_bikes": 16, "empty_slots": 0, "extra": {"uid": "9575527", "number": "30031", "slots": 8, "bike_uids": ["350171", "350265", "350142", "350165", "350278", "350065", "350330", "350372", "350374", "350045", "350041", "350035", "350029", "350027", "350487", "350523"], "virtual": false}}, {"id": "6f1ad526aebd7031c5c88e09f910c891", "name": "Lessingstra\u00dfe", "latitude": 51.200249, "longitude": 6.443841, "timestamp": "2025-05-03T03:15:37.046947+00:00Z", "free_bikes": 17, "empty_slots": 0, "extra": {"uid": "9575852", "number": "30040", "slots": 6, "bike_uids": ["350266", "350268", "350308", "350099", "350225", "350220", "350155", "350381", "350407", "350398", "350435", "350447", "350458", "350474", "350529", "350518", "350484"], "virtual": false}}, {"id": "820c5f7671e8b360c03741348c15eaf9", "name": "Krankenhaus Rheydt", "latitude": 51.15859, "longitude": 6.42117, "timestamp": "2025-05-03T03:15:37.046575+00:00Z", "free_bikes": 12, "empty_slots": 0, "extra": {"uid": "9575452", "number": "30026", "slots": 10, "bike_uids": ["350110", "350075", "350091", "350139", "350118", "350386", "350333", "350287", "350201", "350520", "350441", "350443"], "virtual": false}}, {"id": "8762f55b4d7b9240514583d7556786d0", "name": "Hauptbahnhof - Europaplatz", "latitude": 51.196672, "longitude": 6.443889, "timestamp": "2025-05-03T03:15:37.046791+00:00Z", "free_bikes": 10, "empty_slots": 0, "extra": {"uid": "9575561", "number": "30033", "slots": 10, "bike_uids": ["350274", "350346", "350342", "350397", "350357", "350538", "350040", "350489", "350479", "350343"], "virtual": false}}, {"id": "8dbf6319affb7e9f142a613884043bd6", "name": "Nordpark", "latitude": 51.17587, "longitude": 6.39153, "timestamp": "2025-05-03T03:15:37.046334+00:00Z", "free_bikes": 12, "empty_slots": 0, "extra": {"uid": "9359199", "number": "30015", "slots": 12, "bike_uids": ["350120", "350248", "350244", "350147", "350337", "350347", "350395", "350026", "350521", "350532", "350525", "350497"], "virtual": false}}, {"id": "930d54b452c18d6edf1acacd9b73bf61", "name": "Hochschule - Campus M\u00f6nchengladbach", "latitude": 51.17911, "longitude": 6.4403, "timestamp": "2025-05-03T03:15:37.046407+00:00Z", "free_bikes": 2, "empty_slots": 6, "extra": {"uid": "9575154", "number": "30017", "slots": 8, "bike_uids": ["350175", "350326"], "virtual": false}}, {"id": "973d7d37bfdb0da7ed5c4555c8d2c07a", "name": "Bahnhof Odenkirchen", "latitude": 51.137543, "longitude": 6.446732, "timestamp": "2025-05-03T03:15:37.047282+00:00Z", "free_bikes": 9, "empty_slots": null, "extra": {"uid": "115820607", "number": "30049", "bike_uids": ["350205", "350060", "350108", "350050", "350408", "350401", "350402", "350284", "350006"], "virtual": false}}, {"id": "a1b9c3cc4fed960d6bf4f4933b3c3dbf", "name": "Friedrich", "latitude": 51.167585, "longitude": 6.440751, "timestamp": "2025-05-03T03:15:37.047269+00:00Z", "free_bikes": 4, "empty_slots": 8, "extra": {"uid": "43774434", "number": "30048", "slots": 12, "bike_uids": ["350400", "350390", "350394", "350031"], "virtual": false}}, {"id": "b0eb47437056e85c64cd02f02a0c9ef6", "name": "Rohrplatz", "latitude": 51.198337, "longitude": 6.458309, "timestamp": "2025-05-03T03:15:37.047466+00:00Z", "free_bikes": 10, "empty_slots": null, "extra": {"uid": "115825167", "number": "30057", "bike_uids": ["350233", "350207", "350105", "350213", "350053", "350355", "350494", "350493", "350467", "350438"], "virtual": false}}, {"id": "b1aec5de42f39e9221b172b644772899", "name": "Wickrath Marktplatz", "latitude": 51.129034, "longitude": 6.412652, "timestamp": "2025-05-03T03:15:37.047519+00:00Z", "free_bikes": 4, "empty_slots": null, "extra": {"uid": "115825807", "number": "30059", "bike_uids": ["350309", "350242", "350114", "350273"], "virtual": false}}, {"id": "bc31fea93e78eafc66c7ba76fbff455c", "name": "Santander-Platz", "latitude": 51.19518, "longitude": 6.425, "timestamp": "2025-05-03T03:15:37.046616+00:00Z", "free_bikes": 10, "empty_slots": 2, "extra": {"uid": "9575479", "number": "30028", "slots": 12, "bike_uids": ["350215", "350249", "350189", "350436", "350360", "350048", "350505", "350517", "350513", "350459"], "virtual": false}}, {"id": "bf1c92e66e9a3cad621782603bbe8591", "name": "Aretzpl\u00e4tzke", "latitude": 51.202743, "longitude": 6.445366, "timestamp": "2025-05-03T03:15:37.047019+00:00Z", "free_bikes": 5, "empty_slots": 0, "extra": {"uid": "9575917", "number": "30043", "slots": 5, "bike_uids": ["350087", "350062", "350328", "350373", "350542"], "virtual": false}}, {"id": "c4af3a48336bd79813894563f814ffb6", "name": "Hauptbahnhof - Platz der Republik", "latitude": 51.197022, "longitude": 6.447902, "timestamp": "2025-05-03T03:15:37.046809+00:00Z", "free_bikes": 22, "empty_slots": null, "extra": {"uid": "9575576", "number": "30034", "bike_uids": ["350288", "350058", "350315", "350256", "350283", "350098", "350313", "350258", "350200", "350129", "350414", "350547", "350476", "350434", "350301", "350501", "350507", "350500", "350508", "350452", "350498", "350324"], "virtual": true}}, {"id": "c6e6c44f0ca7e58a896c8db9409aefee", "name": "Zentralbibliothek", "latitude": 51.196648, "longitude": 6.436856, "timestamp": "2025-05-03T03:15:37.047589+00:00Z", "free_bikes": 3, "empty_slots": 2, "extra": {"uid": "213899768", "number": "30061", "slots": 5, "bike_uids": ["350063", "350486", "350485"], "virtual": false}}, {"id": "cac71e1843780546f5436d9012290f61", "name": "Neuwerk Markt", "latitude": 51.224749, "longitude": 6.472903, "timestamp": "2025-05-03T03:15:37.047428+00:00Z", "free_bikes": 9, "empty_slots": null, "extra": {"uid": "115824282", "number": "30055", "bike_uids": ["350250", "350188", "350193", "350115", "350052", "350359", "350502", "350362", "350477"], "virtual": false}}, {"id": "d0a597023849a684310f4a6620485bc7", "name": "Marienplatz Rheydt", "latitude": 51.16514, "longitude": 6.44205, "timestamp": "2025-05-03T03:15:37.046515+00:00Z", "free_bikes": 7, "empty_slots": 3, "extra": {"uid": "9575403", "number": "30023", "slots": 10, "bike_uids": ["350214", "350415", "350361", "350017", "350482", "350449", "350465"], "virtual": false}}, {"id": "d3064dcfb36c9c2f512d54266e1d012d", "name": "Hilderather Stra\u00dfe", "latitude": 51.147142, "longitude": 6.358949, "timestamp": "2025-05-03T03:15:37.047446+00:00Z", "free_bikes": 11, "empty_slots": null, "extra": {"uid": "115824751", "number": "30056", "bike_uids": ["350141", "350064", "350289", "350297", "350172", "350196", "350279", "350186", "350366", "350531", "350473"], "virtual": false}}, {"id": "d448d882671ccde8d756271aed49b83e", "name": "Am Wasserturm", "latitude": 51.200981, "longitude": 6.426402, "timestamp": "2025-05-03T03:15:37.047573+00:00Z", "free_bikes": 0, "empty_slots": null, "extra": {"uid": "115826108", "number": "30060", "bike_uids": [], "virtual": false}}, {"id": "d79241f39f09424e6d60a500ce73de7c", "name": "Hindenburgstra\u00dfe", "latitude": 51.1948, "longitude": 6.44028, "timestamp": "2025-05-03T03:15:37.046870+00:00Z", "free_bikes": 12, "empty_slots": 0, "extra": {"uid": "9575629", "number": "30035", "slots": 8, "bike_uids": ["350302", "350310", "350264", "350296", "350240", "350134", "350382", "350404", "350417", "350290", "350023", "350018"], "virtual": false}}, {"id": "db7203727a4e7aaa061cccd828a17ca0", "name": "Buscherstra\u00dfe", "latitude": 51.18478, "longitude": 6.44283, "timestamp": "2025-05-03T03:15:37.046381+00:00Z", "free_bikes": 14, "empty_slots": 0, "extra": {"uid": "9575044", "number": "30016", "slots": 5, "bike_uids": ["350102", "350286", "350054", "350154", "350168", "350197", "350074", "350318", "350077", "350376", "350345", "350368", "350014", "350469"], "virtual": false}}, {"id": "e22bb97a77ba0eca596883ab4b1d0f6b", "name": "Schloss Rheydt", "latitude": 51.182056, "longitude": 6.479307, "timestamp": "2025-05-03T03:15:37.047492+00:00Z", "free_bikes": 10, "empty_slots": null, "extra": {"uid": "115825549", "number": "30058", "bike_uids": ["350122", "350125", "350295", "350185", "350392", "350387", "350537", "350049", "350002", "350445"], "virtual": true}}, {"id": "e2fbfb79e6cc40e678a5261e89f74a7b", "name": "Konstantinplatz", "latitude": 51.1554, "longitude": 6.49196, "timestamp": "2025-05-03T03:15:37.047385+00:00Z", "free_bikes": 22, "empty_slots": null, "extra": {"uid": "115823249", "number": "30053", "bike_uids": ["350082", "350312", "350305", "350174", "350226", "350160", "350204", "350198", "350180", "350085", "350150", "350410", "350409", "350527", "350524", "350011", "350004", "350492", "350522", "350461", "350453", "350540"], "virtual": false}}, {"id": "e3fea89c6bb44bcad1da6abdfeddeb7d", "name": "Hohenzollernstra\u00dfe/ Bismarckstra\u00dfe", "latitude": 51.19952, "longitude": 6.43744, "timestamp": "2025-05-03T03:15:37.046903+00:00Z", "free_bikes": 2, "empty_slots": 3, "extra": {"uid": "9575672", "number": "30037", "slots": 5, "bike_uids": ["350169", "350506"], "virtual": false}}, {"id": "e70c613ea43808f54187e69536b8532c", "name": "Mobility Hub Rheydt-Odenkirchen", "latitude": 51.137814, "longitude": 6.446406, "timestamp": "2025-05-03T03:15:37.047650+00:00Z", "free_bikes": 9, "empty_slots": null, "extra": {"uid": "489236348", "number": "30064", "bike_uids": ["350245", "350173", "350323", "350306", "350276", "350140", "350292", "350042", "350475"], "virtual": false}}, {"id": "ed27455a25ffce76093314b7ba346e75", "name": "Theater", "latitude": 51.16258, "longitude": 6.44348, "timestamp": "2025-05-03T03:15:37.046556+00:00Z", "free_bikes": 5, "empty_slots": 0, "extra": {"uid": "9575443", "number": "30025", "slots": 5, "bike_uids": ["350119", "350132", "350383", "350406", "350488"], "virtual": false}}, {"id": "fbf59e5216ad340a588c3dd3ee74d4b0", "name": "Hardt Markt", "latitude": 51.204564, "longitude": 6.343592, "timestamp": "2025-05-03T03:15:37.047349+00:00Z", "free_bikes": 4, "empty_slots": null, "extra": {"uid": "115821805", "number": "30051", "bike_uids": ["350158", "350194", "350157", "350070"], "virtual": false}}, {"id": "fc8da74896871b05716d7a8d781b41ab", "name": "Richard-Wagner-Stra\u00dfe", "latitude": 51.178407, "longitude": 6.442011, "timestamp": "2025-05-03T03:15:37.046424+00:00Z", "free_bikes": 2, "empty_slots": 3, "extra": {"uid": "9575180", "number": "30018", "slots": 5, "bike_uids": ["350509", "350405"], "virtual": false}}, {"id": "fd7179660deb02c97f6920138abe75bd", "name": "Hochschule - FB Wirtschaftswissenschaften", "latitude": 51.17962, "longitude": 6.44381, "timestamp": "2025-05-03T03:15:37.047103+00:00Z", "free_bikes": 17, "empty_slots": 0, "extra": {"uid": "9784469", "number": "30047", "slots": 11, "bike_uids": ["350199", "350133", "350159", "350069", "350236", "350325", "350076", "350348", "350375", "350533", "350544", "350468", "350503", "350363", "350043", "350022", "350491"], "virtual": false}}, {"id": "ffe9198101e59cc6b85531604e83d0ee", "name": "Bismarckplatz", "latitude": 51.1944, "longitude": 6.44339, "timestamp": "2025-05-03T03:15:37.046769+00:00Z", "free_bikes": 9, "empty_slots": 1, "extra": {"uid": "9575545", "number": "30032", "slots": 10, "bike_uids": ["350317", "350254", "350307", "350179", "350170", "350300", "350389", "350339", "350010"], "virtual": false}}]}