{"id": "scegli-in-bici", "name": "Scegli in Bici", "location": {"latitude": 45.134914104864116, "longitude": 10.0222648619018, "city": "Cremona", "country": "IT"}, "href": "/v2/networks/scegli-in-bici", "company": ["Comunicare S.r.l."], "system": "Bicincitt\u00e0", "source": "https://www.bicincitta.com/frmLeStazioni.aspx?ID=178", "stations": [{"id": "0d67a6099a4328556eb56a3f89525409", "name": "06. Marconi", "latitude": 45.1313814189981, "longitude": 10.022572045198558, "timestamp": "2025-05-03T03:15:53.727815+00:00Z", "free_bikes": 5, "empty_slots": 3, "extra": {"uid": "1087", "number": 6, "status": "under construction", "score": 1.0, "reviews": 1}}, {"id": "25b80532d3ec8327e0ddfa5a23cabaa7", "name": "11. Politecnico", "latitude": 45.1462508, "longitude": 9.999786, "timestamp": "2025-05-03T03:15:53.727879+00:00Z", "free_bikes": 0, "empty_slots": 0, "extra": {"uid": "1968", "number": 11, "status": "under construction", "score": 1.0, "reviews": 1}}, {"id": "505ae06e596f62feeabe1ee7dd39d984", "name": "05. Viale Po", "latitude": 45.132206973701955, "longitude": 10.014917019426662, "timestamp": "2025-05-03T03:15:53.727804+00:00Z", "free_bikes": 5, "empty_slots": 3, "extra": {"uid": "1086", "number": 5, "status": "under construction", "score": 1.0, "reviews": 1}}, {"id": "85e24f00f91b8b35813509b4b3bab9e7", "name": "10. Universita`", "latitude": 45.134914104864116, "longitude": 10.0222648619018, "timestamp": "2025-05-03T03:15:53.727858+00:00Z", "free_bikes": 5, "empty_slots": 3, "extra": {"uid": "1894", "number": 10, "status": "under construction", "score": 1.0, "reviews": 1}}, {"id": "892cda81bb7f2d76da5d4f3e0303cfb2", "name": "12. Zona Industriale", "latitude": 45.145851, "longitude": 9.977859, "timestamp": "2025-05-03T03:15:53.727869+00:00Z", "free_bikes": 0, "empty_slots": 0, "extra": {"uid": "1967", "number": 13, "status": "under construction", "score": 1.0, "reviews": 1}}, {"id": "a507388e0dc9b40a70d7066f3b0f6a24", "name": "03. Stradivari", "latitude": 45.13327962647087, "longitude": 10.022296126432707, "timestamp": "2025-05-03T03:15:53.727782+00:00Z", "free_bikes": 5, "empty_slots": 3, "extra": {"uid": "1084", "number": 3, "status": "under construction", "score": 2.3, "reviews": 4}}, {"id": "b3e428bcece24714e788a2d2a088a2b8", "name": "01. Stazione FS", "latitude": 45.14281023184847, "longitude": 10.018618340287958, "timestamp": "2025-05-03T03:15:53.727749+00:00Z", "free_bikes": 5, "empty_slots": 3, "extra": {"uid": "1082", "number": 1, "status": "under construction", "score": 3.0, "reviews": 6}}, {"id": "bc46c22dc280bb3fb2fcedf6c1de1b2f", "name": "07. Mantova", "latitude": 45.13721173356085, "longitude": 10.032678921803381, "timestamp": "2025-05-03T03:15:53.727825+00:00Z", "free_bikes": 5, "empty_slots": 3, "extra": {"uid": "1088", "number": 7, "status": "under construction", "score": 2.2, "reviews": 3}}, {"id": "d70ce2d3352ad2e69ea5404a07e554bd", "name": "02. Colonie Padane", "latitude": 45.123472, "longitude": 10.005806, "timestamp": "2025-05-03T03:15:53.727771+00:00Z", "free_bikes": 5, "empty_slots": 3, "extra": {"uid": "1083", "number": 2, "status": "under construction", "score": 0.7, "reviews": 2}}, {"id": "e1af788ef3dd99273eef46860bf5acd9", "name": "04. Liberta`", "latitude": 45.13744428494446, "longitude": 10.032322526393045, "timestamp": "2025-05-03T03:15:53.727793+00:00Z", "free_bikes": 5, "empty_slots": 3, "extra": {"uid": "1085", "number": 4, "status": "under construction", "score": 1.0, "reviews": 1}}, {"id": "e26492a08c2accf613d8ac234c1f6da3", "name": "08. Ospedale", "latitude": 45.133904848528715, "longitude": 10.013641639253706, "timestamp": "2025-05-03T03:15:53.727836+00:00Z", "free_bikes": 5, "empty_slots": 3, "extra": {"uid": "1089", "number": 8, "status": "under construction", "score": 1.0, "reviews": 1}}]}