{"id": "sitycleta-las-palmas-las-palmas-de-gran-canaria", "name": "Sitycleta", "location": {"latitude": 28.1236, "longitude": -15.4366, "city": "Las Palmas de Gran Canaria", "country": "ES"}, "href": "/v2/networks/sitycleta-las-palmas-las-palmas-de-gran-canaria", "company": ["Nextbike GmbH"], "system": "Nextbike", "stations": [{"id": "0010677bd33f4c295fb7fb52d8beb9eb", "name": "Rotonda del Vig\u00eda (el\u00e9c.)", "latitude": 28.103036, "longitude": -15.442936, "timestamp": "2025-05-03T02:57:36.449100+00:00Z", "free_bikes": 1, "empty_slots": 14, "extra": {"uid": "222957591", "number": "3455", "slots": 15, "bike_uids": ["41436"], "virtual": false}}, {"id": "062335fb3b23ffe705d436557ce6493e", "name": "Obelisco", "latitude": 28.112637, "longitude": -15.422879, "timestamp": "2025-05-03T02:57:36.448255+00:00Z", "free_bikes": 6, "empty_slots": 4, "extra": {"uid": "5368416", "number": "3413", "slots": 10, "bike_uids": ["41155", "41326", "41110", "410408", "410356", "410332"], "virtual": true}}, {"id": "0643b772e606791820648b9ae26dceba", "name": "Le\u00f3n y Castillo", "latitude": 28.116731, "longitude": -15.422591, "timestamp": "2025-05-03T02:57:36.448234+00:00Z", "free_bikes": 7, "empty_slots": 3, "extra": {"uid": "5368356", "number": "3414", "slots": 10, "bike_uids": ["41067", "41079", "41147", "410418", "410400", "410361", "410350"], "virtual": true}}, {"id": "08b893c9b275a4e2d6140efa28546136", "name": "Mercado Central", "latitude": 28.133145, "longitude": -15.432959, "timestamp": "2025-05-03T02:57:36.447988+00:00Z", "free_bikes": 8, "empty_slots": 2, "extra": {"uid": "5368119", "number": "3426", "slots": 10, "bike_uids": ["41030", "41216", "41268", "410419", "410398", "410340", "410333", "410331"], "virtual": true}}, {"id": "097c8cccd799d9ef8c4c3d95f3a554f2", "name": "ULPGC - Educaci\u00f3n f\u00edsica", "latitude": 28.069092, "longitude": -15.456109, "timestamp": "2025-05-03T02:57:36.448929+00:00Z", "free_bikes": 2, "empty_slots": 5, "extra": {"uid": "155689332", "number": "3490", "slots": 7, "bike_uids": ["41458", "41456"], "virtual": false}}, {"id": "1943878111ba554bfc87705eb566d4b3", "name": "Plaza del Pilar", "latitude": 28.12983, "longitude": -15.445243, "timestamp": "2025-05-03T02:57:36.448120+00:00Z", "free_bikes": 3, "empty_slots": 7, "extra": {"uid": "5368274", "number": "3432", "slots": 10, "bike_uids": ["41194", "41342", "41688"], "virtual": true}}, {"id": "1b3992eee8c2c4dd0b33944f81668cbe", "name": "El Sebadal (elec.)", "latitude": 28.156534, "longitude": -15.421658, "timestamp": "2025-05-03T02:57:36.448867+00:00Z", "free_bikes": 1, "empty_slots": 6, "extra": {"uid": "61012452", "number": "3452", "slots": 7, "bike_uids": ["41707"], "virtual": false}}, {"id": "1ff36b689d6ce242639c9d9d7182ac63", "name": "Vega de San Jos\u00e9", "latitude": 28.091929, "longitude": -15.418839, "timestamp": "2025-05-03T02:57:36.448769+00:00Z", "free_bikes": 2, "empty_slots": 4, "extra": {"uid": "39892355", "number": "3448", "slots": 6, "bike_uids": ["410381", "410335"], "virtual": true}}, {"id": "207a7435795a0263d5fdb4f6699f4683", "name": "Cabildo de Gran Canaria", "latitude": 28.108373, "longitude": -15.42062, "timestamp": "2025-05-03T02:57:36.448337+00:00Z", "free_bikes": 6, "empty_slots": 4, "extra": {"uid": "5368474", "number": "3411", "slots": 10, "bike_uids": ["41039", "41145", "410437", "410411", "410368", "410320"], "virtual": true}}, {"id": "222e1b936e73dbbd2ad6a3dbca9968ee", "name": "ULPGC - Ingenier\u00eda", "latitude": 28.070728, "longitude": -15.455519, "timestamp": "2025-05-03T02:57:36.448948+00:00Z", "free_bikes": 3, "empty_slots": 6, "extra": {"uid": "158516981", "number": "3491", "slots": 9, "bike_uids": ["41452", "41450", "41433"], "virtual": false}}, {"id": "22d632801421bd7b135f26c477adbd5f", "name": "C.C. La Ballena (elect.)", "latitude": 28.100367, "longitude": -15.442368, "timestamp": "2025-05-03T02:57:36.448850+00:00Z", "free_bikes": 0, "empty_slots": 10, "extra": {"uid": "44498355", "number": "3450", "slots": 10, "bike_uids": [], "virtual": false}}, {"id": "2609d39098826deb6410524daf7fda16", "name": "Las Canteras - Luis Morote", "latitude": 28.141192, "longitude": -15.434906, "timestamp": "2025-05-03T02:57:36.447921+00:00Z", "free_bikes": 8, "empty_slots": 2, "extra": {"uid": "5368040", "number": "3440", "slots": 10, "bike_uids": ["41025", "41065", "41089", "41193", "41112", "410391", "410341", "410324"], "virtual": true}}, {"id": "343fffa81988225ffa71976ba9fffdf4", "name": "C.C. El Muelle", "latitude": 28.140431, "longitude": -15.428136, "timestamp": "2025-05-03T02:57:36.447900+00:00Z", "free_bikes": 5, "empty_slots": 5, "extra": {"uid": "5368024", "number": "3438", "slots": 10, "bike_uids": ["41176", "41287", "41116", "410423", "410364"], "virtual": true}}, {"id": "3a7952de95bbbd57ea487d288b1460e0", "name": "Can\u00f3dromo", "latitude": 28.112343, "longitude": -15.433897, "timestamp": "2025-05-03T02:57:36.448647+00:00Z", "free_bikes": 2, "empty_slots": 3, "extra": {"uid": "14500104", "number": "34351", "slots": 5, "bike_uids": ["41144", "41334"], "virtual": true}}, {"id": "3adf5dd99dc93fe7adc8e3065201e879", "name": "Plaza Manuel Becerra (elect.)", "latitude": 28.150087, "longitude": -15.42217, "timestamp": "2025-05-03T02:57:36.448889+00:00Z", "free_bikes": 2, "empty_slots": 8, "extra": {"uid": "61012691", "number": "3451", "slots": 10, "bike_uids": ["41480", "41705"], "virtual": false}}, {"id": "4030fd9354c768c241331d816d8a4bc8", "name": "Centro Municipal de La Mujer", "latitude": 28.117775, "longitude": -15.43725, "timestamp": "2025-05-03T02:57:36.449063+00:00Z", "free_bikes": 0, "empty_slots": null, "extra": {"uid": "185820721", "number": "3469", "bike_uids": [], "virtual": false}}, {"id": "43d341effaa6ee0d866fd81ebd43862f", "name": "Torre Las Palmas", "latitude": 28.129035, "longitude": -15.429732, "timestamp": "2025-05-03T02:57:36.448072+00:00Z", "free_bikes": 5, "empty_slots": 5, "extra": {"uid": "5368195", "number": "3423", "slots": 10, "bike_uids": ["41304", "41281", "410425", "410387", "410375"], "virtual": true}}, {"id": "5c984788bdda315fa9a91b926adc6561", "name": "Castillo de la Luz", "latitude": 28.148377, "longitude": -15.427101, "timestamp": "2025-05-03T02:57:36.447852+00:00Z", "free_bikes": 2, "empty_slots": 8, "extra": {"uid": "5367921", "number": "3442", "slots": 10, "bike_uids": ["410430", "410390"], "virtual": true}}, {"id": "5fb372b93f530b95fdf93572c092e37c", "name": "Oficina de la Sitycleta", "latitude": 28.121696, "longitude": -15.424914, "timestamp": "2025-05-03T02:57:36.448568+00:00Z", "free_bikes": 7, "empty_slots": 3, "extra": {"uid": "6709723", "number": "3417", "slots": 10, "bike_uids": ["41007", "41188", "41356", "41320", "41388", "41387", "41413"], "virtual": true}}, {"id": "5ff4d0918364af5e94b67206b8b40153", "name": "Parque del Estadio Insular", "latitude": 28.128334, "longitude": -15.43314, "timestamp": "2025-05-03T02:57:36.448091+00:00Z", "free_bikes": 6, "empty_slots": 4, "extra": {"uid": "5368239", "number": "3424", "slots": 10, "bike_uids": ["41073", "41141", "41252", "41274", "41300", "410354"], "virtual": true}}, {"id": "6abdda8116be38ac8844a6e3fcfd37a2", "name": "Plaza de Espa\u00f1a (elect.)", "latitude": 28.134702, "longitude": -15.434707, "timestamp": "2025-05-03T02:57:36.448832+00:00Z", "free_bikes": 2, "empty_slots": 7, "extra": {"uid": "43249515", "number": "3447", "slots": 9, "bike_uids": ["41469", "41461"], "virtual": false}}, {"id": "6e39540d8c93d2dd6e02db4466f72aa1", "name": "Parque Santa Catalina", "latitude": 28.141281, "longitude": -15.430987, "timestamp": "2025-05-03T02:57:36.448504+00:00Z", "free_bikes": 11, "empty_slots": 3, "extra": {"uid": "6496862", "number": "3437", "slots": 14, "bike_uids": ["41003", "41016", "41042", "41223", "41132", "41227", "41240", "41424", "410427", "410415", "410336"], "virtual": true}}, {"id": "6fc14a144def8dc17c39d259e743cbf3", "name": "Teatro P\u00e9rez Gald\u00f3s", "latitude": 28.1042, "longitude": -15.414639, "timestamp": "2025-05-03T02:57:36.448379+00:00Z", "free_bikes": 9, "empty_slots": 1, "extra": {"uid": "5368507", "number": "3409", "slots": 10, "bike_uids": ["41209", "41324", "41314", "410431", "410410", "410409", "410369", "410345", "410325"], "virtual": true}}, {"id": "76d8a5e665ff23c6912135a2b4884646", "name": "Intermodal El Rinc\u00f3n", "latitude": 28.128131, "longitude": -15.451251, "timestamp": "2025-05-03T02:57:36.448134+00:00Z", "free_bikes": 8, "empty_slots": 2, "extra": {"uid": "5368285", "number": "3433", "slots": 10, "bike_uids": ["41004", "41017", "41129", "41254", "41106", "410428", "410382", "410346"], "virtual": true}}, {"id": "78b993ce9ab19ab075ec2e9b73659be5", "name": "Plaza San Agust\u00edn", "latitude": 28.099605, "longitude": -15.412944, "timestamp": "2025-05-03T02:57:36.448420+00:00Z", "free_bikes": 7, "empty_slots": 3, "extra": {"uid": "5368620", "number": "3405", "slots": 10, "bike_uids": ["41095", "41368", "410439", "410422", "410406", "410328", "410327"], "virtual": true}}, {"id": "79d5c8aae223971fe19a37a2c09c177d", "name": "ULPGC - Biblioteca General", "latitude": 28.07588, "longitude": -15.4513, "timestamp": "2025-05-03T02:57:36.449029+00:00Z", "free_bikes": 6, "empty_slots": 2, "extra": {"uid": "163290897", "number": "3493", "slots": 7, "bike_uids": ["41483", "41465", "41457", "41453", "41440", "41431"], "virtual": false}}, {"id": "79e9203b4d468e0d2cfeb495a91edce9", "name": "Aparcamiento Sanap\u00fa", "latitude": 28.145421, "longitude": -15.428436, "timestamp": "2025-05-03T02:57:36.448588+00:00Z", "free_bikes": 6, "empty_slots": 4, "extra": {"uid": "7696380", "number": "3439", "slots": 10, "bike_uids": ["41062", "41157", "410426", "410420", "410401", "410362"], "virtual": true}}, {"id": "7e20aee81ccd3935d9f2f3d863f8654e", "name": "Base Naval", "latitude": 28.134773, "longitude": -15.429145, "timestamp": "2025-05-03T02:57:36.447967+00:00Z", "free_bikes": 6, "empty_slots": 9, "extra": {"uid": "5368096", "number": "3425", "slots": 15, "bike_uids": ["41137", "41283", "41395", "410367", "410355", "410329"], "virtual": true}}, {"id": "8426bf2a2a35b61357751bd6247daeed", "name": "Oficina S\u00edtycleta (elect.)", "latitude": 28.121896, "longitude": -15.425169, "timestamp": "2025-05-03T02:57:36.448628+00:00Z", "free_bikes": 1, "empty_slots": 9, "extra": {"uid": "13337655", "number": "3400", "slots": 10, "bike_uids": ["41699"], "virtual": false}}, {"id": "84e85aa799044f7e61d3815ce815c267", "name": "Ciudad de la Justicia", "latitude": 28.094263, "longitude": -15.413775, "timestamp": "2025-05-03T02:57:36.448548+00:00Z", "free_bikes": 5, "empty_slots": 5, "extra": {"uid": "6709414", "number": "3404", "slots": 10, "bike_uids": ["41002", "410436", "410413", "410376", "410351"], "virtual": true}}, {"id": "85500de1e2fe057d444112d1c39bda0e", "name": "IES Mesa y L\u00f3pez", "latitude": 28.131093, "longitude": -15.43902, "timestamp": "2025-05-03T02:57:36.448051+00:00Z", "free_bikes": 5, "empty_slots": 5, "extra": {"uid": "5368183", "number": "3428", "slots": 10, "bike_uids": ["41169", "41301", "41238", "410397", "410393"], "virtual": true}}, {"id": "90bd49310713eb6148260c696d01d69f", "name": "Piscina Julio Navarro", "latitude": 28.121674, "longitude": -15.429922, "timestamp": "2025-05-03T02:57:36.448195+00:00Z", "free_bikes": 6, "empty_slots": 2, "extra": {"uid": "5368337", "number": "3420", "slots": 8, "bike_uids": ["41015", "41251", "41230", "41247", "410402", "410339"], "virtual": true}}, {"id": "93686dcb7bec71e44bc06c1c737135c0", "name": "Can\u00f3dromo (electric)", "latitude": 28.112305, "longitude": -15.433844, "timestamp": "2025-05-03T02:57:36.448295+00:00Z", "free_bikes": 1, "empty_slots": 4, "extra": {"uid": "5368431", "number": "3435", "slots": 5, "bike_uids": ["41476"], "virtual": false}}, {"id": "9bbcff0e4662db04d98a0b130806b5fd", "name": "Escaleritas HiperDino", "latitude": 28.111934, "longitude": -15.439415, "timestamp": "2025-05-03T02:57:36.449049+00:00Z", "free_bikes": 0, "empty_slots": null, "extra": {"uid": "185819948", "number": "3467", "bike_uids": [], "virtual": false}}, {"id": "9c81e129c9cd3e817510e9d6006d905f", "name": "Plazoleta de Farray", "latitude": 28.137086, "longitude": -15.435453, "timestamp": "2025-05-03T02:57:36.447944+00:00Z", "free_bikes": 13, "empty_slots": 2, "extra": {"uid": "5368062", "number": "3430", "slots": 15, "bike_uids": ["41138", "41185", "41195", "41208", "41369", "41310", "41236", "41329", "41321", "41107", "410424", "410394", "410321"], "virtual": true}}, {"id": "9cec8ddc92d606e3ce11624779f7c5bd", "name": "Gabinete Literario", "latitude": 28.102634, "longitude": -15.416366, "timestamp": "2025-05-03T02:57:36.448400+00:00Z", "free_bikes": 6, "empty_slots": 4, "extra": {"uid": "5368515", "number": "3407", "slots": 10, "bike_uids": ["41055", "41279", "41253", "41196", "410386", "410379"], "virtual": true}}, {"id": "9e35898ad34c960216d51da5c45d839b", "name": "Autoridad portuaria", "latitude": 28.147157, "longitude": -15.419258, "timestamp": "2025-05-03T02:57:36.448609+00:00Z", "free_bikes": 1, "empty_slots": 9, "extra": {"uid": "9802748", "number": "3444", "slots": 10, "bike_uids": ["41687"], "virtual": true}}, {"id": "a27c857c2d6c8982ac056dffee0c52d7", "name": "Plaza de Espa\u00f1a", "latitude": 28.134802, "longitude": -15.435001, "timestamp": "2025-05-03T02:57:36.448008+00:00Z", "free_bikes": 3, "empty_slots": 7, "extra": {"uid": "5368139", "number": "3427", "slots": 10, "bike_uids": ["41363", "41389", "410366"], "virtual": true}}, {"id": "a3ba25c574e342a0a07a0c6e9c17c07a", "name": "ULPGC - Polivalente I", "latitude": 28.07984, "longitude": -15.45245, "timestamp": "2025-05-03T02:57:36.449009+00:00Z", "free_bikes": 4, "empty_slots": 6, "extra": {"uid": "163290471", "number": "3494", "slots": 9, "bike_uids": ["41486", "41482", "41479", "41438"], "virtual": false}}, {"id": "aa363c25a976de1618d06ddc5bcb2f09", "name": "ULPGC - CC. Jur\u00eddicas", "latitude": 28.07968, "longitude": -15.44958, "timestamp": "2025-05-03T02:57:36.448989+00:00Z", "free_bikes": 5, "empty_slots": 4, "extra": {"uid": "162766201", "number": "3495", "slots": 9, "bike_uids": ["41473", "41472", "41471", "41467", "41442"], "virtual": false}}, {"id": "aa5ee06658de91b9de2378f0cc97117d", "name": "Oficina Sagulpa", "latitude": 28.121726, "longitude": -15.42495, "timestamp": "2025-05-03T02:57:36.449089+00:00Z", "free_bikes": 0, "empty_slots": null, "extra": {"uid": "185822042", "number": "3472", "bike_uids": [], "virtual": false}}, {"id": "af46c4fdedca12c2bc66b96e27df3755", "name": "Plaza Manuel Becerra", "latitude": 28.15009, "longitude": -15.422545, "timestamp": "2025-05-03T02:57:36.447801+00:00Z", "free_bikes": 4, "empty_slots": 6, "extra": {"uid": "5367878", "number": "3443", "slots": 10, "bike_uids": ["41172", "41262", "41186", "41282"], "virtual": true}}, {"id": "b18de72ad3b02351a5d7ad8d4c4b81fc", "name": "Ciudad Deportiva", "latitude": 28.078862, "longitude": -15.417847, "timestamp": "2025-05-03T02:57:36.448485+00:00Z", "free_bikes": 3, "empty_slots": 3, "extra": {"uid": "5368760", "number": "3401", "slots": 6, "bike_uids": ["410395", "410349", "410337"], "virtual": true}}, {"id": "ba5984eb8b78ca09af227f2c124523ec", "name": "Ayuntamiento", "latitude": 28.12481, "longitude": -15.428603, "timestamp": "2025-05-03T02:57:36.448180+00:00Z", "free_bikes": 6, "empty_slots": 4, "extra": {"uid": "5368329", "number": "3421", "slots": 10, "bike_uids": ["41071", "41152", "41218", "41284", "41422", "410365"], "virtual": true}}, {"id": "bf615f74d4ae2be83430a4cfad2a1711", "name": "Plaza de la feria ", "latitude": 28.11363, "longitude": -15.420159, "timestamp": "2025-05-03T02:57:36.448527+00:00Z", "free_bikes": 8, "empty_slots": 7, "extra": {"uid": "6694547", "number": "3412", "slots": 15, "bike_uids": ["41005", "41060", "41260", "41211", "41349", "41271", "41246", "410385"], "virtual": true}}, {"id": "c2ce466a0fa1fc83e020427e481f1fd1", "name": "Plaza O'Shanahan", "latitude": 28.118731, "longitude": -15.425041, "timestamp": "2025-05-03T02:57:36.448212+00:00Z", "free_bikes": 10, "empty_slots": 5, "extra": {"uid": "5368346", "number": "3416", "slots": 15, "bike_uids": ["41086", "41122", "41215", "41243", "41322", "41341", "410432", "410378", "410357", "410326"], "virtual": true}}, {"id": "c35b9cae192c268d030af7295f19859f", "name": "San Crist\u00f3bal", "latitude": 28.086604, "longitude": -15.416848, "timestamp": "2025-05-03T02:57:36.448442+00:00Z", "free_bikes": 5, "empty_slots": 5, "extra": {"uid": "5368627", "number": "3403", "slots": 10, "bike_uids": ["41098", "41165", "41374", "41328", "410383"], "virtual": true}}, {"id": "c6376caa1da8650b193d6196a5134117", "name": "C.C. La Minilla", "latitude": 28.125889, "longitude": -15.438457, "timestamp": "2025-05-03T02:57:36.448150+00:00Z", "free_bikes": 7, "empty_slots": 3, "extra": {"uid": "5368307", "number": "3434", "slots": 10, "bike_uids": ["41024", "41097", "41173", "41191", "41136", "41225", "41201"], "virtual": true}}, {"id": "cb4bd2b4b78978d2bae195a706e560e0", "name": "Hoya de la Plata", "latitude": 28.073618, "longitude": -15.417327, "timestamp": "2025-05-03T02:57:36.448792+00:00Z", "free_bikes": 3, "empty_slots": 2, "extra": {"uid": "39915530", "number": "3449", "slots": 5, "bike_uids": ["410407", "410403", "410392"], "virtual": true}}, {"id": "cef059c5c6e6e4b81818dc5a21b45cec", "name": "San Telmo", "latitude": 28.108331, "longitude": -15.417311, "timestamp": "2025-05-03T02:57:36.448314+00:00Z", "free_bikes": 10, "empty_slots": 5, "extra": {"uid": "5368453", "number": "3410", "slots": 15, "bike_uids": ["41029", "41063", "41131", "41372", "410435", "410404", "410389", "410380", "410373", "410330"], "virtual": true}}, {"id": "d5bf2e8ec87e8d7b41294320c1359026", "name": "Paseo de Chil - Av. Escaleritas", "latitude": 28.125444, "longitude": -15.43453, "timestamp": "2025-05-03T02:57:36.448165+00:00Z", "free_bikes": 7, "empty_slots": 3, "extra": {"uid": "5368315", "number": "3422", "slots": 10, "bike_uids": ["41264", "41170", "41348", "41278", "41297", "410414", "410388"], "virtual": true}}, {"id": "da4350518485eff82a4d99e79a18aa8d", "name": "ULPGC - CC. B\u00e1sicas", "latitude": 28.07324, "longitude": -15.45263, "timestamp": "2025-05-03T02:57:36.448968+00:00Z", "free_bikes": 4, "empty_slots": 5, "extra": {"uid": "158524918", "number": "3492", "slots": 9, "bike_uids": ["41474", "41449", "41430", "41429"], "virtual": false}}, {"id": "dd857f6e4ab54712d6d284568ba49a30", "name": "P. de Chil con G\u00f3ngora", "latitude": 28.123652, "longitude": -15.43326, "timestamp": "2025-05-03T02:57:36.449076+00:00Z", "free_bikes": 0, "empty_slots": null, "extra": {"uid": "185821158", "number": "3470", "bike_uids": [], "virtual": false}}, {"id": "debcc2f0ce72746e2ac96610fc90fdb6", "name": "Barranquillo Don Zoilo", "latitude": 28.119242, "longitude": -15.429649, "timestamp": "2025-05-03T02:57:36.448275+00:00Z", "free_bikes": 5, "empty_slots": 5, "extra": {"uid": "5368425", "number": "3418", "slots": 10, "bike_uids": ["41026", "41323", "410374", "410343", "410322"], "virtual": true}}, {"id": "dfd806f6a095b3a51373b0a616408ec0", "name": "Castillo de Mata (elect.)", "latitude": 28.108058, "longitude": -15.421789, "timestamp": "2025-05-03T02:57:36.448813+00:00Z", "free_bikes": 3, "empty_slots": 7, "extra": {"uid": "41293996", "number": "3446", "slots": 10, "bike_uids": ["41393", "41384", "41403"], "virtual": false}}, {"id": "e3ad641715ec01a4f63baf7a103f0b65", "name": "Churruca", "latitude": 28.133756, "longitude": -15.440694, "timestamp": "2025-05-03T02:57:36.448029+00:00Z", "free_bikes": 9, "empty_slots": 1, "extra": {"uid": "5368173", "number": "3431", "slots": 10, "bike_uids": ["41047", "41289", "41298", "41226", "41700", "410421", "410370", "410353", "410347"], "virtual": true}}, {"id": "e96f78260eb17aac2f9fd09a8e76c1dd", "name": "Infecar (elec.)", "latitude": 28.106892, "longitude": -15.445678, "timestamp": "2025-05-03T02:57:36.448909+00:00Z", "free_bikes": 1, "empty_slots": 9, "extra": {"uid": "141464789", "number": "3453", "slots": 10, "bike_uids": ["41693"], "virtual": false}}, {"id": "e9ff2b4b34775dc10a606ce051cad270", "name": "Plaza de Am\u00e9rica", "latitude": 28.129631, "longitude": -15.441225, "timestamp": "2025-05-03T02:57:36.448106+00:00Z", "free_bikes": 5, "empty_slots": 5, "extra": {"uid": "5368254", "number": "3429", "slots": 10, "bike_uids": ["41231", "41229", "41340", "41277", "410399"], "virtual": true}}, {"id": "f23b738e72ef27e3ff86cb0b0a12b75c", "name": "Villa de Zarauz", "latitude": 28.084774, "longitude": -15.418947, "timestamp": "2025-05-03T02:57:36.448464+00:00Z", "free_bikes": 4, "empty_slots": 3, "extra": {"uid": "5368751", "number": "3402", "slots": 7, "bike_uids": ["41123", "41233", "410438", "410416"], "virtual": true}}, {"id": "f278f790b3c04056a3faad2596cfcfef", "name": "Torre Woermann", "latitude": 28.145294, "longitude": -15.429976, "timestamp": "2025-05-03T02:57:36.447876+00:00Z", "free_bikes": 6, "empty_slots": 9, "extra": {"uid": "5367948", "number": "3441", "slots": 15, "bike_uids": ["41037", "41072", "41343", "410434", "410417", "410360"], "virtual": true}}, {"id": "f5bbc5e0d2665eb95131a9d83fdba078", "name": "San Bernardo", "latitude": 28.104777, "longitude": -15.419129, "timestamp": "2025-05-03T02:57:36.448359+00:00Z", "free_bikes": 9, "empty_slots": 1, "extra": {"uid": "5368493", "number": "3408", "slots": 10, "bike_uids": ["41232", "410405", "410396", "410371", "410358", "410348", "410344", "410338", "410334"], "virtual": true}}]}