{"id": "slatina-velo-city", "name": "Slatina Velo City", "location": {"latitude": 44.4299, "longitude": 24.3716, "city": "Slatina", "country": "RO"}, "href": "/v2/networks/slatina-velo-city", "company": ["Nextbike GmbH"], "system": "Nextbike", "stations": [{"id": "41029a7b7efdb230808de474f1500662", "name": "Primaverii", "latitude": 44.43246, "longitude": 24.37306, "timestamp": "2025-05-03T03:15:45.416384+00:00Z", "free_bikes": 0, "empty_slots": 16, "extra": {"uid": "297163683", "number": "35552", "slots": 16, "bike_uids": [], "virtual": false}}, {"id": "544f310813d8e7fb5794c31434a6aed0", "name": "Piata Garii", "latitude": 44.42858, "longitude": 24.38834, "timestamp": "2025-05-03T03:15:45.416367+00:00Z", "free_bikes": 0, "empty_slots": 28, "extra": {"uid": "297163275", "number": "35551", "slots": 28, "bike_uids": [], "virtual": false}}, {"id": "6c62840cdefde4fd71777b3629eb5f04", "name": "Ecaterina Teodoroiu", "latitude": 44.42594, "longitude": 24.37637, "timestamp": "2025-05-03T03:15:45.416349+00:00Z", "free_bikes": 0, "empty_slots": 22, "extra": {"uid": "297162501", "number": "35550", "slots": 22, "bike_uids": [], "virtual": false}}, {"id": "be2a3906d198d8a400b81570fbdb1f18", "name": "Cri\u0219an ", "latitude": 44.435618, "longitude": 24.379113, "timestamp": "2025-05-03T03:15:45.416394+00:00Z", "free_bikes": 0, "empty_slots": 25, "extra": {"uid": "297164060", "number": "35553", "slots": 25, "bike_uids": [], "virtual": false}}, {"id": "f71c1a56e43f51791e78ee275e338910", "name": "A. I. Cuza", "latitude": 44.428727, "longitude": 24.363722, "timestamp": "2025-05-03T03:15:45.416405+00:00Z", "free_bikes": 0, "empty_slots": 31, "extra": {"uid": "297164356", "number": "35554", "slots": 31, "bike_uids": [], "virtual": false}}]}