{"id": "stadtrad-innsbruck", "name": "Stadtrad", "location": {"latitude": 47.2632, "longitude": 11.3961, "city": "Innsbruck", "country": "AT"}, "href": "/v2/networks/stadtrad-innsbruck", "company": ["Nextbike GmbH"], "system": "Nextbike", "stations": [{"id": "027842f1310d5668fac7539d20fcd4ef", "name": "Sch\u00f6pfstra\u00dfe / Klinik", "latitude": 47.260307, "longitude": 11.387271, "timestamp": "2025-05-03T03:15:34.449475+00:00Z", "free_bikes": 10, "empty_slots": 20, "extra": {"uid": "203987", "number": "36220", "slots": 30, "bike_uids": ["340317", "340269", "340264", "340195", "340188", "340462", "340452", "340506", "340499", "340542"], "virtual": false}}, {"id": "031e5568d46902edd48ca9bb3e5f8156", "name": "Triumphpforte/ Casino", "latitude": 47.262635, "longitude": 11.396309, "timestamp": "2025-05-03T03:15:34.449801+00:00Z", "free_bikes": 6, "empty_slots": 9, "extra": {"uid": "9589888", "number": "36242", "slots": 15, "bike_uids": ["340124", "340088", "340041", "340394", "340513", "340554"], "virtual": false}}, {"id": "0bf155f7cfa14ac83ee2bc82db692330", "name": "F\u00fcrstenweg", "latitude": 47.265849, "longitude": 11.382582, "timestamp": "2025-05-03T03:15:34.449634+00:00Z", "free_bikes": 3, "empty_slots": 10, "extra": {"uid": "1001071", "number": "36230", "slots": 13, "bike_uids": ["340174", "340970", "340524"], "virtual": false}}, {"id": "0d9c62693a87ebcdea802f51bc9a9b0c", "name": "Langstra\u00dfe", "latitude": 47.265296, "longitude": 11.413566, "timestamp": "2025-05-03T03:15:34.449677+00:00Z", "free_bikes": 10, "empty_slots": 2, "extra": {"uid": "1001087", "number": "36233", "slots": 12, "bike_uids": ["340331", "340318", "340236", "340232", "340207", "340199", "340141", "340425", "340471", "340514"], "virtual": false}}, {"id": "0f46c67779365861b9ecae309d7bf10b", "name": "Landesgericht", "latitude": 47.26254, "longitude": 11.392157, "timestamp": "2025-05-03T03:15:34.449196+00:00Z", "free_bikes": 0, "empty_slots": 10, "extra": {"uid": "203967", "number": "36201", "slots": 10, "bike_uids": [], "virtual": false}}, {"id": "0f808de92fdcd07990f4247ee2dffe1c", "name": "UNI-Sportst\u00e4tten", "latitude": 47.257294, "longitude": 11.355346, "timestamp": "2025-05-03T03:15:34.449567+00:00Z", "free_bikes": 3, "empty_slots": 8, "extra": {"uid": "355752", "number": "36226", "slots": 11, "bike_uids": ["340235", "340158", "340018"], "virtual": false}}, {"id": "11190d4ee9612eac5e42c08ccd047605", "name": "Hauptbahnhof", "latitude": 47.263381, "longitude": 11.399882, "timestamp": "2025-05-03T03:15:34.449279+00:00Z", "free_bikes": 52, "empty_slots": 6, "extra": {"uid": "203971", "number": "36205", "slots": 58, "bike_uids": ["340358", "340355", "340347", "340324", "340316", "340277", "340275", "340255", "340243", "340231", "340227", "340215", "340210", "340175", "340150", "340144", "340133", "340112", "340110", "340107", "340086", "340077", "340075", "340068", "340055", "340053", "340048", "340046", "340045", "340036", "340024", "340019", "340422", "340420", "340409", "340398", "340392", "340391", "340385", "340383", "340377", "340367", "340365", "340440", "340427", "340484", "340480", "340478", "340560", "340556", "340551", "340547"], "virtual": false}}, {"id": "314480a489af032e759ef7f6f94b7872", "name": "Waltherpark", "latitude": 47.270665, "longitude": 11.391644, "timestamp": "2025-05-03T03:15:34.449663+00:00Z", "free_bikes": 14, "empty_slots": 0, "extra": {"uid": "1001080", "number": "36232", "slots": 11, "bike_uids": ["340345", "340320", "340308", "340240", "340237", "340156", "340100", "340039", "340022", "340002", "340971", "340515", "340555", "340517"], "virtual": false}}, {"id": "322dfca0309f4314d7bc259aafda4e44", "name": "Claudiaplatz", "latitude": 47.275797, "longitude": 11.405576, "timestamp": "2025-05-03T03:15:34.449718+00:00Z", "free_bikes": 14, "empty_slots": 0, "extra": {"uid": "3385868", "number": "36237", "slots": 10, "bike_uids": ["340356", "340304", "340208", "340137", "340136", "340123", "340085", "340006", "340448", "340444", "340441", "340435", "340457", "340511"], "virtual": false}}, {"id": "375d1ce68b4492de6dc9f38b5165560b", "name": "Marktplatz", "latitude": 47.267371, "longitude": 11.391138, "timestamp": "2025-05-03T03:15:34.449747+00:00Z", "free_bikes": 1, "empty_slots": 10, "extra": {"uid": "7060467", "number": "36238", "slots": 11, "bike_uids": ["340540"], "virtual": false}}, {"id": "39e1dd3991076806aaa47bbe3b3e61f9", "name": "AMS-Gesch\u00e4ftsstelle", "latitude": 47.25945, "longitude": 11.393339, "timestamp": "2025-05-03T03:15:34.449430+00:00Z", "free_bikes": 20, "empty_slots": 0, "extra": {"uid": "203984", "number": "36217", "slots": 11, "bike_uids": ["340322", "340314", "340292", "340286", "340282", "340202", "340191", "340164", "340163", "340142", "340012", "340415", "340375", "340374", "340433", "340455", "340451", "340550", "340531", "340518"], "virtual": false}}, {"id": "3d78f9ae2d5ce207e2890a629ed4ab01", "name": "Hegnerstra\u00dfe", "latitude": 47.271174, "longitude": 11.422804, "timestamp": "2025-05-03T03:15:34.449856+00:00Z", "free_bikes": 3, "empty_slots": 10, "extra": {"uid": "143972277", "number": "36246", "slots": 13, "bike_uids": ["340305", "340404", "340380"], "virtual": false}}, {"id": "417a5f3ba595eae523327bbdc691f52c", "name": "Bozner Platz", "latitude": 47.265332, "longitude": 11.397098, "timestamp": "2025-05-03T03:15:34.449216+00:00Z", "free_bikes": 4, "empty_slots": 5, "extra": {"uid": "203968", "number": "36202", "slots": 9, "bike_uids": ["340303", "340011", "340407", "340401"], "virtual": false}}, {"id": "4598d34f7da13b0004e19bd19ad54fec", "name": "MED-EL", "latitude": 47.263097, "longitude": 11.37483, "timestamp": "2025-05-03T03:15:34.449489+00:00Z", "free_bikes": 6, "empty_slots": 9, "extra": {"uid": "203988", "number": "36221", "slots": 15, "bike_uids": ["340335", "340198", "340013", "340492", "340489", "340538"], "virtual": false}}, {"id": "47a899822c42621214632513735f5ddc", "name": "TWI Technologiezentrum", "latitude": 47.265525, "longitude": 11.435286, "timestamp": "2025-05-03T03:15:34.449691+00:00Z", "free_bikes": 0, "empty_slots": 13, "extra": {"uid": "1839703", "number": "36234", "slots": 13, "bike_uids": [], "virtual": false}}, {"id": "4a6dc04b3691232c2afcc25b75953f9b", "name": "General-Eccher-Stra\u00dfe", "latitude": 47.277315, "longitude": 11.416799, "timestamp": "2025-05-03T03:15:34.449537+00:00Z", "free_bikes": 22, "empty_slots": 0, "extra": {"uid": "286193", "number": "36224", "slots": 15, "bike_uids": ["340299", "340267", "340260", "340201", "340190", "340074", "340067", "340052", "340025", "340021", "340399", "340384", "340362", "340450", "340430", "340429", "340476", "340454", "340501", "340516", "340530", "340522"], "virtual": false}}, {"id": "5deefe2cb60fd7c5bba0f1b6fa415291", "name": "Universit\u00e4t", "latitude": 47.263788, "longitude": 11.386207, "timestamp": "2025-05-03T03:15:34.449516+00:00Z", "free_bikes": 0, "empty_slots": 15, "extra": {"uid": "286191", "number": "36222", "slots": 15, "bike_uids": [], "virtual": false}}, {"id": "6227a3a3894e85eddc127b14c08f5040", "name": "Technik", "latitude": 47.265157, "longitude": 11.344585, "timestamp": "2025-05-03T03:15:34.449553+00:00Z", "free_bikes": 18, "empty_slots": 5, "extra": {"uid": "351546", "number": "36225", "slots": 23, "bike_uids": ["340326", "340309", "340279", "340230", "340196", "340118", "340042", "340032", "340029", "340016", "340009", "340360", "340396", "340447", "340439", "340432", "340467", "340465"], "virtual": false}}, {"id": "6d868a1b6579ae58a27be580c3d2a60b", "name": "Mariahilfpark", "latitude": 47.267898, "longitude": 11.387577, "timestamp": "2025-05-03T03:15:34.449648+00:00Z", "free_bikes": 18, "empty_slots": 0, "extra": {"uid": "1001074", "number": "36231", "slots": 11, "bike_uids": ["340351", "340346", "340342", "340289", "340169", "340167", "340143", "340139", "340134", "340128", "340057", "340026", "340023", "340007", "340368", "340495", "340464", "340532"], "virtual": false}}, {"id": "6dea475797208e5fbb5dff3e076b2fa8", "name": "Chemieinstitut", "latitude": 47.260796, "longitude": 11.381187, "timestamp": "2025-05-03T03:15:34.449814+00:00Z", "free_bikes": 4, "empty_slots": 20, "extra": {"uid": "22879647", "number": "36243", "slots": 24, "bike_uids": ["340352", "340125", "340121", "340434"], "virtual": false}}, {"id": "72821acc3789748dfacb0ce5705cf8a8", "name": "Baggersee", "latitude": 47.267753, "longitude": 11.446069, "timestamp": "2025-05-03T03:15:34.449772+00:00Z", "free_bikes": 4, "empty_slots": 8, "extra": {"uid": "7060487", "number": "36240", "slots": 12, "bike_uids": ["340301", "340205", "340003", "340381"], "virtual": false}}, {"id": "742650b402df9d21a5e80335a942e426", "name": "Olympiaworld", "latitude": 47.25847, "longitude": 11.410552, "timestamp": "2025-05-03T03:15:34.449894+00:00Z", "free_bikes": 32, "empty_slots": 0, "extra": {"uid": "343100748", "number": "36249", "slots": 21, "bike_uids": ["340353", "340344", "340340", "340323", "340319", "340270", "340263", "340259", "340250", "340246", "340172", "340161", "340159", "340153", "340127", "340120", "340069", "340044", "340027", "340017", "340005", "340423", "340421", "340405", "340403", "340389", "340376", "340364", "340361", "340446", "340483", "340512"], "virtual": false}}, {"id": "754702407272002c752fa42fa3a743f3", "name": "Kaisersch\u00fctzenplatz", "latitude": 47.258765, "longitude": 11.396685, "timestamp": "2025-05-03T03:15:34.449759+00:00Z", "free_bikes": 1, "empty_slots": 14, "extra": {"uid": "7060477", "number": "36239", "slots": 15, "bike_uids": ["340102"], "virtual": false}}, {"id": "776ff920b2212103380813676b13cf07", "name": "Westbahnhof", "latitude": 47.255885, "longitude": 11.39169, "timestamp": "2025-05-03T03:15:34.449401+00:00Z", "free_bikes": 24, "empty_slots": 0, "extra": {"uid": "203982", "number": "36215", "slots": 18, "bike_uids": ["340359", "340330", "340328", "340327", "340276", "340239", "340229", "340213", "340206", "340176", "340171", "340151", "340119", "340095", "340092", "340084", "340073", "340070", "340486", "340479", "340473", "340541", "340533", "340525"], "virtual": false}}, {"id": "7bd1e9cf406bdbb2200479923abba875", "name": "Schutzengelkirche", "latitude": 47.265714, "longitude": 11.416436, "timestamp": "2025-05-03T03:15:34.449841+00:00Z", "free_bikes": 12, "empty_slots": 1, "extra": {"uid": "143972148", "number": "36245", "slots": 13, "bike_uids": ["340349", "340293", "340149", "340106", "340049", "340974", "340416", "340290", "340442", "340548", "340536", "340521"], "virtual": false}}, {"id": "7db7a708029a4d7810848ad73abacc72", "name": "Innerkoflerstra\u00dfe", "latitude": 47.261772, "longitude": 11.384497, "timestamp": "2025-05-03T03:15:34.449881+00:00Z", "free_bikes": 4, "empty_slots": 8, "extra": {"uid": "164559907", "number": "36248", "slots": 12, "bike_uids": ["340063", "340058", "340411", "340449"], "virtual": false}}, {"id": "7e183c9fc3680ea7954247ef83ef59ac", "name": "Sillpark", "latitude": 47.266097, "longitude": 11.403015, "timestamp": "2025-05-03T03:15:34.449391+00:00Z", "free_bikes": 0, "empty_slots": 14, "extra": {"uid": "203981", "number": "36214", "slots": 14, "bike_uids": [], "virtual": false}}, {"id": "8a24a0cc38c52b2b253b3a1f53d1eae7", "name": "Mitterweg", "latitude": 47.258067, "longitude": 11.370598, "timestamp": "2025-05-03T03:15:34.449732+00:00Z", "free_bikes": 13, "empty_slots": 3, "extra": {"uid": "3495985", "number": "36236", "slots": 16, "bike_uids": ["340334", "340280", "340248", "340234", "340222", "340179", "340177", "340414", "340388", "340386", "340371", "340369", "340539"], "virtual": false}}, {"id": "944219327be55b8679cf635b040602b3", "name": "Pachersta\u00dfe", "latitude": 47.260749, "longitude": 11.409412, "timestamp": "2025-05-03T03:15:34.449344+00:00Z", "free_bikes": 9, "empty_slots": 3, "extra": {"uid": "203977", "number": "36212", "slots": 12, "bike_uids": ["340343", "340341", "340333", "340325", "340166", "340078", "340043", "340481", "340496"], "virtual": false}}, {"id": "961bc3ee666c370d5186f4a14aa2629c", "name": "EKZ West", "latitude": 47.264589, "longitude": 11.374937, "timestamp": "2025-05-03T03:15:34.449299+00:00Z", "free_bikes": 22, "empty_slots": 0, "extra": {"uid": "203973", "number": "36206", "slots": 11, "bike_uids": ["340357", "340307", "340295", "340287", "340271", "340262", "340258", "340233", "340226", "340138", "340109", "340093", "340072", "340066", "340033", "340010", "340402", "340431", "340459", "340509", "340504", "340552"], "virtual": false}}, {"id": "99b98333fe57f27abb61f8d6a52b5ef5", "name": "Rossaugasse", "latitude": 47.273034, "longitude": 11.429842, "timestamp": "2025-05-03T03:15:34.449417+00:00Z", "free_bikes": 1, "empty_slots": 10, "extra": {"uid": "203983", "number": "36216", "slots": 11, "bike_uids": ["340059"], "virtual": false}}, {"id": "9b773b70a7661163603ac11404537148", "name": "Dr. Stumpf-Stra\u00dfe", "latitude": 47.256696, "longitude": 11.373858, "timestamp": "2025-05-03T03:15:34.449702+00:00Z", "free_bikes": 22, "empty_slots": 0, "extra": {"uid": "3385845", "number": "36235", "slots": 13, "bike_uids": ["340336", "340329", "340283", "340266", "340257", "340219", "340193", "340187", "340185", "340154", "340114", "340105", "340098", "340076", "340035", "340008", "340001", "340413", "340493", "340488", "340460", "340458"], "virtual": false}}, {"id": "9b81e72b28b7eb439a8bef7853a63a72", "name": "Flughafen", "latitude": 47.257002, "longitude": 11.351484, "timestamp": "2025-05-03T03:15:34.449910+00:00Z", "free_bikes": 3, "empty_slots": 15, "extra": {"uid": "438786187", "number": "36251", "slots": 18, "bike_uids": ["340251", "340466", "340553"], "virtual": false}}, {"id": "9edc42d8c2a80c7f9830eedaf3217f3c", "name": "Philippine-Welser-Stra\u00dfe", "latitude": 47.258688, "longitude": 11.425567, "timestamp": "2025-05-03T03:15:34.449591+00:00Z", "free_bikes": 19, "empty_slots": 0, "extra": {"uid": "732701", "number": "36228", "slots": 12, "bike_uids": ["340294", "340291", "340247", "340245", "340217", "340200", "340135", "340096", "340406", "340395", "340372", "340370", "340487", "340505", "340503", "340549", "340545", "340535", "340523"], "virtual": false}}, {"id": "9f6e0e1d8ae8cb592ab76c2a96234caa", "name": "Arthur-Haidl-Promenade", "latitude": 47.261349, "longitude": 11.379588, "timestamp": "2025-05-03T03:15:34.449620+00:00Z", "free_bikes": 4, "empty_slots": 9, "extra": {"uid": "1001065", "number": "36229", "slots": 13, "bike_uids": ["340228", "340223", "340162", "340437"], "virtual": false}}, {"id": "a32df4c2812ea375625f86f643ad3f24", "name": "Zeughaus", "latitude": 47.270483, "longitude": 11.406367, "timestamp": "2025-05-03T03:15:34.449938+00:00Z", "free_bikes": 4, "empty_slots": 9, "extra": {"uid": "499628454", "number": "36252", "slots": 13, "bike_uids": ["340184", "340155", "340393", "340443"], "virtual": true}}, {"id": "a38809c40455108f05f60af2245233f0", "name": "Uni-Boulevard", "latitude": 47.262857, "longitude": 11.383338, "timestamp": "2025-05-03T03:15:34.449446+00:00Z", "free_bikes": 9, "empty_slots": 12, "extra": {"uid": "203985", "number": "36218", "slots": 21, "bike_uids": ["340332", "340298", "340254", "340178", "340148", "340028", "340015", "340387", "340469"], "virtual": false}}, {"id": "a69b01fe943a13f74304bdb0f877a18b", "name": "SOWI/MCI", "latitude": 47.269249, "longitude": 11.399135, "timestamp": "2025-05-03T03:15:34.449527+00:00Z", "free_bikes": 0, "empty_slots": 31, "extra": {"uid": "286192", "number": "36223", "slots": 31, "bike_uids": [], "virtual": false}}, {"id": "b4fb7a0b506544f07e4f0c02201ed681", "name": "Stubaitalbahnhof", "latitude": 47.253926, "longitude": 11.39757, "timestamp": "2025-05-03T03:15:34.449503+00:00Z", "free_bikes": 1, "empty_slots": 18, "extra": {"uid": "229278", "number": "36213", "slots": 19, "bike_uids": ["340186"], "virtual": false}}, {"id": "b67787362dd36aaac3da7f4ba9bb20be", "name": "Messe Bahnhof", "latitude": 47.272503, "longitude": 11.406169, "timestamp": "2025-05-03T03:15:34.449827+00:00Z", "free_bikes": 5, "empty_slots": 8, "extra": {"uid": "143448611", "number": "36244", "slots": 13, "bike_uids": ["340297", "340101", "340000", "340417", "340373"], "virtual": false}}, {"id": "b8548e5753a84327dcd2883437275b70", "name": "M\u00fchlauer Br\u00fccke", "latitude": 47.278834, "longitude": 11.403916, "timestamp": "2025-05-03T03:15:34.449360+00:00Z", "free_bikes": 10, "empty_slots": 1, "extra": {"uid": "203978", "number": "36211", "slots": 11, "bike_uids": ["340253", "340244", "340211", "340173", "340168", "340152", "340132", "340099", "340419", "340500"], "virtual": false}}, {"id": "be865d6d80ab90650dd8ee7bcb920a27", "name": "Adolf-Pichler-Platz", "latitude": 47.266228, "longitude": 11.392082, "timestamp": "2025-05-03T03:15:34.449581+00:00Z", "free_bikes": 0, "empty_slots": 9, "extra": {"uid": "355754", "number": "36227", "slots": 9, "bike_uids": [], "virtual": false}}, {"id": "c237d61e7fcbf91012a3ee29aaf96096", "name": "Anichstra\u00dfe / Klinik", "latitude": 47.263745, "longitude": 11.388209, "timestamp": "2025-05-03T03:15:34.449316+00:00Z", "free_bikes": 0, "empty_slots": 11, "extra": {"uid": "203974", "number": "36207", "slots": 11, "bike_uids": [], "virtual": false}}, {"id": "c69e4ff16a7b60f3feb2981753e4cf70", "name": "Congress / Hofburg", "latitude": 47.268754, "longitude": 11.395462, "timestamp": "2025-05-03T03:15:34.449243+00:00Z", "free_bikes": 5, "empty_slots": 10, "extra": {"uid": "203969", "number": "36203", "slots": 15, "bike_uids": ["340265", "340130", "340111", "340094", "340477"], "virtual": false}}, {"id": "ccc774d2d0e2794a0b90780691ffe329", "name": "Maximilianstra\u00dfe", "latitude": 47.261815, "longitude": 11.387565, "timestamp": "2025-05-03T03:15:34.449871+00:00Z", "free_bikes": 0, "empty_slots": 19, "extra": {"uid": "164559565", "number": "36247", "slots": 19, "bike_uids": [], "virtual": false}}, {"id": "d7f84f20be49cbbc2582709b7fd14fe7", "name": "Leipziger Platz", "latitude": 47.264537, "longitude": 11.406609, "timestamp": "2025-05-03T03:15:34.449374+00:00Z", "free_bikes": 24, "empty_slots": 0, "extra": {"uid": "203979", "number": "36210", "slots": 12, "bike_uids": ["340296", "340288", "340272", "340204", "340183", "340160", "340157", "340131", "340115", "340091", "340087", "340083", "340082", "340081", "340054", "340047", "340037", "340031", "340030", "340408", "340426", "340491", "340463", "340528"], "virtual": false}}, {"id": "d99fdcd802fd5eace70189df957c37d4", "name": "Maria-Theresien-Stra\u00dfe", "latitude": 47.264916, "longitude": 11.394763, "timestamp": "2025-05-03T03:15:34.449328+00:00Z", "free_bikes": 4, "empty_slots": 9, "extra": {"uid": "203976", "number": "36209", "slots": 13, "bike_uids": ["340145", "340972", "340438", "340497"], "virtual": false}}, {"id": "dae22ce5ab1fc11771dd99ee6f5730bc", "name": "Austria Trend Hotel", "latitude": 47.27449, "longitude": 11.397193, "timestamp": "2025-05-03T03:15:34.449608+00:00Z", "free_bikes": 2, "empty_slots": 9, "extra": {"uid": "883225", "number": "36208", "slots": 11, "bike_uids": ["340238", "340182"], "virtual": false}}, {"id": "e9dfa1e8ddbae612584f0b7e20da501a", "name": "V\u00f6gelebichl", "latitude": 47.264109, "longitude": 11.362696, "timestamp": "2025-05-03T03:15:34.449786+00:00Z", "free_bikes": 19, "empty_slots": 0, "extra": {"uid": "7060498", "number": "36241", "slots": 14, "bike_uids": ["340348", "340321", "340313", "340306", "340302", "340281", "340249", "340225", "340116", "340104", "340050", "340020", "340424", "340379", "340363", "340490", "340485", "340474", "340498"], "virtual": false}}, {"id": "ea82cddeabf9664cf8d039de4da41bd9", "name": "Freiburger Br\u00fccke", "latitude": 47.259056, "longitude": 11.380087, "timestamp": "2025-05-03T03:15:34.449924+00:00Z", "free_bikes": 12, "empty_slots": 5, "extra": {"uid": "438786710", "number": "36250", "slots": 17, "bike_uids": ["340315", "340268", "340252", "340221", "340189", "340113", "340065", "340418", "340400", "340510", "340529", "340527"], "virtual": false}}, {"id": "ebea5a53acd85295df5a7db8b07782d5", "name": "Dr. Glatz-Stra\u00dfe", "latitude": 47.262631, "longitude": 11.412842, "timestamp": "2025-05-03T03:15:34.449262+00:00Z", "free_bikes": 6, "empty_slots": 5, "extra": {"uid": "203970", "number": "36204", "slots": 11, "bike_uids": ["340242", "340147", "340559", "340537", "340534", "340519"], "virtual": false}}, {"id": "f3a1d416c04485d43890f67e5b78276e", "name": "Kletterzentrum / Sillside", "latitude": 47.276885, "longitude": 11.414586, "timestamp": "2025-05-03T03:15:34.449461+00:00Z", "free_bikes": 6, "empty_slots": 8, "extra": {"uid": "203986", "number": "36219", "slots": 14, "bike_uids": ["340241", "340214", "340140", "340038", "340034", "340544"], "virtual": false}}]}