{"id": "swa-rad-augsburg", "name": "SWA Rad", "location": {"latitude": 48.3647, "longitude": 10.8916, "city": "Augsburg", "country": "DE"}, "href": "/v2/networks/swa-rad-augsburg", "company": ["Nextbike GmbH"], "stations": [{"id": "00151174a5dd2c40ecbf53a60d1e0101", "name": "86115 Ernst-Reuter-Platz", "latitude": 48.368611, "longitude": 10.895364, "timestamp": "2023-12-31T14:47:37.361Z", "free_bikes": 0, "empty_slots": null, "extra": {"uid": "81910", "bike_uids": [""], "number": "86115"}}, {"id": "003a1e0b574d2859db5848bdab8b946a", "name": "86132 Kriegshaber", "latitude": 48.380312, "longitude": 10.855624, "timestamp": "2023-12-31T14:47:37.354Z", "free_bikes": 3, "empty_slots": null, "extra": {"uid": "81902", "bike_uids": ["92698", "92653", "92552"], "number": "86132"}}, {"id": "00d143b2d7afce161e9aca375e74ffec", "name": "86190 Haunstetten West", "latitude": 48.31002, "longitude": 10.893509, "timestamp": "2023-12-31T14:47:37.574Z", "free_bikes": 0, "empty_slots": null, "extra": {"uid": "229029820", "bike_uids": [""], "number": "86190"}}, {"id": "026df174cb82b04c6378ac5b7e17d6fe", "name": "86109 City Galerie", "latitude": 48.365912, "longitude": 10.904902, "timestamp": "2023-12-31T14:47:37.363Z", "free_bikes": 1, "empty_slots": null, "extra": {"uid": "81912", "bike_uids": ["92405"], "number": "86109"}}, {"id": "05e48503be9e901c4ac4b38a1c69efa5", "name": "86146 Vincentinum", "latitude": 48.3745, "longitude": 10.90402, "timestamp": "2023-12-31T14:47:37.522Z", "free_bikes": 0, "empty_slots": null, "extra": {"uid": "34608815", "bike_uids": [""], "number": "86146"}}, {"id": "0acab794fb49420b52a50ca8b0aafc78", "name": "86108 Fachhochschule", "latitude": 48.35496, "longitude": 10.902635, "timestamp": "2023-12-31T14:47:37.370Z", "free_bikes": 7, "empty_slots": null, "extra": {"uid": "82184", "bike_uids": ["92808", "92763", "92588", "92542", "92541", "92453", "92401"], "number": "86108"}}, {"id": "0d09b973b0b8a3fa64b61ad4e93d5723", "name": "86148 Schertlinstra\u00dfe", "latitude": 48.35144, "longitude": 10.90177, "timestamp": "2023-12-31T14:47:37.462Z", "free_bikes": 0, "empty_slots": null, "extra": {"uid": "33292831", "bike_uids": [""], "number": "86148"}}, {"id": "1158ad30cb8ac5c0dd60f6860e318003", "name": "86186 Hugo-Eckener-Stra\u00dfe", "latitude": 48.32993, "longitude": 10.89896, "timestamp": "2023-12-31T14:47:37.487Z", "free_bikes": 1, "empty_slots": null, "extra": {"uid": "33350676", "bike_uids": ["92820"], "number": "86186"}}, {"id": "1462552bed8d6ae2d779942515875afe", "name": "86170 Leitershofen Brunnenplatz", "latitude": 48.35002, "longitude": 10.838, "timestamp": "2023-12-31T14:47:37.533Z", "free_bikes": 6, "empty_slots": null, "extra": {"uid": "34611488", "bike_uids": ["92866", "92861", "92759", "92657", "92615", "92462"], "number": "86170"}}, {"id": "149dab7642a3661cf63b252a522e3964", "name": "86161 Calmbergstra\u00dfe", "latitude": 48.35646, "longitude": 10.88675, "timestamp": "2023-12-31T14:47:37.560Z", "free_bikes": 3, "empty_slots": null, "extra": {"uid": "35673188", "bike_uids": ["92825", "92697", "92655"], "number": "86161"}}, {"id": "14b693db7f39e7a715c71f6ff78ef0c7", "name": "86168 Kopernikusstra\u00dfe", "latitude": 48.31754, "longitude": 10.89568, "timestamp": "2023-12-31T14:47:37.531Z", "free_bikes": 1, "empty_slots": null, "extra": {"uid": "34610393", "bike_uids": ["92530"], "number": "86168"}}, {"id": "1511d1c7da9268339f196c0a66002c7b", "name": "86129 Pfersee", "latitude": 48.362408, "longitude": 10.868075, "timestamp": "2023-12-31T14:47:37.373Z", "free_bikes": 0, "empty_slots": null, "extra": {"uid": "117845", "bike_uids": [""], "number": "86129"}}, {"id": "19116cecfee9307ae09a3505278f82af", "name": "86194 Histor. Wasserwerk", "latitude": 48.34725, "longitude": 10.93471, "timestamp": "2023-12-31T14:47:37.502Z", "free_bikes": 4, "empty_slots": null, "extra": {"uid": "33409348", "bike_uids": ["92878", "92669", "92538", "92463"], "number": "86194"}}, {"id": "220c4d155df613d0210c06f253da1fa6", "name": "86131 Stadtbergen Altenheim", "latitude": 48.367022, "longitude": 10.845914, "timestamp": "2023-12-31T14:47:37.377Z", "free_bikes": 2, "empty_slots": null, "extra": {"uid": "135510", "bike_uids": ["92553", "92411"], "number": "86131"}}, {"id": "24359c100d62ec0d708ed3b2f84150d6", "name": "86134 Gaswerk", "latitude": 48.387074, "longitude": 10.864384, "timestamp": "2023-12-31T14:47:37.400Z", "free_bikes": 0, "empty_slots": null, "extra": {"uid": "11343462", "bike_uids": [""], "number": "86134"}}, {"id": "25b8152b8df7772e0516122bcac0c80b", "name": "86158 Wertachdamm", "latitude": 48.35535, "longitude": 10.87201, "timestamp": "2023-12-31T14:47:37.573Z", "free_bikes": 3, "empty_slots": null, "extra": {"uid": "118997790", "bike_uids": ["92879", "92587", "92408"], "number": "86158"}}, {"id": "276eb9f051699db9447163987178da09", "name": "86144 Kennedy-Platz", "latitude": 48.3696, "longitude": 10.89307, "timestamp": "2023-12-31T14:47:37.477Z", "free_bikes": 0, "empty_slots": null, "extra": {"uid": "33345021", "bike_uids": [""], "number": "86144"}}, {"id": "2c320ede8232e7e69f3d17bf4df78971", "name": "86200 Frischstra\u00dfe", "latitude": 48.353324, "longitude": 10.908163, "timestamp": "2023-12-31T14:47:37.491Z", "free_bikes": 0, "empty_slots": null, "extra": {"uid": "33408069", "bike_uids": [""], "number": "86200"}}, {"id": "357a99fcafdafcdfc63b628550f68ae3", "name": "86184 Stenglinstra\u00dfe", "latitude": 48.3823, "longitude": 10.84592, "timestamp": "2023-12-31T14:47:37.488Z", "free_bikes": 1, "empty_slots": null, "extra": {"uid": "33407273", "bike_uids": ["92398"], "number": "86184"}}, {"id": "36aa93c9f5acb20fd8ae2f9398981f19", "name": "86121 Hammerschmiede", "latitude": 48.396485, "longitude": 10.914818, "timestamp": "2023-12-31T14:47:37.378Z", "free_bikes": 0, "empty_slots": null, "extra": {"uid": "201960", "bike_uids": [""], "number": "86121"}}, {"id": "3859748ae231065ea5485b4bfa32566c", "name": "86157 Stadtmarkt West", "latitude": 48.36796, "longitude": 10.89332, "timestamp": "2023-12-31T14:47:37.475Z", "free_bikes": 0, "empty_slots": null, "extra": {"uid": "33344391", "bike_uids": [""], "number": "86157"}}, {"id": "3b264630f24c86ecd4d52d126f52f745", "name": "86100 Augsburg Nord", "latitude": 48.402746, "longitude": 10.879147, "timestamp": "2023-12-31T14:47:37.358Z", "free_bikes": 1, "empty_slots": null, "extra": {"uid": "81906", "bike_uids": ["92776"], "number": "86100"}}, {"id": "402b135d760ac2f469857b0996e0c1bf", "name": "86127 Hessing Kliniken", "latitude": 48.33874, "longitude": 10.865334, "timestamp": "2023-12-31T14:47:37.392Z", "free_bikes": 9, "empty_slots": null, "extra": {"uid": "301121", "bike_uids": ["92862", "92848", "92833", "92730", "92721", "92621", "92616", "92545", "92521"], "number": "86127"}}, {"id": "44968cafa80e1492ec1b13186507294e", "name": "86133 Zentralklinikum", "latitude": 48.38349, "longitude": 10.838978, "timestamp": "2023-12-31T14:47:37.380Z", "free_bikes": 2, "empty_slots": null, "extra": {"uid": "206265", "bike_uids": ["92526", "92416"], "number": "86133"}}, {"id": "466a2e8265b281fc9419ff1a5985789e", "name": "86163 Krankenhaus Haunstetten", "latitude": 48.30636, "longitude": 10.91654, "timestamp": "2023-12-31T14:47:37.568Z", "free_bikes": 0, "empty_slots": null, "extra": {"uid": "35673532", "bike_uids": [""], "number": "86163"}}, {"id": "4bc6c28da2311a89ef13d26ea0e4f8d5", "name": "86181 Hochzoll Mitte", "latitude": 48.35482, "longitude": 10.94419, "timestamp": "2023-12-31T14:47:37.493Z", "free_bikes": 0, "empty_slots": null, "extra": {"uid": "33408493", "bike_uids": [""], "number": "86181"}}, {"id": "520148782e6086ae359402b1edde7a51", "name": "86140 Weitblick", "latitude": 48.327952, "longitude": 10.888795, "timestamp": "2023-12-31T14:47:37.578Z", "free_bikes": 3, "empty_slots": null, "extra": {"uid": "284312785", "bike_uids": ["92868", "92692", "92428"], "number": "86140"}}, {"id": "555398917393fbdfac5daa722a40932a", "name": "86152 Lechhausen Schl\u00f6\u00dfle", "latitude": 48.38132, "longitude": 10.91601, "timestamp": "2023-12-31T14:47:37.438Z", "free_bikes": 1, "empty_slots": null, "extra": {"uid": "33287633", "bike_uids": ["92548"], "number": "86152"}}, {"id": "5d78a841653a382dfbde5de30d5465a1", "name": "86112 K\u00f6nigsplatz", "latitude": 48.36609, "longitude": 10.894157, "timestamp": "2023-12-31T14:47:37.391Z", "free_bikes": 1, "empty_slots": null, "extra": {"uid": "262590", "bike_uids": ["92691"], "number": "86112"}}, {"id": "617c37aa282022737ed5966a72819fce", "name": "86119 Friedberger Str.", "latitude": 48.355397, "longitude": 10.950108, "timestamp": "2023-12-31T14:47:37.381Z", "free_bikes": 1, "empty_slots": null, "extra": {"uid": "206266", "bike_uids": ["92421"], "number": "86119"}}, {"id": "64597e63a23cd4225de21d2427a8e636", "name": "86114 Fronhof", "latitude": 48.371835, "longitude": 10.89501, "timestamp": "2023-12-31T14:47:37.372Z", "free_bikes": 0, "empty_slots": 6, "extra": {"slots": 6, "uid": "82244", "bike_uids": [""], "number": "86114"}}, {"id": "657603b4d82e1528a8e9a2cc3879102e", "name": "86142 Innovationspark", "latitude": 48.32679, "longitude": 10.897958, "timestamp": "2023-12-31T14:47:37.445Z", "free_bikes": 6, "empty_slots": null, "extra": {"uid": "33291080", "bike_uids": ["92817", "92795", "92716", "92676", "92642", "92520"], "number": "86142"}}, {"id": "6bdb378dccaab65fe7e9c77afaa845d3", "name": "86155 B\u00e4renkeller S\u00fcd", "latitude": 48.39475, "longitude": 10.84759, "timestamp": "2023-12-31T14:47:37.452Z", "free_bikes": 0, "empty_slots": null, "extra": {"uid": "33292179", "bike_uids": [""], "number": "86155"}}, {"id": "6f2e5d396eea3861d349c13aab0b3d87", "name": "86192 Hauptbahnhof", "latitude": 48.365621, "longitude": 10.887434, "timestamp": "2023-12-31T14:47:37.398Z", "free_bikes": 3, "empty_slots": null, "extra": {"uid": "1201268", "bike_uids": ["92719", "92604", "92558"], "number": "86192"}}, {"id": "703a9a930a8ac59904eb5427914911ce", "name": "86154 Augsburg West P+R", "latitude": 48.37692, "longitude": 10.83914, "timestamp": "2023-12-31T14:47:37.473Z", "free_bikes": 3, "empty_slots": null, "extra": {"uid": "33344177", "bike_uids": ["92814", "92737", "92723"], "number": "86154"}}, {"id": "71ad1a155ef3cbf2edf78e7de1a3fe39", "name": "86188 Steinerne Furt", "latitude": 48.39216, "longitude": 10.92032, "timestamp": "2023-12-31T14:47:37.546Z", "free_bikes": 5, "empty_slots": null, "extra": {"uid": "34612632", "bike_uids": ["92799", "92739", "92591", "92539", "92465"], "number": "86188"}}, {"id": "776a7793057865a68d57dc367733c6d4", "name": "86176 Wasserturmstra\u00dfe", "latitude": 48.31461, "longitude": 10.86421, "timestamp": "2023-12-31T14:47:37.454Z", "free_bikes": 4, "empty_slots": null, "extra": {"uid": "33292341", "bike_uids": ["92812", "92725", "92713", "92562"], "number": "86176"}}, {"id": "79ad30738b5be40eb90c809e5ef6959e", "name": "86103 An der blauen Kappe", "latitude": 48.371682, "longitude": 10.889136, "timestamp": "2023-12-31T14:47:37.424Z", "free_bikes": 0, "empty_slots": 10, "extra": {"slots": 10, "uid": "15814217", "bike_uids": [""], "number": "86103"}}, {"id": "79d5bb83a24d99eeb55f57baa3d97ded", "name": "86122 Schillstra\u00dfe", "latitude": 48.387619, "longitude": 10.906044, "timestamp": "2023-12-31T14:47:37.383Z", "free_bikes": 9, "empty_slots": null, "extra": {"uid": "206267", "bike_uids": ["92794", "92751", "92736", "92649", "92643", "92620", "92567", "92559", "92388"], "number": "86122"}}, {"id": "7b942f2b453b4217891eed24e4e23b4d", "name": "86166 Provino Club", "latitude": 48.36282, "longitude": 10.91191, "timestamp": "2023-12-31T14:47:37.524Z", "free_bikes": 1, "empty_slots": null, "extra": {"uid": "34609915", "bike_uids": ["92757"], "number": "86166"}}, {"id": "7bfe7dbe5312685b2860850a45a05873", "name": "86117 Botanischer Garten", "latitude": 48.349857, "longitude": 10.915968, "timestamp": "2023-12-31T14:47:37.343Z", "free_bikes": 10, "empty_slots": null, "extra": {"uid": "81900", "bike_uids": ["92802", "92660", "92631", "92609", "92585", "92583", "92582", "92578", "92537", "92494"], "number": "86117"}}, {"id": "7e4bc4f1750c6ba2f3e5a3bf373d42bc", "name": "86159 Prinzstra\u00dfe", "latitude": 48.36082, "longitude": 10.90573, "timestamp": "2023-12-31T14:47:37.548Z", "free_bikes": 0, "empty_slots": null, "extra": {"uid": "35672700", "bike_uids": [""], "number": "86159"}}, {"id": "7f7ad2cf371fe7fb9f685ae186804a33", "name": "86193 Bleichstra\u00dfe", "latitude": 48.37736, "longitude": 10.90426, "timestamp": "2023-12-31T14:47:37.490Z", "free_bikes": 2, "empty_slots": null, "extra": {"uid": "33407861", "bike_uids": ["92819", "92443"], "number": "86193"}}, {"id": "875946528350f9e1cadc1bd6af8df8b6", "name": "86167 Breitwiesenstra\u00dfe", "latitude": 48.3138, "longitude": 10.90283, "timestamp": "2023-12-31T14:47:37.525Z", "free_bikes": 2, "empty_slots": null, "extra": {"uid": "34610146", "bike_uids": ["92677", "92402"], "number": "86167"}}, {"id": "8c23ceaf4b12828692fa8e325af9edd3", "name": "86177 Herrenbachstr", "latitude": 48.36277, "longitude": 10.92794, "timestamp": "2023-12-31T14:47:37.504Z", "free_bikes": 6, "empty_slots": null, "extra": {"uid": "33411057", "bike_uids": ["92760", "92715", "92599", "92499", "92433", "92427"], "number": "86177"}}, {"id": "956cf2b974ca93d6514777d4f1cdd4eb", "name": "86172 Wertachbr\u00fccke", "latitude": 48.37844, "longitude": 10.88223, "timestamp": "2023-12-31T14:47:37.457Z", "free_bikes": 0, "empty_slots": null, "extra": {"uid": "33292590", "bike_uids": [""], "number": "86172"}}, {"id": "983a0b33727492231fc232b4dbf7e122", "name": "86187 Ackermann Str.", "latitude": 48.37405, "longitude": 10.84999, "timestamp": "2023-12-31T14:47:37.545Z", "free_bikes": 3, "empty_slots": null, "extra": {"uid": "34612400", "bike_uids": ["92744", "92681", "92577"], "number": "86187"}}, {"id": "9a792d00cc45d4aff91ae6e857c64286", "name": "86113 Sparkasse Halderstra\u00dfe", "latitude": 48.364989, "longitude": 10.891871, "timestamp": "2023-12-31T14:47:37.394Z", "free_bikes": 0, "empty_slots": null, "extra": {"uid": "305051", "bike_uids": [""], "number": "86113"}}, {"id": "a1114dc78f031c8d62ca72ed907f731f", "name": "86179 Westfriedhof", "latitude": 48.36532, "longitude": 10.86006, "timestamp": "2023-12-31T14:47:37.437Z", "free_bikes": 1, "empty_slots": null, "extra": {"uid": "33274804", "bike_uids": ["92787"], "number": "86179"}}, {"id": "a4f61edc8a28e10feb34bc35ddee196f", "name": "86164 Fl\u00f6\u00dferpark", "latitude": 48.37691, "longitude": 10.91408, "timestamp": "2023-12-31T14:47:37.522Z", "free_bikes": 2, "empty_slots": null, "extra": {"uid": "34609206", "bike_uids": ["92842", "92431"], "number": "86164"}}, {"id": "a7accec0b2a09bce330811fdfd7a2ceb", "name": "86175 Zw\u00f6lf Apostel Platz", "latitude": 48.34459, "longitude": 10.94519, "timestamp": "2023-12-31T14:47:37.455Z", "free_bikes": 0, "empty_slots": null, "extra": {"uid": "33292459", "bike_uids": [""], "number": "86175"}}, {"id": "ab56aaa95d0887e208b66f9e5a1c3a65", "name": "86116 Milchberg", "latitude": 48.361981, "longitude": 10.900948, "timestamp": "2023-12-31T14:47:37.402Z", "free_bikes": 4, "empty_slots": 6, "extra": {"slots": 10, "uid": "15811196", "bike_uids": ["92727", "92707", "92694", "92633"], "number": "86116"}}, {"id": "b1d8cb0471ad414788fd89b72897b355", "name": "86149 K\u00f6nigsplatz West", "latitude": 48.36529, "longitude": 10.89372, "timestamp": "2023-12-31T14:47:37.447Z", "free_bikes": 1, "empty_slots": null, "extra": {"uid": "33291342", "bike_uids": ["92590"], "number": "86149"}}, {"id": "b21bc50801ce9130b302a7cbab55d299", "name": "86183 Stettenstra\u00dfe KJF", "latitude": 48.360177, "longitude": 10.892183, "timestamp": "2023-12-31T14:47:37.430Z", "free_bikes": 6, "empty_slots": null, "extra": {"uid": "30513464", "bike_uids": ["92859", "92839", "92699", "92671", "92593", "92461"], "number": "86183"}}, {"id": "b313a7c9357ddaee2623b78a476c068a", "name": "86147 Sigma Techno Park", "latitude": 48.341094, "longitude": 10.906026, "timestamp": "2023-12-31T14:47:37.572Z", "free_bikes": 3, "empty_slots": null, "extra": {"uid": "36412695", "bike_uids": ["92634", "92424", "92417"], "number": "86147"}}, {"id": "b37c46dbe75591ba0c196f18a171e017", "name": "86126 Uni Augsburg", "latitude": 48.334158, "longitude": 10.898893, "timestamp": "2023-12-31T14:47:37.387Z", "free_bikes": 1, "empty_slots": null, "extra": {"uid": "206269", "bike_uids": ["92673"], "number": "86126"}}, {"id": "b6957db65146125ca5de2b685930fb31", "name": "86174 Postillion Hofackersterstra\u00dfe", "latitude": 48.31393, "longitude": 10.89433, "timestamp": "2023-12-31T14:47:37.443Z", "free_bikes": 8, "empty_slots": null, "extra": {"uid": "33288159", "bike_uids": ["92804", "92748", "92680", "92641", "92603", "92500", "92434", "92391"], "number": "86174"}}, {"id": "b76692d520ffcb13d418cfe9b8a2385e", "name": "86185 Bergheim Kirche", "latitude": 48.317588, "longitude": 10.82109, "timestamp": "2023-12-31T14:47:37.534Z", "free_bikes": 5, "empty_slots": null, "extra": {"uid": "34611831", "bike_uids": ["92875", "92770", "92524", "92452", "92422"], "number": "86185"}}, {"id": "b825297bf4839e2762919b9ba1a397b0", "name": "86153 Heimgarten", "latitude": 48.38058, "longitude": 10.86361, "timestamp": "2023-12-31T14:47:37.440Z", "free_bikes": 0, "empty_slots": null, "extra": {"uid": "33287838", "bike_uids": [""], "number": "86153"}}, {"id": "b860d97651f91c83d4623752bb63a0a5", "name": "86120 P+R Friedberg-West", "latitude": 48.356092, "longitude": 10.963969, "timestamp": "2023-12-31T14:47:37.356Z", "free_bikes": 3, "empty_slots": null, "extra": {"uid": "81905", "bike_uids": ["92800", "92532", "92508"], "number": "86120"}}, {"id": "b8fec094dd5e764e9ba3bd4b9f539c1c", "name": "86201 Glaspalast", "latitude": 48.368101, "longitude": 10.918642, "timestamp": "2023-12-31T14:47:37.575Z", "free_bikes": 2, "empty_slots": null, "extra": {"uid": "229032797", "bike_uids": ["92764", "92515"], "number": "86201"}}, {"id": "bcc8576c80d8186846d689a2c266e541", "name": "86195 Olof Palme Stra\u00dfe", "latitude": 48.335516, "longitude": 10.877833, "timestamp": "2023-12-31T14:47:37.503Z", "free_bikes": 1, "empty_slots": null, "extra": {"uid": "33410531", "bike_uids": ["92822"], "number": "86195"}}, {"id": "c16f72bc409341f54989abde96e528cb", "name": "86106 Jugendherberge", "latitude": 48.372791, "longitude": 10.901939, "timestamp": "2023-12-31T14:47:37.368Z", "free_bikes": 0, "empty_slots": null, "extra": {"uid": "81915", "bike_uids": [""], "number": "86106"}}, {"id": "c3d96d3252c130bcae4424a33cf8a577", "name": "86191 MAN", "latitude": 48.382727, "longitude": 10.893631, "timestamp": "2023-12-31T14:47:37.396Z", "free_bikes": 0, "empty_slots": null, "extra": {"uid": "434478", "bike_uids": [""], "number": "86191"}}, {"id": "c5078d6cd62d8217debe9bd036a12686", "name": "86180 Volkssiedlung", "latitude": 48.3271, "longitude": 10.90816, "timestamp": "2023-12-31T14:47:37.479Z", "free_bikes": 1, "empty_slots": null, "extra": {"uid": "33346409", "bike_uids": ["92573"], "number": "86180"}}, {"id": "c5d93669a33f84caa6fcb8a370952098", "name": "86150 Leitershofen", "latitude": 48.35166, "longitude": 10.8502, "timestamp": "2023-12-31T14:47:37.487Z", "free_bikes": 3, "empty_slots": null, "extra": {"uid": "33349400", "bike_uids": ["92455", "92396", "92382"], "number": "86150"}}, {"id": "c5e9e00b6e4565f68a2092d2ae47698b", "name": "86145 Barmherzige Schwestern", "latitude": 48.352708, "longitude": 10.880289, "timestamp": "2023-12-31T14:47:37.464Z", "free_bikes": 5, "empty_slots": null, "extra": {"uid": "33292907", "bike_uids": ["92709", "92700", "92566", "92393", "92390"], "number": "86145"}}, {"id": "c6b75be9f776d0e85bf8e4e9fc81dbfb", "name": "86110 Rotes Tor", "latitude": 48.358701, "longitude": 10.903265, "timestamp": "2023-12-31T14:47:37.375Z", "free_bikes": 0, "empty_slots": null, "extra": {"uid": "117847", "bike_uids": [""], "number": "86110"}}, {"id": "c7941073868e96ae4c9ce3e0e60d7231", "name": "86156 Senkelbach", "latitude": 48.37769, "longitude": 10.88819, "timestamp": "2023-12-31T14:47:37.466Z", "free_bikes": 1, "empty_slots": null, "extra": {"uid": "33293608", "bike_uids": ["92579"], "number": "86156"}}, {"id": "c7f7fc88e2de066db0b6b76d92b7f2bf", "name": "86123 Lechhausen/Ostfriedhof", "latitude": 48.365637, "longitude": 10.936782, "timestamp": "2023-12-31T14:47:37.359Z", "free_bikes": 2, "empty_slots": null, "extra": {"uid": "81907", "bike_uids": ["92661", "92400"], "number": "86123"}}, {"id": "c8f8efe75d0803fd4d0eba751777f6b7", "name": "86104 Fischertor", "latitude": 48.377547, "longitude": 10.893631, "timestamp": "2023-12-31T14:47:37.426Z", "free_bikes": 0, "empty_slots": 10, "extra": {"slots": 10, "uid": "15814539", "bike_uids": [""], "number": "86104"}}, {"id": "c9504a6c6420a30f44ad92b1f7c54b90", "name": "86169 Herz Jesu Kirche", "latitude": 48.36289, "longitude": 10.87124, "timestamp": "2023-12-31T14:47:37.532Z", "free_bikes": 1, "empty_slots": null, "extra": {"uid": "34611249", "bike_uids": ["92380"], "number": "86169"}}, {"id": "cbd22b32787237514f3c22ea7d6b7e17", "name": "86198 Messezentrum", "latitude": 48.33981, "longitude": 10.89425, "timestamp": "2023-12-31T14:47:37.489Z", "free_bikes": 0, "empty_slots": null, "extra": {"uid": "33407679", "bike_uids": [""], "number": "86198"}}, {"id": "cc516cee23c0012b1fe97b6b46624d10", "name": "86111 Theodor-Heuss-Platz", "latitude": 48.359347, "longitude": 10.897778, "timestamp": "2023-12-31T14:47:37.419Z", "free_bikes": 0, "empty_slots": 10, "extra": {"slots": 10, "uid": "15813133", "bike_uids": [""], "number": "86111"}}, {"id": "ce2477d4e3364342fdeb7ae20310e1e9", "name": "86118 Schwabencenter", "latitude": 48.355294, "longitude": 10.927105, "timestamp": "2023-12-31T14:47:37.421Z", "free_bikes": 10, "empty_slots": 0, "extra": {"slots": 10, "uid": "15813431", "bike_uids": ["92857", "92717", "92672", "92666", "92645", "92586", "92535", "92506", "92436", "92419"], "number": "86118"}}, {"id": "cf36400af79d35db6834f891006ed7ef", "name": "86101 Donauw\u00f6rther Stra\u00dfe", "latitude": 48.385171, "longitude": 10.880386, "timestamp": "2023-12-31T14:47:37.385Z", "free_bikes": 0, "empty_slots": null, "extra": {"uid": "206268", "bike_uids": [""], "number": "86101"}}, {"id": "d24f4f3b773656d6aad993eb18e5a593", "name": "86197 Augsburg Messe", "latitude": 48.33782, "longitude": 10.88577, "timestamp": "2023-12-31T14:47:37.495Z", "free_bikes": 2, "empty_slots": null, "extra": {"uid": "33409220", "bike_uids": ["92856", "92639"], "number": "86197"}}, {"id": "d36a3403b710bb2d6b31779a07b659c5", "name": "86189 Afrabr\u00fccke", "latitude": 48.35497, "longitude": 10.9383, "timestamp": "2023-12-31T14:47:37.492Z", "free_bikes": 0, "empty_slots": null, "extra": {"uid": "33408342", "bike_uids": [""], "number": "86189"}}, {"id": "d4559cc586fbad8c8afd76e648e046aa", "name": "86160 Curt-Frenzel-Stadion", "latitude": 48.37324, "longitude": 10.88651, "timestamp": "2023-12-31T14:47:37.556Z", "free_bikes": 0, "empty_slots": null, "extra": {"uid": "35672944", "bike_uids": [""], "number": "86160"}}, {"id": "d592bcbe19a3898d59f24cad124db3f6", "name": "86182 Brahmstra\u00dfe", "latitude": 48.29565, "longitude": 10.89467, "timestamp": "2023-12-31T14:47:37.494Z", "free_bikes": 9, "empty_slots": null, "extra": {"uid": "33408613", "bike_uids": ["92849", "92777", "92742", "92664", "92647", "92618", "92606", "92525", "92414"], "number": "86182"}}, {"id": "dcb66d9c612ed49acd73ef04140a6d06", "name": "86162 Georg K\u00e4\u00df Platz", "latitude": 48.30914, "longitude": 10.90984, "timestamp": "2023-12-31T14:47:37.564Z", "free_bikes": 6, "empty_slots": null, "extra": {"uid": "35673360", "bike_uids": ["92785", "92784", "92668", "92560", "92547", "92426"], "number": "86162"}}, {"id": "dd2f056ff40e5a23bf91cd310f14c068", "name": "86141 Alpenstra\u00dfe", "latitude": 48.35627, "longitude": 10.898951, "timestamp": "2023-12-31T14:47:37.547Z", "free_bikes": 0, "empty_slots": null, "extra": {"uid": "35671950", "bike_uids": [""], "number": "86141"}}, {"id": "e43cf56778c4bd261690d9bf9f1fde5b", "name": "86173 Hochzoll Bahnhof", "latitude": 48.35278, "longitude": 10.94482, "timestamp": "2023-12-31T14:47:37.521Z", "free_bikes": 2, "empty_slots": null, "extra": {"uid": "33411179", "bike_uids": ["92702", "92493"], "number": "86173"}}, {"id": "e4c91e6b1c660762d7271dc3bd8febea", "name": "86105 Stadtwerke", "latitude": 48.371012, "longitude": 10.897386, "timestamp": "2023-12-31T14:47:37.366Z", "free_bikes": 1, "empty_slots": null, "extra": {"uid": "81914", "bike_uids": ["92865"], "number": "86105"}}, {"id": "e90a47ec6c659d3e70d0c696b4119b6a", "name": "86124 Haunstetten Nord", "latitude": 48.319392, "longitude": 10.908936, "timestamp": "2023-12-31T14:47:37.389Z", "free_bikes": 0, "empty_slots": null, "extra": {"uid": "206330", "bike_uids": [""], "number": "86124"}}, {"id": "e97f336c2a5a0e0b390618c288fe4a52", "name": "86178 Beim D\u00fcrren Ast", "latitude": 48.33396, "longitude": 10.90756, "timestamp": "2023-12-31T14:47:37.448Z", "free_bikes": 2, "empty_slots": null, "extra": {"uid": "33291776", "bike_uids": ["92872", "92797"], "number": "86178"}}, {"id": "ecce551a01e7755c39afb168e553dcd0", "name": "86102 Oberhausen Bahnhof", "latitude": 48.381053, "longitude": 10.873246, "timestamp": "2023-12-31T14:47:37.365Z", "free_bikes": 6, "empty_slots": null, "extra": {"uid": "81913", "bike_uids": ["92832", "92718", "92625", "92613", "92543", "92444"], "number": "86102"}}, {"id": "ee7cc54ef1cf95364cc1be70fad8a0dc", "name": "86107 Jakobertor", "latitude": 48.370555, "longitude": 10.909215, "timestamp": "2023-12-31T14:47:37.428Z", "free_bikes": 11, "empty_slots": 0, "extra": {"slots": 10, "uid": "15814771", "bike_uids": ["92834", "92824", "92818", "92782", "92712", "92663", "92623", "92610", "92592", "92511", "92464"], "number": "86107"}}, {"id": "ef18736283649b75c2c6ac6f62f09d36", "name": "86171 Hotel Diako", "latitude": 48.36803, "longitude": 10.88682, "timestamp": "2023-12-31T14:47:37.442Z", "free_bikes": 0, "empty_slots": null, "extra": {"uid": "33287999", "bike_uids": [""], "number": "86171"}}, {"id": "f26bc5cde2067f46c121500507370b44", "name": "86165 Schlachthof", "latitude": 48.371553, "longitude": 10.918264, "timestamp": "2023-12-31T14:47:37.523Z", "free_bikes": 1, "empty_slots": null, "extra": {"uid": "34609586", "bike_uids": ["92845"], "number": "86165"}}, {"id": "f749b977d7b82ea5b031d1d7a176f7b8", "name": "86151 Klausenberg", "latitude": 48.34366, "longitude": 10.87423, "timestamp": "2023-12-31T14:47:37.461Z", "free_bikes": 6, "empty_slots": null, "extra": {"uid": "33292709", "bike_uids": ["92874", "92858", "92807", "92690", "92605", "92555"], "number": "86151"}}, {"id": "f9f827db1ef44aae754da6e4e7b323be", "name": "86128 Kongress am Park", "latitude": 48.358666, "longitude": 10.887923, "timestamp": "2023-12-31T14:47:37.417Z", "free_bikes": 1, "empty_slots": 9, "extra": {"slots": 10, "uid": "15812785", "bike_uids": ["92589"], "number": "86128"}}, {"id": "fa3f2e37357316457bb3e89bdd83780d", "name": "86199 Spickelbad", "latitude": 48.3558, "longitude": 10.91418, "timestamp": "2023-12-31T14:47:37.494Z", "free_bikes": 5, "empty_slots": null, "extra": {"uid": "33409074", "bike_uids": ["92750", "92741", "92648", "92635", "92557"], "number": "86199"}}, {"id": "fa90ec72a8780294151970996db959a0", "name": "86143 B\u00e4renkeller Schule", "latitude": 48.39549, "longitude": 10.85789, "timestamp": "2023-12-31T14:47:37.547Z", "free_bikes": 0, "empty_slots": null, "extra": {"uid": "35672132", "bike_uids": [""], "number": "86143"}}]}