{"id": "tashu", "name": "Tashu", "location": {"latitude": 36.349, "longitude": 127.3848, "city": "\ub300\uc804 (Daejeon)", "country": "KR"}, "href": "/v2/networks/tashu", "company": ["Daejeon Metropolitan City"], "stations": [{"id": "001a7de4465cfdba0feb890a00bb29e2", "name": "\ucc9c\ub3d9 \uc8fc\uacf5\uc544\ud30c\ud2b8 \ubc84\uc2a4\uc815\ub958\uc7a5(12\ub3d9)", "latitude": 36.308115, "longitude": 127.449764, "timestamp": "2025-03-02T14:28:01.222409Z", "free_bikes": 1, "empty_slots": null, "extra": {"uid": "ST1008", "address": "\uac00\uc624\ub3d9 394"}}, {"id": "002b4528b228ea93f7f76c6beb02eb2a", "name": "\uc7a5\ub300\uacf5\uc6d0", "latitude": 36.358465, "longitude": 127.337364, "timestamp": "2025-03-02T14:28:01.218018Z", "free_bikes": 5, "empty_slots": null, "extra": {"uid": "ST0487", "address": "\uc7a5\ub300\ub3d9 283-5"}}, {"id": "00c6aed479009bf61461bdd088818f80", "name": "\uce74\uc774\uc2a4\ud2b8 \ubbf8\ub974\ub098\ub798\uad00", "latitude": 36.370852, "longitude": 127.355566, "timestamp": "2025-03-02T14:28:01.242771Z", "free_bikes": 0, "empty_slots": null, "extra": {"uid": "ST1408", "address": "\ub300\uc804\uad11\uc5ed\uc2dc \uc720\uc131\uad6c \uc5b4\uc740\ub3d9 52-10"}}, {"id": "00ec30f29ef2efe303995beecfec2343", "name": "\uc11c\ub300\uc804\ub124\uac70\ub9ac\uc5ed 3\ubc88\ucd9c\uad6c(139)", "latitude": 36.322278, "longitude": 127.411375, "timestamp": "2025-03-02T14:28:01.208509Z", "free_bikes": 0, "empty_slots": null, "extra": {"uid": "ST0410", "address": "\uc624\ub958\ub3d9 152-1"}}, {"id": "00f5cabd007228adba9c8d05e569a6e2", "name": "\uc0bc\uc131\ub3d9 \ud55c\ubc2d\uc790\uc774 \uc815\ub958\uc7a5(104\ub3d9)", "latitude": 36.341048, "longitude": 127.425233, "timestamp": "2025-03-02T14:28:01.206209Z", "free_bikes": 2, "empty_slots": null, "extra": {"uid": "ST0064", "address": "\uc0bc\uc131\ub3d9 479"}}, {"id": "0128ac84432a5dfe344ed6413a061b16", "name": "\ub178\uc740\ub18d\uc218\uc0b0\ubb3c\uc2dc\uc7a5", "latitude": 36.36658, "longitude": 127.321225, "timestamp": "2025-03-02T14:28:01.223245Z", "free_bikes": 0, "empty_slots": null, "extra": {"uid": "ST1140", "address": "\ub300\uc804\uad11\uc5ed\uc2dc \uc720\uc131\uad6c \ub178\uc740\ub3d9 612"}}, {"id": "013c233506c2ec44621809233592d738", "name": "\uc804\ubbfc\ub3d9 \uc5d1\uc2a4\ud3ec\uc544\ud30c\ud2b8 307\ub3d9", "latitude": 36.397058, "longitude": 127.410211, "timestamp": "2025-03-02T14:28:01.242707Z", "free_bikes": 1, "empty_slots": null, "extra": {"uid": "ST1398", "address": "\ub300\uc804\uad11\uc5ed\uc2dc \uc720\uc131\uad6c \ubb38\uc9c0\ub3d9 1-6"}}, {"id": "01966b495f6b9793e756ce219c02d5c8", "name": "\ubb38\ud654\ub3d9 \uc13c\ud2b8\ub7f4\uc2a4\ud0c0\ud074\ub798\uc2a4", "latitude": 36.322622, "longitude": 127.415101, "timestamp": "2025-03-02T14:28:01.218376Z", "free_bikes": 2, "empty_slots": null, "extra": {"uid": "ST0540", "address": "\ubb38\ud654\ub3d9 1-9"}}, {"id": "020da393c10f3b888ef7775892e4b8aa", "name": "\uc1a1\uac15\ub3d9 \ud55c\ub9c8\uc744\uc544\ud30c\ud2b8(114\ub3d9)", "latitude": 36.429031, "longitude": 127.384643, "timestamp": "2025-03-02T14:28:01.221658Z", "free_bikes": 0, "empty_slots": null, "extra": {"uid": "ST0939", "address": "\uc1a1\uac15\ub3d9 200-4"}}, {"id": "0235ee650a0f6873f5205c88d31aa0e8", "name": "\ub300\uc804 \uc2dc\ubbfc\ub300\ud559(\uc120\ud654\ub3d9,\ubcf4\ud638\uad00\ucc30\uc18c)", "latitude": 36.328187, "longitude": 127.420701, "timestamp": "2025-03-02T14:28:01.222954Z", "free_bikes": 1, "empty_slots": null, "extra": {"uid": "ST1104", "address": "\ub300\uc804\uad11\uc5ed\uc2dc \uc911\uad6c \uc120\ud654\ub3d9 287-1"}}, {"id": "0245ff60ca432126acd8ce98fa8e7104", "name": "\uc625\uacc4\ub3d9 \ud604\ub300\uc140\ud504\uba85\uc131\uc8fc\uc720\uc18c \ub9de\uc740\ud3b8", "latitude": 36.301854, "longitude": 127.452155, "timestamp": "2025-03-02T14:28:01.223128Z", "free_bikes": 1, "empty_slots": null, "extra": {"uid": "ST1115", "address": "\ub300\uc804\uad11\uc5ed\uc2dc \uc911\uad6c \uc625\uacc4\ub3d9 51-1"}}, {"id": "02866a9e605383f4ffc5f34c0eba02d4", "name": "\ub300\ub3d9 \uc0c8\ub4e4\ubafc 1\ub2e8\uc9c0 \uc785\uad6c(104\ub3d9)", "latitude": 36.3285, "longitude": 127.441287, "timestamp": "2025-03-02T14:28:01.207982Z", "free_bikes": 1, "empty_slots": null, "extra": {"uid": "ST0341", "address": "\ub300\ub3d9 527"}}, {"id": "028b2abdf92d32ddab09bf21681e7986", "name": "\uc0bc\uc131\ub124\uac70\ub9ac(KT&G \ub3d9\ub300\uc804\uc9c0\uc0ac)(169)", "latitude": 36.336373, "longitude": 127.430173, "timestamp": "2025-03-02T14:28:01.206223Z", "free_bikes": 1, "empty_slots": null, "extra": {"uid": "ST0066", "address": "\uc0bc\uc131\ub3d9 112-1"}}, {"id": "0296bd60b859d5b43977f5a2a2b66ed8", "name": "\uc774\ub9c8\ud2b8 24 \ub300\uc804\ubcf5\uc6a9\uc810 \uc606", "latitude": 36.341983, "longitude": 127.314006, "timestamp": "2025-03-02T14:28:01.223779Z", "free_bikes": 0, "empty_slots": null, "extra": {"uid": "ST1245", "address": "\ub300\uc804\uad11\uc5ed\uc2dc \uc720\uc131\uad6c \ubcf5\uc6a9\ub3d9 607-8"}}, {"id": "02c86b46be4f78fcf5478c5e032d86aa", "name": "\ucd08\ub85d\ub9c8\uc744\uc544\ud30c\ud2b8 3\ub2e8\uc9c0(217)", "latitude": 36.300386, "longitude": 127.378899, "timestamp": "2025-03-02T14:28:01.206761Z", "free_bikes": 0, "empty_slots": null, "extra": {"uid": "ST0152", "address": "\ub300\uc804\uad11\uc5ed\uc2dc \uc11c\uad6c \ubcf5\uc218\ub3d9 613"}}, {"id": "02df47e0ea585a4735bc2f61338cfc09", "name": "\uc6b0\uc1a1\uc911\ud559\uad50 \uc785\uad6c", "latitude": 36.335685, "longitude": 127.442644, "timestamp": "2025-03-02T14:28:01.207996Z", "free_bikes": 0, "empty_slots": null, "extra": {"uid": "ST0343", "address": "\uc18c\uc81c\ub3d9 305-792"}}, {"id": "033e1bf94199efa1bc91e76d3b0cec38", "name": "KB\uad6d\ubbfc\uc740\ud589 \uac00\uc624\ub3d9\uc9c0\uc810", "latitude": 36.30713, "longitude": 127.456281, "timestamp": "2025-03-02T14:28:01.218677Z", "free_bikes": 0, "empty_slots": null, "extra": {"uid": "ST0583", "address": "\uac00\uc624\ub3d9 604"}}, {"id": "03a572600c55b1fe90bb48eb70c451be", "name": "\uad6d\ud654\ud55c\uc2e0\uc544\ud30c\ud2b8 \uac74\ub108\ud3b8(\ud30c\ub9ac\ubc14\uac8c\ud2b8)", "latitude": 36.351145, "longitude": 127.397389, "timestamp": "2025-03-02T14:28:01.224231Z", "free_bikes": 0, "empty_slots": null, "extra": {"uid": "ST1299", "address": "\ub300\uc804\uad11\uc5ed\uc2dc \uc11c\uad6c \ub454\uc0b0\ub3d9 2161"}}, {"id": "03ef69812c055de10c3beff7debef7e0", "name": "\ub3c4\uc548 3\ub2e8\uc9c0 \ud55c\ub77c\ube44\ubc1c\ub514(306\ub3d9)", "latitude": 36.34313, "longitude": 127.333528, "timestamp": "2025-03-02T14:28:01.207155Z", "free_bikes": 0, "empty_slots": null, "extra": {"uid": "ST0214", "address": "\uc0c1\ub300\ub3d9 461-4"}}, {"id": "0415949c964270d47d070bdf0880a013", "name": "\uc1a1\ub9bc\ub9c8\uc744 2\ub2e8\uc9c0(202\ub3d9)", "latitude": 36.387756, "longitude": 127.319703, "timestamp": "2025-03-02T14:28:01.206910Z", "free_bikes": 0, "empty_slots": null, "extra": {"uid": "ST0176", "address": "\ud558\uae30\ub3d9 516"}}, {"id": "05016a6375aa19aa17c8695bebec8bcb", "name": "\ud55c\ub9c8\ub8e8\uc544\ud30c\ud2b85\ub3d9", "latitude": 36.354587, "longitude": 127.390468, "timestamp": "2025-03-02T14:28:01.205773Z", "free_bikes": 2, "empty_slots": null, "extra": {"uid": "ST0007", "address": "\ub454\uc0b0\ub3d9 1388"}}, {"id": "0521390dce4632fcd69e544aa12a11ab", "name": "\uc1a1\ucd0c\ub3d9 \uc9c4\uac00\uc7c1\uc774\uc5b4\ub9b0\uc774\uacf5\uc6d0", "latitude": 36.362892, "longitude": 127.445628, "timestamp": "2025-03-02T14:28:01.221120Z", "free_bikes": 0, "empty_slots": null, "extra": {"uid": "ST0849", "address": "\uc1a1\ucd0c\ub3d9 505-1"}}, {"id": "05303338b9720dd58ba4d1f44f19e955", "name": "\ud0dc\ud3c9\ub3d9 \ud638\uc554\ucee8\ubca4\uc158", "latitude": 36.329596, "longitude": 127.3964, "timestamp": "2025-03-02T14:28:01.218298Z", "free_bikes": 2, "empty_slots": null, "extra": {"uid": "ST0528", "address": "\ud0dc\ud3c9\ub3d9 365-2"}}, {"id": "054973dcc5e04b33f342b4f91a3f4c0f", "name": "\ud0c4\ubc29\uc5ed 4\ubc88\ucd9c\uad6c(\ub300\uc804\uc885\ud569\uace0\uc6a9\uc9c0\uc6d0\uc13c\ud130)(48)", "latitude": 36.346408, "longitude": 127.385243, "timestamp": "2025-03-02T14:28:01.208377Z", "free_bikes": 0, "empty_slots": null, "extra": {"uid": "ST0389", "address": "\ud0c4\ubc29\ub3d9 659"}}, {"id": "057a20650a8ff19c95011a030029c742", "name": "\ub86f\ub370\ud558\uc774\ub9c8\ud2b8 \uc6a9\uc804\uc810(116)", "latitude": 36.355292, "longitude": 127.436636, "timestamp": "2025-03-02T14:28:01.206269Z", "free_bikes": 1, "empty_slots": null, "extra": {"uid": "ST0074", "address": "\uc6a9\uc804\ub3d9 51-17"}}, {"id": "058c1472ecc3f3e46d98e24544d102e5", "name": "\uad6d\uad70\ub300\uc804\ubcd1\uc6d0\uc785\uad6c", "latitude": 36.401944, "longitude": 127.346179, "timestamp": "2025-03-02T14:28:01.223861Z", "free_bikes": 0, "empty_slots": null, "extra": {"uid": "ST1265", "address": "\ub300\uc804\uad11\uc5ed\uc2dc \uc720\uc131\uad6c \uc790\uc6b4\ub3d9 44-1"}}, {"id": "05b31d87372b44a5145963852c2fb98d", "name": "\ud0c4\ubc29\ub3d9 \uacf5\uc601\uc8fc\ucc28\uc7a5", "latitude": 36.345683, "longitude": 127.399695, "timestamp": "2025-03-02T14:28:01.217841Z", "free_bikes": 2, "empty_slots": null, "extra": {"uid": "ST0461", "address": "\ud0c4\ubc29\ub3d9 1380"}}, {"id": "05e6cf320b3a130be3dcc6642008859b", "name": "\uc624\uc815\ub3d9 \ud55c\uc77c\ubc29\uc804", "latitude": 36.352175, "longitude": 127.413985, "timestamp": "2025-03-02T14:28:01.205983Z", "free_bikes": 0, "empty_slots": null, "extra": {"uid": "ST0029", "address": "\uc624\uc815\ub3d9 382-6"}}, {"id": "06742cb09a2b236a1efa294db4df4547", "name": "\ubaa9\ub3d9 \ud55c\uc0ac\ub791\uc544\ud30c\ud2b8 109\ub3d9(247)", "latitude": 36.333186, "longitude": 127.412241, "timestamp": "2025-03-02T14:28:01.206129Z", "free_bikes": 1, "empty_slots": null, "extra": {"uid": "ST0051", "address": "\ubaa9\ub3d9 111-12"}}, {"id": "06b68352afc0af0d42c87d5eb6b46ef1", "name": "\uc0bc\uc131\ub3d9 \ud55c\ubc2d\ube4c\ub77c", "latitude": 36.341626, "longitude": 127.414795, "timestamp": "2025-03-02T14:28:01.206767Z", "free_bikes": 10, "empty_slots": null, "extra": {"uid": "ST0153", "address": "\uc0bc\uc131\ub3d9 343-22"}}, {"id": "06c931f7a9e2156cd706f472e24a5605", "name": "\uc131\uc2ec\ub2f9 DCC\uc810", "latitude": 36.375555, "longitude": 127.392462, "timestamp": "2025-03-02T14:28:01.242727Z", "free_bikes": 2, "empty_slots": null, "extra": {"uid": "ST1401", "address": "\ub300\uc804\uad11\uc5ed\uc2dc \uc720\uc131\uad6c \ub3c4\ub8e1\ub3d9 4-19"}}, {"id": "06e2717f6b5edee76b76a52636d90638", "name": "\ud55c\ubc2d\uc911 \ub124\uac70\ub9ac", "latitude": 36.336281, "longitude": 127.426218, "timestamp": "2025-03-02T14:28:01.242361Z", "free_bikes": 0, "empty_slots": null, "extra": {"uid": "ST1343", "address": "\ub300\uc804\uad11\uc5ed\uc2dc \ub3d9\uad6c \uc0bc\uc131\ub3d9 282-1"}}, {"id": "070bd37ec956494b476dd027fb47fb92", "name": "\ub3c4\uc548 10\ub2e8\uc9c0 \ud734\uba3c\uc2dc\uc544 \uac74\ub108\ud3b8 (1010\ub3d9)(70)", "latitude": 36.338016, "longitude": 127.338472, "timestamp": "2025-03-02T14:28:01.207190Z", "free_bikes": 2, "empty_slots": null, "extra": {"uid": "ST0220", "address": "\uc6d0\uc2e0\ud765\ub3d9 541-1"}}, {"id": "0714ca56bec03202d8b8b254f66ea0ad", "name": "\ub3c4\uc548\uc232\uc18c\uacf5\uc6d0", "latitude": 36.319178, "longitude": 127.342418, "timestamp": "2025-03-02T14:28:01.220502Z", "free_bikes": 0, "empty_slots": null, "extra": {"uid": "ST0783", "address": "\ub3c4\uc548\ub3d9 1354"}}, {"id": "073ae2475e6d15f020ea1f77475b55b9", "name": "\uc911\uad6c\uccad \uc815\ubb38", "latitude": 36.325455, "longitude": 127.422024, "timestamp": "2025-03-02T14:28:01.208049Z", "free_bikes": 1, "empty_slots": null, "extra": {"uid": "ST0353", "address": "\ub300\ud765\ub3d9 499-1"}}, {"id": "074771063ca79090b163b2f1f0be9452", "name": "\ub300\uace0\uc624\uac70\ub9ac \ud53c\uc7902001", "latitude": 36.322846, "longitude": 127.422736, "timestamp": "2025-03-02T14:28:01.218382Z", "free_bikes": 1, "empty_slots": null, "extra": {"uid": "ST0541", "address": "\ub300\ud765\ub3d9 508-88"}}, {"id": "0747bce71fd23cf2be6e4665b9074844", "name": "\uc624\ub958\ub3d9 \ud558\ub098\uc740\ud589", "latitude": 36.326435, "longitude": 127.407365, "timestamp": "2025-03-02T14:28:01.206072Z", "free_bikes": 11, "empty_slots": null, "extra": {"uid": "ST0042", "address": "\uc624\ub958\ub3d9 176-1"}}, {"id": "0748625b24223c9c9081e1898f281926", "name": "\ud55c\ud654\uc194\ub8e8\uc158\uc911\uc559\uc5f0\uad6c\uc18c \uc785\uad6c", "latitude": 36.384776, "longitude": 127.351803, "timestamp": "2025-03-02T14:28:01.206950Z", "free_bikes": 0, "empty_slots": null, "extra": {"uid": "ST0183", "address": "\uc2e0\uc131\ub3d9 6"}}, {"id": "0770bc18356f790c9be9aef2b07b68b9", "name": "\ub9cc\ub144\ub3d9 \uc5d1\uc2a4\ud3ec\uc624\ud53c\uc2a4\ud154", "latitude": 36.367285, "longitude": 127.382452, "timestamp": "2025-03-02T14:28:01.217764Z", "free_bikes": 6, "empty_slots": null, "extra": {"uid": "ST0453", "address": "\ub9cc\ub144\ub3d9 384"}}, {"id": "0783412331ea8c6c67fa9eb843758b2e", "name": "\ub355\uba85\uacf5\uc601\uc8fc\ucc28\uc7a5", "latitude": 36.359446, "longitude": 127.301643, "timestamp": "2025-03-02T14:28:01.219878Z", "free_bikes": 2, "empty_slots": null, "extra": {"uid": "ST0700", "address": "\ub355\uba85\ub3d9 513"}}, {"id": "07b9c02eb8acf89f654084732bc3e81f", "name": "\ub69c\ub808\uc96c\ub974 \ub178\uc740\ud638\ubc18\uc810(\uc9c0\uc871\ub3d9)", "latitude": 36.386935, "longitude": 127.316086, "timestamp": "2025-03-02T14:28:01.223626Z", "free_bikes": 0, "empty_slots": null, "extra": {"uid": "ST1212", "address": "\ub300\uc804\uad11\uc5ed\uc2dc \uc720\uc131\uad6c \uc9c0\uc871\ub3d9 985-2"}}, {"id": "07baa43a03b08fcebe2d0b7f6bf5feee", "name": "\uc2a4\ub9c8\ud2b8\uc2dc\ud2f0(201\ub3d9)(28)", "latitude": 36.37789, "longitude": 127.390647, "timestamp": "2025-03-02T14:28:01.208535Z", "free_bikes": 0, "empty_slots": null, "extra": {"uid": "ST0414", "address": "\ub3c4\ub8e1\ub3d9 4-6"}}, {"id": "07def8a8710cf2deef0adf48535b00f3", "name": "\ub300\uc804\uc131\ubaa8\ubcd1\uc6d0 \uad50\uc218\ud68c\uad00", "latitude": 36.32365, "longitude": 127.419397, "timestamp": "2025-03-02T14:28:01.208056Z", "free_bikes": 0, "empty_slots": null, "extra": {"uid": "ST0354", "address": "\ub300\ud765\ub3d9 524-1"}}, {"id": "08264caa8c84c15a0ef5d3dca0327224", "name": "\ud559\ud558\ub124\uac70\ub9ac \ud559\uc758\ub730 \ubc29\ud5a5 \uc815\ub958\uc7a5", "latitude": 36.340988, "longitude": 127.304846, "timestamp": "2025-03-02T14:28:01.219859Z", "free_bikes": 1, "empty_slots": null, "extra": {"uid": "ST0697", "address": "\uacc4\uc0b0\ub3d9 803-14"}}, {"id": "08530d3ba874a4708f51b3e8e1ae655d", "name": "\ubcc0\ub3d9\ub124\uac70\ub9ac(\ubcf5\uc74c\ucc9c\ud558\uad50\ud68c)(237)", "latitude": 36.324294, "longitude": 127.378474, "timestamp": "2025-03-02T14:28:01.207866Z", "free_bikes": 4, "empty_slots": null, "extra": {"uid": "ST0323", "address": "\ubcc0\ub3d9 60-2"}}, {"id": "0892e9171f94fb6ff17c57e9ad0c0042", "name": "\uc0c8\ub9c8\uc744\uae08\uace0 \ud6a8\ub3d9\uc9c0\uc810", "latitude": 36.316597, "longitude": 127.441154, "timestamp": "2025-03-02T14:28:01.223848Z", "free_bikes": 2, "empty_slots": null, "extra": {"uid": "ST1263", "address": "\ub300\uc804\uad11\uc5ed\uc2dc \ub3d9\uad6c \ud6a8\ub3d9 137-7"}}, {"id": "08f2399ae0d69acd78ef320d6d24edab", "name": "\ucda9\ub0a8\ub300\ud559\uad50 \uc0c1\ub85d\ud68c\uad00 \uc785\uad6c", "latitude": 36.369338, "longitude": 127.351133, "timestamp": "2025-03-02T14:28:01.208154Z", "free_bikes": 0, "empty_slots": null, "extra": {"uid": "ST0369", "address": "\ub300\uc804\uad11\uc5ed\uc2dc \uc720\uc131\uad6c \uc5b4\uc740\ub3d9 216"}}, {"id": "0923e6b43349947b29ee670a9fc8ff9e", "name": "\uc815\ubd80\uccad\uc0ac \uc785\uad6c(\ub0a8\ubb38)", "latitude": 36.359685, "longitude": 127.385324, "timestamp": "2025-03-02T14:28:01.222562Z", "free_bikes": 1, "empty_slots": null, "extra": {"uid": "ST1033", "address": "\ub300\uc804\uad11\uc5ed\uc2dc \uc11c\uad6c \ub454\uc0b0\ub3d9 1517"}}, {"id": "0958e60aefb7d9f908836bec8192736f", "name": "\uad00\uc800LH\ucc9c\ub144\ub098\ubb341\ub2e8\uc9c0\uc544\ud30c\ud2b8 \uc815\ubb38 \uc785\uad6c", "latitude": 36.293739, "longitude": 127.343608, "timestamp": "2025-03-02T14:28:01.220631Z", "free_bikes": 0, "empty_slots": null, "extra": {"uid": "ST0802", "address": "\uad00\uc800\ub3d9 1602"}}, {"id": "09e82264e991350e0d9153d670e6b380", "name": "\ud64d\ub3c4\ub3d9 \uc0c8\ub9c8\uc744\uae08\uace0 \ud64d\ub3c4\uc9c0\uc810", "latitude": 36.346455, "longitude": 127.430473, "timestamp": "2025-03-02T14:28:01.206202Z", "free_bikes": 1, "empty_slots": null, "extra": {"uid": "ST0063", "address": "\ud64d\ub3c4\ub3d9 13-9"}}, {"id": "09fbcc81797489253e61050322e9f414", "name": "\uad81\ub3d9 \ubc84\uc2a4\uc815\ub958\uc7a5(\uc720\uc131\uad6c\uccad \ubc29\ud5a5)", "latitude": 36.360527, "longitude": 127.349743, "timestamp": "2025-03-02T14:28:01.222490Z", "free_bikes": 4, "empty_slots": null, "extra": {"uid": "ST1021", "address": "\ub300\uc804\uad11\uc5ed\uc2dc \uc720\uc131\uad6c \uad81\ub3d9 29-3"}}, {"id": "0a5153102c07bb4e77c2ca789177c66f", "name": "\ub2e4\uc628\uc2323\ub2e8\uc9c0\uc544\ud30c\ud2b8 312\ub3d9 \uac74\ub108\ud3b8", "latitude": 36.293727, "longitude": 127.340468, "timestamp": "2025-03-02T14:28:01.220644Z", "free_bikes": 0, "empty_slots": null, "extra": {"uid": "ST0804", "address": "\uad00\uc800\ub3d9 1594"}}, {"id": "0a76b40fc3f8912d03924ce7001361ac", "name": "\ud30c\ub791\uc0c8\uc544\ud30c\ud2b8 \ub3d9\uce21\uc785\uad6c", "latitude": 36.356859, "longitude": 127.376464, "timestamp": "2025-03-02T14:28:01.206425Z", "free_bikes": 1, "empty_slots": null, "extra": {"uid": "ST0099", "address": "\ub454\uc0b0\ub3d9 956"}}, {"id": "0a8a8441b58012ea6c6313fa92db8ba5", "name": "\ucda9\ub0a8\ub300\ud559\uad50(\uc628\ucc9c\uad50 \ubc29\uba74)", "latitude": 36.360638, "longitude": 127.34379, "timestamp": "2025-03-02T14:28:01.220388Z", "free_bikes": 7, "empty_slots": null, "extra": {"uid": "ST0765", "address": "\uad81\ub3d9 480-6"}}, {"id": "0abd8b4251bc3d9bd2aedfa8088af9d4", "name": "\ub300\uc804\uadfc\ub85c\uc790\uc885\ud569\ubcf5\uc9c0\ud68c\uad00", "latitude": 36.354377, "longitude": 127.382757, "timestamp": "2025-03-02T14:28:01.222852Z", "free_bikes": 0, "empty_slots": null, "extra": {"uid": "ST1080", "address": "\ub300\uc804\uad11\uc5ed\uc2dc \uc11c\uad6c \ub454\uc0b0\ub3d9 1542"}}, {"id": "0aeda380b9a042b5a73381cbe6f38556", "name": "\ud0dc\ud3c9\ub3d9 \ud478\ub978\ubafc\uc544\ud30c\ud2b8 \ubc84\uc2a4\uc815\ub958\uc7a5(\uacf0\ubc14\uc6b0\uc2dd\ub2f9)", "latitude": 36.328537, "longitude": 127.398862, "timestamp": "2025-03-02T14:28:01.218264Z", "free_bikes": 0, "empty_slots": null, "extra": {"uid": "ST0523", "address": "\ud0dc\ud3c9\ub3d9 339-31"}}, {"id": "0b321302658db77a8094ce25fe6ac5dc", "name": "\uad00\ud3c9\ub3d9 \ud55c\ud654\uafc8\uc5d0\uadf8\ub9b0 1016\ub3d9 \uc55e", "latitude": 36.420833, "longitude": 127.393783, "timestamp": "2025-03-02T14:28:01.224082Z", "free_bikes": 2, "empty_slots": null, "extra": {"uid": "ST1269", "address": "\ub300\uc804\uad11\uc5ed\uc2dc \uc720\uc131\uad6c \uad00\ud3c9\ub3d9 1280"}}, {"id": "0b59be9aec33b614522894492a93de61", "name": "\ub0a8\ub300\uc804\ub4f1\uae30\uc18c (\ub300\uc804\uc9c0\ubc29\ubc95\uc6d0)", "latitude": 36.310285, "longitude": 127.440278, "timestamp": "2025-03-02T14:28:01.208029Z", "free_bikes": 2, "empty_slots": null, "extra": {"uid": "ST0349", "address": "\uc11d\uad50\ub3d9 8-10"}}, {"id": "0bf20bfbc03894c21836a7a2c3f33eac", "name": "\uc1a1\uac15\ub3d9 \uadf8\ub9b0\uc544\ud30c\ud2b8(318\ub3d9)", "latitude": 36.430354, "longitude": 127.383071, "timestamp": "2025-03-02T14:28:01.221651Z", "free_bikes": 0, "empty_slots": null, "extra": {"uid": "ST0938", "address": "\uc1a1\uac15\ub3d9 199"}}, {"id": "0bf8e3dc9ac74b4072684fc2d3895f77", "name": "\ub300\uc804\ud3c9\uc0dd\uad50\uc721\uc9c4\ud765\uc6d0 \ubcf8\uad00", "latitude": 36.327708, "longitude": 127.419157, "timestamp": "2025-03-02T14:28:01.208606Z", "free_bikes": 0, "empty_slots": null, "extra": {"uid": "ST0424", "address": "\uc120\ud654\ub3d9 287-2"}}, {"id": "0bfb64456834535aa48c9a1537f0b8bf", "name": "\uc11c\ub300\uc804\uc5ed 7\ubc88\ucd9c\uad6c", "latitude": 36.322234, "longitude": 127.413078, "timestamp": "2025-03-02T14:28:01.218194Z", "free_bikes": 0, "empty_slots": null, "extra": {"uid": "ST0513", "address": "\ub300\uc804\uad11\uc5ed\uc2dc \uc911\uad6c \ubb38\ud654\ub3d9 1-18"}}, {"id": "0c4c15678270523f8caab64dc61a5ba2", "name": "\uc0bc\uc131\ub3d9 \uc8fc\uacf5\uc0bc\uc131\ud0c0\uc6b4(202\ub3d9)", "latitude": 36.341155, "longitude": 127.432565, "timestamp": "2025-03-02T14:28:01.219405Z", "free_bikes": 2, "empty_slots": null, "extra": {"uid": "ST0626", "address": "\ub300\uc804\uad11\uc5ed\uc2dc \ub3d9\uad6c \uc0bc\uc131\ub3d9 481"}}, {"id": "0c58b18f670c832df335b7d8a12fc4e8", "name": "\ub3c4\ubbf8\ub178\ud53c\uc790 \ub300\uc804\ub3c4\uc548\uc810", "latitude": 36.307266, "longitude": 127.352055, "timestamp": "2025-03-02T14:28:01.217856Z", "free_bikes": 1, "empty_slots": null, "extra": {"uid": "ST0463", "address": "\uac00\uc218\uc6d0\ub3d9 229-5"}}, {"id": "0ca67cffae4bb1103b269bfe281fafbe", "name": "\uc2e0\uc77c\ub3d9 \uc0bc\uc591\ud328\ud0a4\uc9d5 \ub300\uc8042\uacf5\uc7a5 \uc815\ub958\uc7a5", "latitude": 36.444337, "longitude": 127.404176, "timestamp": "2025-03-02T14:28:01.206722Z", "free_bikes": 0, "empty_slots": null, "extra": {"uid": "ST0146", "address": "\uc2e0\uc77c\ub3d9 1685-3"}}, {"id": "0cdc8ae2aa2916b7e5e84a5238624893", "name": "\ud55c\ubc2d\ub300\ud559\uad50 \uac74\uc124\uacf5\ud559\uad00 \uc785\uad6c", "latitude": 36.348598, "longitude": 127.301244, "timestamp": "2025-03-02T14:28:01.208272Z", "free_bikes": 0, "empty_slots": null, "extra": {"uid": "ST0372", "address": "\ub355\uba85\ub3d9 16-1"}}, {"id": "0d1b132a2e1cecdf8c024b99dc7a3c61", "name": "\uc624\uc815\ub124\uac70\ub9ac(\ub300\ud654\uc911 \ubc29\uba74)", "latitude": 36.358904, "longitude": 127.415425, "timestamp": "2025-03-02T14:28:01.207656Z", "free_bikes": 1, "empty_slots": null, "extra": {"uid": "ST0291", "address": "\uc624\uc815\ub3d9 64-15"}}, {"id": "0d39bea3ddb7ac2883a4cafc18e2da4e", "name": "\ub18d\ud611\uc911\uc559\ud68c \ub300\uc804\ubcf8\ubd80", "latitude": 36.32766, "longitude": 127.422702, "timestamp": "2025-03-02T14:28:01.219767Z", "free_bikes": 0, "empty_slots": null, "extra": {"uid": "ST0682", "address": "\ub300\uc804\uad11\uc5ed\uc2dc \uc911\uad6c \uc120\ud654\ub3d9 227"}}, {"id": "0d4fe34486e0b6751b823aba8cc3ef37", "name": "\uad00\uc800\ub3d9 \uc2e0\uc120\ub9c8\uc744 \uc815\ub958\uc7a5(213\ub3d9, 33450)", "latitude": 36.300288, "longitude": 127.334645, "timestamp": "2025-03-02T14:28:01.207480Z", "free_bikes": 0, "empty_slots": null, "extra": {"uid": "ST0265", "address": "\uad00\uc800\ub3d9 1130"}}, {"id": "0d9cf2148fe28be341e5e273338e6070", "name": "\ud55c\ubc2d\uc218\ubaa9\uc6d0(\ub3d9\uc6d0)", "latitude": 36.369245, "longitude": 127.388462, "timestamp": "2025-03-02T14:28:01.222522Z", "free_bikes": 2, "empty_slots": null, "extra": {"uid": "ST1027", "address": "\ub300\uc804\uad11\uc5ed\uc2dc \uc11c\uad6c \ub9cc\ub144\ub3d9 396"}}, {"id": "0dee97f27108198b1cef021db18dff7b", "name": "\ubd09\uba85\ub3d9 \ud638\ud154\uc778\ud130\uc2dc\ud2f0", "latitude": 36.354465, "longitude": 127.347672, "timestamp": "2025-03-02T14:28:01.207071Z", "free_bikes": 7, "empty_slots": null, "extra": {"uid": "ST0201", "address": "\ubd09\uba85\ub3d9 545-5"}}, {"id": "0e98a1912497af4938317da5108136bc", "name": "\uce74\uc774\uc2a4\ud2b8 \ucc3d\uc758\ud559\uc2b5\uad00(22)", "latitude": 36.370226, "longitude": 127.36215, "timestamp": "2025-03-02T14:28:01.208293Z", "free_bikes": 2, "empty_slots": null, "extra": {"uid": "ST0375", "address": "\uad6c\uc131\ub3d9 23"}}, {"id": "0f594fd822ee93e74065e0a74ffcc0a3", "name": "\uc218\uc815\ud0c0\uc6b4\uc544\ud30c\ud2b8 \uc0c1\uac00", "latitude": 36.359179, "longitude": 127.395393, "timestamp": "2025-03-02T14:28:01.208705Z", "free_bikes": 2, "empty_slots": null, "extra": {"uid": "ST0442", "address": "\ub454\uc0b0\ub3d9 909"}}, {"id": "0f6a79c86aa45bb8a102ebd1e134eaad", "name": "\uc624\uc815\ub3d9 374-2", "latitude": 36.352994, "longitude": 127.414508, "timestamp": "2025-03-02T14:28:01.223356Z", "free_bikes": 0, "empty_slots": null, "extra": {"uid": "ST1162", "address": "\ub300\uc804\uad11\uc5ed\uc2dc \ub300\ub355\uad6c \uc624\uc815\ub3d9 374-2"}}, {"id": "0fa1dc672e923c63d1c9ec09de59a282", "name": "\ud0c4\ubc29\ub3d9 \uc870\uc774\ubcd1\uc6d0", "latitude": 36.343428, "longitude": 127.385221, "timestamp": "2025-03-02T14:28:01.242663Z", "free_bikes": 3, "empty_slots": null, "extra": {"uid": "ST1391", "address": "\ub300\uc804\uad11\uc5ed\uc2dc \uc11c\uad6c \ud0c4\ubc29\ub3d9 673"}}, {"id": "0fea4ee36357eab707c5bf4a54c009ac", "name": "\ud0dc\ud3c9\ub3d9 \ubc84\ub4dc\ub0b41\ub2e8\uc9c0\uc544\ud30c\ud2b8 \uc785\uad6c", "latitude": 36.316311, "longitude": 127.388576, "timestamp": "2025-03-02T14:28:01.221287Z", "free_bikes": 5, "empty_slots": null, "extra": {"uid": "ST0875", "address": "\ud0dc\ud3c9\ub3d9 422-7"}}, {"id": "10128563006c34441993521c1904f500", "name": "\uc0bc\uc131\ub3d9 \ud55c\ubc2d\uc790\uc774\uc544\ud30c\ud2b8 \uc815\ubb38 \uac74\ub108\ud3b8", "latitude": 36.341018, "longitude": 127.425788, "timestamp": "2025-03-02T14:28:01.219519Z", "free_bikes": 2, "empty_slots": null, "extra": {"uid": "ST0644", "address": "\uc0bc\uc131\ub3d9 304-12"}}, {"id": "1025c3e6146aa9a7d3441dbb9fbfa637", "name": "LG\uc720\ud50c\ub7ec\uc2a4 \ub300\uc804\uc624\ub958\uc0ac\uc625 \uc815\ub958\uc7a5", "latitude": 36.330056, "longitude": 127.402976, "timestamp": "2025-03-02T14:28:01.220199Z", "free_bikes": 2, "empty_slots": null, "extra": {"uid": "ST0734", "address": "\uc624\ub958\ub3d9 188-24"}}, {"id": "10629fc37767540ca96b4483104f4ab8", "name": "\ub3c4\ub9c8\ub3d9 \ub760\uc6b8\uc11d\uac08\ube44 \uc815\ub958\uc7a5", "latitude": 36.310334, "longitude": 127.372706, "timestamp": "2025-03-02T14:28:01.221336Z", "free_bikes": 0, "empty_slots": null, "extra": {"uid": "ST0883", "address": "\ub3c4\ub9c8\ub3d9 312-198"}}, {"id": "1063f557bc7d9c92877eb928521c8e2b", "name": "\uc624\uc815\ub124\uac70\ub9ac(\ud55c\ub0a8\ub300\ud559\uad50 \ubc29\uba74)", "latitude": 36.358422, "longitude": 127.415779, "timestamp": "2025-03-02T14:28:01.220827Z", "free_bikes": 0, "empty_slots": null, "extra": {"uid": "ST0833", "address": "\uc624\uc815\ub3d9 390-1"}}, {"id": "1065bdc1a7d43491a4a942dce0f60e5d", "name": "\uc1a1\ucd0c\ub3d9 \uc120\ube44\ub9c8\uc744 2\ub2e8\uc9c0(202\ub3d9)", "latitude": 36.369146, "longitude": 127.440214, "timestamp": "2025-03-02T14:28:01.221957Z", "free_bikes": 1, "empty_slots": null, "extra": {"uid": "ST0963", "address": "\uc1a1\ucd0c\ub3d9 444"}}, {"id": "108ac8cd01f3537f33b002951929d8d5", "name": "\uac00\uc591\ub3d9 \ud61c\uc131\ube4c", "latitude": 36.350051, "longitude": 127.451832, "timestamp": "2025-03-02T14:28:01.222240Z", "free_bikes": 0, "empty_slots": null, "extra": {"uid": "ST0979", "address": "\uac00\uc591\ub3d9 671"}}, {"id": "112a28239d49592d1e745b2b0e819f85", "name": "\ud604\ub300\uc790\ub3d9\ucc28\ube14\ub8e8\ud578\uc988 \ub454\uc0b0\ub3d9\ubd80\uc810", "latitude": 36.345914, "longitude": 127.381544, "timestamp": "2025-03-02T14:28:01.208390Z", "free_bikes": 1, "empty_slots": null, "extra": {"uid": "ST0391", "address": "\ub454\uc0b0\ub3d9 1241"}}, {"id": "1154d449ef65ea56af960fb95720c729", "name": "\uc2dc\uad50\uc721\uccad\uc606 \ud658\uc2b9\uc9c0 ", "latitude": 36.352696, "longitude": 127.384495, "timestamp": "2025-03-02T14:28:01.208127Z", "free_bikes": 0, "empty_slots": null, "extra": {"uid": "ST0365", "address": "\ub454\uc0b0\ub3d9 1294"}}, {"id": "1161478d9e6abab76d65718806b33672", "name": "\ud310\uc554\ub3d9 \uc8fc\uacf54\ucc28\uc544\ud30c\ud2b8(405\ub3d9)", "latitude": 36.321296, "longitude": 127.458941, "timestamp": "2025-03-02T14:28:01.219330Z", "free_bikes": 0, "empty_slots": null, "extra": {"uid": "ST0613", "address": "\ub300\uc804\uad11\uc5ed\uc2dc \ub3d9\uad6c \ud310\uc554\ub3d9 242"}}, {"id": "117b5a2f31820f42a6f6da309eac44ca", "name": "\uc120\ud654\ucc38\uc88b\uc740\uc544\ud30c\ud2b8(\uc720\uc548\ud0c0\uc99d\uad8c)(142)", "latitude": 36.331735, "longitude": 127.422352, "timestamp": "2025-03-02T14:28:01.206122Z", "free_bikes": 0, "empty_slots": null, "extra": {"uid": "ST0050", "address": "\uc120\ud654\ub3d9 83-1"}}, {"id": "12077ae319c28e3fe1214d0a545322c9", "name": "\uc911\ucd0c\ub3d9 \ud589\uc815\ubcf5\uc9c0\uc13c\ud130 \uc815\ub958\uc7a5", "latitude": 36.338785, "longitude": 127.413075, "timestamp": "2025-03-02T14:28:01.222833Z", "free_bikes": 3, "empty_slots": null, "extra": {"uid": "ST1076", "address": "\ub300\uc804\uad11\uc5ed\uc2dc \uc911\uad6c \uc911\ucd0c\ub3d9 462"}}, {"id": "12892beded5e38bf29c40b5f94507984", "name": "\ub290\ub9ac\uc6b8\uc911\ub124\uac70\ub9ac(239)", "latitude": 36.29637, "longitude": 127.340762, "timestamp": "2025-03-02T14:28:01.207387Z", "free_bikes": 5, "empty_slots": null, "extra": {"uid": "ST0250", "address": "\uad00\uc800\ub3d9 1482"}}, {"id": "12a314580145cd4a7ad801b3fbba7960", "name": "\ub355\uc554\ub3d9\ud589\uc815\ubcf5\uc9c0\uc13c\ud130", "latitude": 36.44008, "longitude": 127.42703, "timestamp": "2025-03-02T14:28:01.221214Z", "free_bikes": 1, "empty_slots": null, "extra": {"uid": "ST0863", "address": "\ub355\uc554\ub3d9 48-2"}}, {"id": "130779c44d75843cefdd6aab139cfbe2", "name": "\uc624\uc815\ub3d9 \uc131\uc9c4\uc8fc\ud0dd ", "latitude": 36.354754, "longitude": 127.416023, "timestamp": "2025-03-02T14:28:01.220834Z", "free_bikes": 2, "empty_slots": null, "extra": {"uid": "ST0834", "address": "\uc624\uc815\ub3d9 359"}}, {"id": "130cf816f7df7107d9777e9dfafe131c", "name": "\uc911\ucd0c\ub3d9 115-5\ubc88\uc9c0(\ub300\uc804\ucc9c\uc11c\ub85c)", "latitude": 36.339571, "longitude": 127.413904, "timestamp": "2025-03-02T14:28:01.217827Z", "free_bikes": 0, "empty_slots": null, "extra": {"uid": "ST0457", "address": "\uc911\ucd0c\ub3d9 8-1"}}, {"id": "132c6a84c92ec8d735da1f630fe9ff3c", "name": "\ub178\uc740\uc5ed 1\ubc88\ucd9c\uad6c", "latitude": 36.373263, "longitude": 127.317652, "timestamp": "2025-03-02T14:28:01.207945Z", "free_bikes": 0, "empty_slots": null, "extra": {"uid": "ST0335", "address": "\uc9c0\uc871\ub3d9 894-2"}}, {"id": "133773cd2c8556a172f9d4dae802c7c9", "name": "\uac74\uc591\ub300\ubcd1\uc6d0\ub124\uac70\ub9ac(\ub9ac\uc288\ube4c110\ub3d9)", "latitude": 36.302124, "longitude": 127.340835, "timestamp": "2025-03-02T14:28:01.207448Z", "free_bikes": 0, "empty_slots": null, "extra": {"uid": "ST0260", "address": "\ub300\uc804\uad11\uc5ed\uc2dc \uc11c\uad6c \uad00\uc800\ub3d9 1433"}}, {"id": "13a2e9f95f459b0d1f834eaec327982f", "name": "\ud55c\uac00\ub78c\ub124\uac70\ub9ac \uc0bc\uc131\ub514\uc9c0\ud138\ud504\ub77c\uc790", "latitude": 36.346524, "longitude": 127.389871, "timestamp": "2025-03-02T14:28:01.208397Z", "free_bikes": 1, "empty_slots": null, "extra": {"uid": "ST0392", "address": "\ud0c4\ubc29\ub3d9 792"}}, {"id": "13bdaed2af75492cf96028388b181f09", "name": "\uc740\ud558\uc218\ub124\uac70\ub9ac \uc815\ub958\uc7a5(\ud30c\ub791\uc0c8\ub124\uac70\ub9ac\ubc29\uba74)", "latitude": 36.349987, "longitude": 127.377947, "timestamp": "2025-03-02T14:28:01.242657Z", "free_bikes": 1, "empty_slots": null, "extra": {"uid": "ST1390", "address": "\ub300\uc804\uad11\uc5ed\uc2dc \uc11c\uad6c \ub454\uc0b0\ub3d9 1163"}}, {"id": "140505303273767b6e4d73bb8636932b", "name": "\ube44\ub798\ub3d9 \uc0b0\ub9bc\uc870\ud569(\ube44\ub798\ud734\ud50c\ub7ec\uc2a4\uc544\ud30c\ud2b8 104\ub3d9)(185)", "latitude": 36.355158, "longitude": 127.445896, "timestamp": "2025-03-02T14:28:01.219562Z", "free_bikes": 1, "empty_slots": null, "extra": {"uid": "ST0651", "address": "\ube44\ub798\ub3d9 509-1"}}, {"id": "141a366311f4a4d312b7f469161eaff9", "name": "\uc624\uc815\ub3d9 \uc624\uc815\uc2e0\uc6a9\ud611\ub3d9\uc870\ud569", "latitude": 36.348127, "longitude": 127.415345, "timestamp": "2025-03-02T14:28:01.219649Z", "free_bikes": 0, "empty_slots": null, "extra": {"uid": "ST0665", "address": "\uc624\uc815\ub3d9 372-4"}}, {"id": "1463196db59a181876463cd77f3543f4", "name": "\ub3c4\ub9c8\ub3d9 \uacf5\uad74\uc548 \uc815\ub958\uc7a5(\ubcf5\uc74c\uc591\uc9c0\uc544\ud30c\ud2b8 \ubc29\uba74)", "latitude": 36.313298, "longitude": 127.369122, "timestamp": "2025-03-02T14:28:01.218586Z", "free_bikes": 0, "empty_slots": null, "extra": {"uid": "ST0570", "address": "\ub3c4\ub9c8\ub3d9 317-548"}}, {"id": "149c7adfc66c2bf021868f50eb14b61e", "name": "\uad00\uc800\ub3d9 \ub300\uc790\uc5f0\ub9c8\uc744 \uac74\ub108\ud3b8(107\ub3d9)", "latitude": 36.307644, "longitude": 127.336623, "timestamp": "2025-03-02T14:28:01.207595Z", "free_bikes": 1, "empty_slots": null, "extra": {"uid": "ST0282", "address": "\uad00\uc800\ub3d9 1829"}}, {"id": "14df73be9f5ec991993bb21a38960a63", "name": "\ub3c4\uc548 1\ub2e8\uc9c0 \ud734\uba3c\uc2dc\uc544(101\ub3d9)", "latitude": 36.351894, "longitude": 127.343572, "timestamp": "2025-03-02T14:28:01.207091Z", "free_bikes": 1, "empty_slots": null, "extra": {"uid": "ST0204", "address": "\ubd09\uba85\ub3d9 1025-1"}}, {"id": "156f6b2090a8ad045d68aeb99d938315", "name": "\ubaa9\ub3d9\ub354\uc0f5\ub9ac\uc288\ube4c \uc815\ubb38", "latitude": 36.333444, "longitude": 127.41473, "timestamp": "2025-03-02T14:28:01.208424Z", "free_bikes": 1, "empty_slots": null, "extra": {"uid": "ST0396", "address": "\ubaa9\ub3d9 1-95"}}, {"id": "15817e5bb352cee9d8906712b87ca7f4", "name": "\ub3c4\uc548 11\ub2e8\uc9c0 \ucc9c\ub144\ub098\ubb34 11\ub2e8\uc9c0(1104\ub3d9)", "latitude": 36.341765, "longitude": 127.34705, "timestamp": "2025-03-02T14:28:01.207250Z", "free_bikes": 3, "empty_slots": null, "extra": {"uid": "ST0229", "address": "\uc6d0\uc2e0\ud765\ub3d9 511"}}, {"id": "158fbb9d637e3f26041ea19293a96262", "name": "\ub86f\ub370\ub9c8\ud2b8\ub300\ub355\uc810(\uad00\ud3c9\uc911\ud559\uad50 \ubc29\uba74) \uc815\ub958\uc7a5", "latitude": 36.426897, "longitude": 127.38951, "timestamp": "2025-03-02T14:28:01.206748Z", "free_bikes": 4, "empty_slots": null, "extra": {"uid": "ST0150", "address": "\uad00\ud3c9\ub3d9 807"}}, {"id": "15e0312fd56a539162fc823c37fb30b6", "name": "\ud604\ub300\uc544\uc774\ud154(\uc2dc\uccad\uc5ed 6\ubc88\ucd9c\uad6c)(19)", "latitude": 36.351418, "longitude": 127.388051, "timestamp": "2025-03-02T14:28:01.208352Z", "free_bikes": 2, "empty_slots": null, "extra": {"uid": "ST0385", "address": "\ub454\uc0b0\ub3d9 1455"}}, {"id": "15fe3ecf34e60fe906641efdee76fb6d", "name": "\uc11d\ubd09\ub3d9 \ubd09\uc8fc\ub974\uce74\uc6b4\ud2f0(A\ub3d9)", "latitude": 36.447729, "longitude": 127.421224, "timestamp": "2025-03-02T14:28:01.206492Z", "free_bikes": 0, "empty_slots": null, "extra": {"uid": "ST0109", "address": "\uc11d\ubd09\ub3d9 310-1"}}, {"id": "16ac2cbeba9cdf2d09ec749def747563", "name": "\ub178\uc740\uce74\uc6b4\ud2f0\uc2a4(103\ub3d9)", "latitude": 36.370716, "longitude": 127.315502, "timestamp": "2025-03-02T14:28:01.221436Z", "free_bikes": 0, "empty_slots": null, "extra": {"uid": "ST0898", "address": "\ub178\uc740\ub3d9 495"}}, {"id": "16dc515c431db893e1ec136ebad6f048", "name": "\ucda9\ubb34\ub85c\ub124\uac70\ub9ac(\ub9e5\ub3c4\ub0a0\ub4dc)", "latitude": 36.319591, "longitude": 127.431822, "timestamp": "2025-03-02T14:28:01.242533Z", "free_bikes": 0, "empty_slots": null, "extra": {"uid": "ST1371", "address": "\ub300\uc804\uad11\uc5ed\uc2dc \uc911\uad6c \ubd80\uc0ac\ub3d9 87-10"}}, {"id": "1754cf0cd2a42e8c37c8d3c70a21937c", "name": "\uc6a9\uc6b4\uc885\ud569\uc0ac\ud68c\ubcf5\uc9c0\uad00 \ub9de\uc740\ud3b8", "latitude": 36.32791, "longitude": 127.454363, "timestamp": "2025-03-02T14:28:01.219337Z", "free_bikes": 1, "empty_slots": null, "extra": {"uid": "ST0615", "address": "\uc6a9\uc6b4\ub3d9 459"}}, {"id": "17d430c0bb111d8a07bb8590c54c7f77", "name": "\uc7a5\ub300\uacbd\ub85c\ub2f9", "latitude": 36.358896, "longitude": 127.335469, "timestamp": "2025-03-02T14:28:01.218024Z", "free_bikes": 1, "empty_slots": null, "extra": {"uid": "ST0488", "address": "\uc7a5\ub300\ub3d9 279-4"}}, {"id": "181387f9ea911ae08579614edb90ab8d", "name": "\uc8fd\ub3d9 \ud30c\uc2a4\ucfe0\ucc0c", "latitude": 36.368872, "longitude": 127.339351, "timestamp": "2025-03-02T14:28:01.221396Z", "free_bikes": 1, "empty_slots": null, "extra": {"uid": "ST0892", "address": "\uc8fd\ub3d9 709-1"}}, {"id": "184326d0c2b1851832b52496ae8fa777", "name": "\uc0b0\uc131\ub3d9 \uc8fc\uc6d0\uad50\ud68c \uac74\ub108\ud3b8", "latitude": 36.295903, "longitude": 127.386592, "timestamp": "2025-03-02T14:28:01.221555Z", "free_bikes": 0, "empty_slots": null, "extra": {"uid": "ST0922", "address": "\uc0ac\uc815\ub3d9 517"}}, {"id": "185d09efd5350ee23b2bbc3b7d497fae", "name": "\uac00\uc5911\ub3d9 \ud589\uc815\ubcf5\uc9c0\uc13c\ud130", "latitude": 36.346923, "longitude": 127.441359, "timestamp": "2025-03-02T14:28:01.219692Z", "free_bikes": 1, "empty_slots": null, "extra": {"uid": "ST0671", "address": "\uac00\uc591\ub3d9 432-9"}}, {"id": "186f2f03dcdb686cce5c767f5a559365", "name": "\ucc9c\ub3d9 \uc704\ub4dc\ud790\uc544\ud30c\ud2b8 \uc0c1\uac00", "latitude": 36.316778, "longitude": 127.443035, "timestamp": "2025-03-02T14:28:01.206180Z", "free_bikes": 0, "empty_slots": null, "extra": {"uid": "ST0058", "address": "\ub300\uc804\uad11\uc5ed\uc2dc \ub3d9\uad6c \ucc9c\ub3d9 540"}}, {"id": "187304e7607a0de6d4a012a1ab4987ce", "name": "\ubcf4\ubb38\uc0b0 \uacf5\uc601\uc8fc\ucc28\uc7a5", "latitude": 36.311962, "longitude": 127.420543, "timestamp": "2025-03-02T14:28:01.206093Z", "free_bikes": 1, "empty_slots": null, "extra": {"uid": "ST0046", "address": "\ub300\uc0ac\ub3d9 197-214"}}, {"id": "18860bb0b7b093c37491ccfc1c2236fa", "name": "\ud55c\uc9c4\uc624\ud53c\uc2a4\ud154(57)", "latitude": 36.357899, "longitude": 127.342711, "timestamp": "2025-03-02T14:28:01.208471Z", "free_bikes": 5, "empty_slots": null, "extra": {"uid": "ST0404", "address": "\ubd09\uba85\ub3d9 607-3"}}, {"id": "1917d0da413ff2b118b5f92d3dd95b9a", "name": "\ub178\uc7403\uc9c0\uad6c \ub178\uc740\uc0c8\ubbf8\ub798\uc232 2\ub2e8\uc9c0(201\ub3d9)", "latitude": 36.381316, "longitude": 127.30247, "timestamp": "2025-03-02T14:28:01.206852Z", "free_bikes": 0, "empty_slots": null, "extra": {"uid": "ST0167", "address": "\uc9c0\uc871\ub3d9 1042"}}, {"id": "19217feb2788be73a025aca0e01e6925", "name": "\uc0c1\uc11c\ub3d9 \ub300\ucc3d\uc544\ud30c\ud2b8 \uc785\uad6c", "latitude": 36.425959, "longitude": 127.425862, "timestamp": "2025-03-02T14:28:01.207768Z", "free_bikes": 0, "empty_slots": null, "extra": {"uid": "ST0308", "address": "\uc0c1\uc11c\ub3d9 141"}}, {"id": "19332e176505ee6af2beb2843cd24fb2", "name": "\uc5f0\uad6c\ub2e8\uc9c0\uc6b4\ub3d9\uc7a5 \uac74\ub108\ud3b8(160)", "latitude": 36.38554, "longitude": 127.353689, "timestamp": "2025-03-02T14:28:01.206963Z", "free_bikes": 1, "empty_slots": null, "extra": {"uid": "ST0185", "address": "\uc2e0\uc131\ub3d9 118-41"}}, {"id": "1966f49c9623544c906f4722285f6070", "name": "\uad6c\ubd09\ub9c8\uc744 7\ub2e8\uc9c0 703\ub3d9", "latitude": 36.297738, "longitude": 127.329542, "timestamp": "2025-03-02T14:28:01.223689Z", "free_bikes": 0, "empty_slots": null, "extra": {"uid": "ST1224", "address": "\ub300\uc804\uad11\uc5ed\uc2dc \uc11c\uad6c \uad00\uc800\ub3d9 1167"}}, {"id": "1990ceb3272529a8a67814ba22732111", "name": "\ubb38\ud654\ub3d9 \uc13c\ud2b8\ub7f4\ud30c\ud06c 2\ub2e8\uc9c0(209\ub3d9)", "latitude": 36.316509, "longitude": 127.409984, "timestamp": "2025-03-02T14:28:01.218243Z", "free_bikes": 0, "empty_slots": null, "extra": {"uid": "ST0520", "address": "\ubb38\ud654\ub3d9 1-253"}}, {"id": "19940ae5496ffa392fe4630a8095e14a", "name": "\uc815\ub9bc\ub3d9 \uc6b0\uc131\uc544\ud30c\ud2b8 1\ucc28 \uac74\ub108\ud3b8(117\ub3d9)", "latitude": 36.30394, "longitude": 127.365945, "timestamp": "2025-03-02T14:28:01.207630Z", "free_bikes": 3, "empty_slots": null, "extra": {"uid": "ST0287", "address": "\uc815\ub9bc\ub3d9 635"}}, {"id": "1996c4ef6ffffac1e42ac9629de3827f", "name": "\uc6a9\uc0b0\ub3d9 \ud638\ubc18\uc368\ubc0b(401\ub3d9)", "latitude": 36.414349, "longitude": 127.393063, "timestamp": "2025-03-02T14:28:01.223632Z", "free_bikes": 0, "empty_slots": null, "extra": {"uid": "ST1213", "address": "\ub300\uc804\uad11\uc5ed\uc2dc \uc720\uc131\uad6c \uc6a9\uc0b0\ub3d9 24-10"}}, {"id": "19d2966e45f86d45808f8c8ff29e6694", "name": "\ud310\uc554\ub124\uac70\ub9ac/\ud310\uc554\uc9c0\uad6c\ub300 \uc815\ub958\uc7a5", "latitude": 36.317943, "longitude": 127.46184, "timestamp": "2025-03-02T14:28:01.242217Z", "free_bikes": 1, "empty_slots": null, "extra": {"uid": "ST1321", "address": "\ub300\uc804\uad11\uc5ed\uc2dc \ub3d9\uad6c \ud310\uc554\ub3d9 351-2"}}, {"id": "19dbc72d8434c1dd000ff6eb14868c61", "name": "\uc1a1\ucd0c\ub300\uc591 \uacf5\uc601\uc8fc\ucc28\uc7a5 \uc815\ub958\uc7a5", "latitude": 36.36266, "longitude": 127.438826, "timestamp": "2025-03-02T14:28:01.207775Z", "free_bikes": 0, "empty_slots": null, "extra": {"uid": "ST0309", "address": "\uc1a1\ucd0c\ub3d9 487-1"}}, {"id": "19e35d6392fec9a032a001c6de565177", "name": "\ubb38\ucc3d\ub3d9 \ud589\uc815\ubcf5\uc9c0\uc13c\ud130 \uac74\ub108\ud3b8(\uacbd\ub85c\ub2f9)", "latitude": 36.316141, "longitude": 127.43769, "timestamp": "2025-03-02T14:28:01.218469Z", "free_bikes": 0, "empty_slots": null, "extra": {"uid": "ST0554", "address": "\ubb38\ucc3d\ub3d9 116-15"}}, {"id": "19ebbf1897e20945c3bb4a0ab37a412f", "name": "\ub178\uc7401\ub3d9 \ud589\uc815\ubcf5\uc9c0\uc13c\ud130(199)", "latitude": 36.368054, "longitude": 127.318101, "timestamp": "2025-03-02T14:28:01.207926Z", "free_bikes": 0, "empty_slots": null, "extra": {"uid": "ST0332", "address": "\ub178\uc740\ub3d9 546"}}, {"id": "1a07e7d30ef6ce4dd495799888cc2c40", "name": "\uacfc\uc120\uad50 \ubc84\uc2a4\uc815\ub958\uc7a5(128)", "latitude": 36.442446, "longitude": 127.429604, "timestamp": "2025-03-02T14:28:01.205975Z", "free_bikes": 3, "empty_slots": null, "extra": {"uid": "ST0027", "address": "\uc2e0\ud0c4\uc9c4\ub3d9 295-191"}}, {"id": "1a0f47f3161da16253e91e61736e9518", "name": "\uc6a9\uc0b0\ub3d9 \ud638\ubc18\uc368\ubc0b \ud6c4\ubb38", "latitude": 36.415799, "longitude": 127.392115, "timestamp": "2025-03-02T14:28:01.223514Z", "free_bikes": 0, "empty_slots": null, "extra": {"uid": "ST1190", "address": "\ub300\uc804\uad11\uc5ed\uc2dc \uc720\uc131\uad6c \uc6a9\uc0b0\ub3d9 370-9"}}, {"id": "1a228c063b0c80e734d7164626f4970c", "name": "\ubc18\uc11d\uc5ed 1\ubc88\ucd9c\uad6c(179)", "latitude": 36.391285, "longitude": 127.314854, "timestamp": "2025-03-02T14:28:01.206812Z", "free_bikes": 2, "empty_slots": null, "extra": {"uid": "ST0161", "address": "\ubc18\uc11d\ub3d9 694"}}, {"id": "1a305905832e38e0e3c4b74d0a3d938f", "name": "\uac00\uc591\ub3d9 \ub450\uc6d0\ube4c\ub77c(A\ub3d9)", "latitude": 36.349513, "longitude": 127.449036, "timestamp": "2025-03-02T14:28:01.222246Z", "free_bikes": 0, "empty_slots": null, "extra": {"uid": "ST0980", "address": "\uac00\uc591\ub3d9 675"}}, {"id": "1a41cf0bdcc94cb85dd0939fbf305ae0", "name": "\uad6c\ubd09\ub9c8\uc744 9\ub2e8\uc9c0(904\ub3d9)", "latitude": 36.296097, "longitude": 127.33144, "timestamp": "2025-03-02T14:28:01.217933Z", "free_bikes": 1, "empty_slots": null, "extra": {"uid": "ST0474", "address": "\uad00\uc800\ub3d9 1155"}}, {"id": "1a48884c5c2bca86f3ab3f13bd875a05", "name": "\uac00\uc218\uc6d0\ub3d9 480-1", "latitude": 36.304026, "longitude": 127.353863, "timestamp": "2025-03-02T14:28:01.220583Z", "free_bikes": 0, "empty_slots": null, "extra": {"uid": "ST0795", "address": "\uac00\uc218\uc6d0\ub3d9 480-1"}}, {"id": "1b05b98c3f301a53a110e0ad2a03b57b", "name": "\ud30c\ub791\uc0c8\uc544\ud30c\ud2b8 \uc11c\uce21\uc785\uad6c", "latitude": 36.356397, "longitude": 127.37449, "timestamp": "2025-03-02T14:28:01.219925Z", "free_bikes": 1, "empty_slots": null, "extra": {"uid": "ST0709", "address": "\ub454\uc0b0\ub3d9 957"}}, {"id": "1b7a44da8432465cd201f39d81c5f532", "name": "\uc1a1\ucd0c\uc18c\ubc29\uc11c(80)", "latitude": 36.362965, "longitude": 127.438949, "timestamp": "2025-03-02T14:28:01.207721Z", "free_bikes": 3, "empty_slots": null, "extra": {"uid": "ST0301", "address": "\uc1a1\ucd0c\ub3d9 472-7"}}, {"id": "1b8bfde9b6f534b54d7ead55cebdc7f2", "name": "\uc11c\ub300\uc804 KT", "latitude": 36.321226, "longitude": 127.413759, "timestamp": "2025-03-02T14:28:01.206036Z", "free_bikes": 0, "empty_slots": null, "extra": {"uid": "ST0037", "address": "\ub300\uc804\uad11\uc5ed\uc2dc \uc911\uad6c \ubb38\ud654\ub3d9 1-30"}}, {"id": "1ba2f2b4c19ce95082772ab7f8553afe", "name": "\ub300\ud765\ub3d9 \uc790\uc774\uc544\ud30c\ud2b8 2\ub2e8\uc9c0 \uacf5\uc6d0", "latitude": 36.320888, "longitude": 127.427149, "timestamp": "2025-03-02T14:28:01.218412Z", "free_bikes": 2, "empty_slots": null, "extra": {"uid": "ST0546", "address": "\ub300\ud765\ub3d9 914"}}, {"id": "1bb16babce5dc428fb15825572f73184", "name": "\uc2dc\uccad\uc5ed 1\ubc88\ucd9c\uad6c", "latitude": 36.350719, "longitude": 127.38654, "timestamp": "2025-03-02T14:28:01.208687Z", "free_bikes": 0, "empty_slots": null, "extra": {"uid": "ST0438", "address": "\ub300\uc804\uad11\uc5ed\uc2dc \uc11c\uad6c \ub454\uc0b0\ub3d9 1420"}}, {"id": "1c386f2461c3a2bdce89a49cb6b92806", "name": "\ub454\uc0b0\uacbd\ucc30\uc11c(\ub300\ub355\ub300\ub85c)", "latitude": 36.358615, "longitude": 127.37973, "timestamp": "2025-03-02T14:28:01.217819Z", "free_bikes": 1, "empty_slots": null, "extra": {"uid": "ST0456", "address": "\ub454\uc0b0\ub3d9 943"}}, {"id": "1ca6995911f19495d935afee54d20d6d", "name": "\uc6a9\uc804\ub3d9 \uc885\uadfc\ub2f9\ube4c\ub529", "latitude": 36.353404, "longitude": 127.439664, "timestamp": "2025-03-02T14:28:01.219594Z", "free_bikes": 0, "empty_slots": null, "extra": {"uid": "ST0657", "address": "\uc6a9\uc804\ub3d9 21-3"}}, {"id": "1cb15788146d746d9167bce3eef6645c", "name": "\uc804\ubbfc\ub3d9 \uccad\uad6c \ub098\ub798\uc544\ud30c\ud2b8 103\ub3d9 \uc55e", "latitude": 36.402221, "longitude": 127.404763, "timestamp": "2025-03-02T14:28:01.223767Z", "free_bikes": 3, "empty_slots": null, "extra": {"uid": "ST1242", "address": "\ub300\uc804\uad11\uc5ed\uc2dc \uc720\uc131\uad6c \uc804\ubbfc\ub3d9 462-4"}}, {"id": "1cb6542860670eec0c6673c0793bf4c5", "name": "\uce74\uc774\uc2a4\ud2b8 \ud6c4\ubb38(\ud55c\uad6d\uc6d0\uc790\ub825\uc548\uc804\uae30\uc220\uc6d0)(25)", "latitude": 36.374198, "longitude": 127.367134, "timestamp": "2025-03-02T14:28:01.206990Z", "free_bikes": 0, "empty_slots": null, "extra": {"uid": "ST0189", "address": "\uad6c\uc131\ub3d9 19"}}, {"id": "1ccffea117d071a58152094ac5abce19", "name": "\ub178\uc740\ub3d9 \uc5f4\ub9e4\ub9c8\uc744 11\ub2e8\uc9c0(1109\ub3d9)", "latitude": 36.364508, "longitude": 127.31358, "timestamp": "2025-03-02T14:28:01.221403Z", "free_bikes": 2, "empty_slots": null, "extra": {"uid": "ST0893", "address": "\ub178\uc740\ub3d9 552-3"}}, {"id": "1cf27423f6f11686254c37648810352d", "name": "\ud55c\uac00\ub78c\uc544\ud30c\ud2b8(50)", "latitude": 36.346847, "longitude": 127.393365, "timestamp": "2025-03-02T14:28:01.208404Z", "free_bikes": 4, "empty_slots": null, "extra": {"uid": "ST0393", "address": "\ud0c4\ubc29\ub3d9 835"}}, {"id": "1d1d17ca153e61cc14ed980ff883a0fc", "name": "\ube44\ub798\ub3d9 \uc81c1\uacf5\uc601\uc8fc\ucc28\uc7a5", "latitude": 36.354477, "longitude": 127.453147, "timestamp": "2025-03-02T14:28:01.219556Z", "free_bikes": 0, "empty_slots": null, "extra": {"uid": "ST0650", "address": "\ube44\ub798\ub3d9 143-7"}}, {"id": "1d48489372b881db17e9b79121c8789f", "name": "\ub178\uc7403\uc9c0\uad6c \uafc8\uc5d0\uadf8\ub9b0 201\ub3d9(230)", "latitude": 36.388164, "longitude": 127.303215, "timestamp": "2025-03-02T14:28:01.220303Z", "free_bikes": 1, "empty_slots": null, "extra": {"uid": "ST0751", "address": "\uc9c0\uc871\ub3d9 1093"}}, {"id": "1d5842997fead003cac3011dc8505342", "name": "\ud64d\ub3c4\ub3d9 \uc0c8\ub9c8\uc744\uae08\uace0 \ubcf8\uc810 \uac74\ub108\ud3b8", "latitude": 36.346767, "longitude": 127.425019, "timestamp": "2025-03-02T14:28:01.206196Z", "free_bikes": 4, "empty_slots": null, "extra": {"uid": "ST0062", "address": "\ud64d\ub3c4\ub3d9 51-7"}}, {"id": "1d9089bb468c4248d2ac76f9720454cf", "name": "\ub300\uc804\uac00\uc815\ubc95\uc6d0 \uc785\uad6c", "latitude": 36.352751, "longitude": 127.386565, "timestamp": "2025-03-02T14:28:01.208681Z", "free_bikes": 1, "empty_slots": null, "extra": {"uid": "ST0437", "address": "\ub454\uc0b0\ub3d9 1474"}}, {"id": "1df1d0aa9027e221f38c3bbe334f1a3a", "name": "\ub9cc\ub144\ub3d9 \ud06c\ub9ac\uc2a4\ud0c8\uc6e8\ub529\ud640", "latitude": 36.369271, "longitude": 127.381306, "timestamp": "2025-03-02T14:28:01.217746Z", "free_bikes": 3, "empty_slots": null, "extra": {"uid": "ST0451", "address": "\ub9cc\ub144\ub3d9 305"}}, {"id": "1e907dca6a9c57017eeffb82271f5f58", "name": "\uc624\ub958\ub3d9 \uc8fc\ub958\uacf5\ub3d9\ud310\ub9e4\uc7a5 \uc9d1\ubc30\uc1a1\uc13c\ud0c0", "latitude": 36.330252, "longitude": 127.401553, "timestamp": "2025-03-02T14:28:01.206564Z", "free_bikes": 2, "empty_slots": null, "extra": {"uid": "ST0120", "address": "\uc624\ub958\ub3d9 190-3"}}, {"id": "1eb50f42c8d661856463ea03c109b314", "name": "\ubb38\ud3c9\ub3d9 3.4\uacf5\ub2e8 \uc0c8\uc77c\uadfc\ub9b0\uacf5\uc6d0", "latitude": 36.446351, "longitude": 127.403352, "timestamp": "2025-03-02T14:28:01.206688Z", "free_bikes": 0, "empty_slots": null, "extra": {"uid": "ST0141", "address": "\ubb38\ud3c9\ub3d9 78-5"}}, {"id": "1ec3a41289bf7de26ca6ee74b396f1db", "name": "\uc6a9\ubb38\uc5ed 1\ubc88\ucd9c\uad6c", "latitude": 36.337799, "longitude": 127.393557, "timestamp": "2025-03-02T14:28:01.219800Z", "free_bikes": 3, "empty_slots": null, "extra": {"uid": "ST0687", "address": "\uc6a9\ubb38\ub3d9 257-2"}}, {"id": "1ed706b4cc9e1db81258538215d1acd9", "name": "\ub3c4\uc548 2\ub2e8\uc9c0 \ud638\ubc18\ubca0\ub974\ub514\uc6c0(214\ub3d9)", "latitude": 36.351484, "longitude": 127.344819, "timestamp": "2025-03-02T14:28:01.222799Z", "free_bikes": 0, "empty_slots": null, "extra": {"uid": "ST1071", "address": "\ub300\uc804\uad11\uc5ed\uc2dc \uc720\uc131\uad6c \ubd09\uba85\ub3d9 1019-1"}}, {"id": "1edbc366382ae37f817ab878e30df989", "name": "\uc740\uc5b4\uc1a1\ub9c8\uc744 6\ub2e8\uc9c0(602\ub3d9)", "latitude": 36.310186, "longitude": 127.456731, "timestamp": "2025-03-02T14:28:01.218643Z", "free_bikes": 0, "empty_slots": null, "extra": {"uid": "ST0578", "address": "\uac00\uc624\ub3d9 497"}}, {"id": "1f14c92575d88a69a36ef9fee41188b8", "name": "\uac00\uc218\uc6d0\ub124\uac70\ub9ac(\uacc4\ub8e1\uc544\ud30c\ud2b8 \ubc29\uba74)", "latitude": 36.304645, "longitude": 127.352278, "timestamp": "2025-03-02T14:28:01.207345Z", "free_bikes": 0, "empty_slots": null, "extra": {"uid": "ST0243", "address": "\uac00\uc218\uc6d0\ub3d9 763-1"}}, {"id": "1f423bde799e2ad09a937dfcc8a28b9f", "name": "\uc815\ub9bc\ub3d9 \uc131\uade0\uad00\uc232\uc720\uce58\uc6d0", "latitude": 36.290037, "longitude": 127.361188, "timestamp": "2025-03-02T14:28:01.223683Z", "free_bikes": 1, "empty_slots": null, "extra": {"uid": "ST1223", "address": "\ub300\uc804\uad11\uc5ed\uc2dc \uc11c\uad6c \uc815\ub9bc\ub3d9 91-2"}}, {"id": "1f7d2dd18af89f80fd5fa403f5274955", "name": "\ud55c\ub0a8\ub300\ud559\uad50 \uc815\ubb38", "latitude": 36.351508, "longitude": 127.421384, "timestamp": "2025-03-02T14:28:01.206309Z", "free_bikes": 3, "empty_slots": null, "extra": {"uid": "ST0080", "address": "\uc624\uc815\ub3d9 172-5"}}, {"id": "1f8c25663cb9870fb3dfec575cfa9503", "name": "\uad6c\uc554\uc5ed 3\ubc88\ucd9c\uad6c", "latitude": 36.356438, "longitude": 127.331084, "timestamp": "2025-03-02T14:28:01.217980Z", "free_bikes": 1, "empty_slots": null, "extra": {"uid": "ST0482", "address": "\uad6c\uc554\ub3d9 96-3"}}, {"id": "2019e41eaee77d9396688d3b1d29cf12", "name": "\uac00\ub78c\uc544\ud30c\ud2b8 \uc0c1\uac00", "latitude": 36.355878, "longitude": 127.398305, "timestamp": "2025-03-02T14:28:01.205879Z", "free_bikes": 8, "empty_slots": null, "extra": {"uid": "ST0014", "address": "\ub454\uc0b0\ub3d9 1805"}}, {"id": "207a415651415f1eb108426a2a25c16f", "name": "\ud0c4\ubc29\ub3d9 1333 ", "latitude": 36.347382, "longitude": 127.400373, "timestamp": "2025-03-02T14:28:01.208632Z", "free_bikes": 0, "empty_slots": null, "extra": {"uid": "ST0428", "address": "\ud0c4\ubc29\ub3d9 30"}}, {"id": "20f57c086408bb2d5e2b28ff63057a2f", "name": "\ub300\ud765\ub3d9 \ud3ec\ud2b8\uce94\ucee4\ud53c \ub300\uc804\ub300\ud765\uc810", "latitude": 36.319409, "longitude": 127.424848, "timestamp": "2025-03-02T14:28:01.218436Z", "free_bikes": 0, "empty_slots": null, "extra": {"uid": "ST0549", "address": "\ub300\ud765\ub3d9 336-20"}}, {"id": "20fdb51ec069bfb3729fc6c0d26fb6c1", "name": "\uc131\ub0a8\ub3d9 \ud734\uba3c\uc2dc\uc544 \uc2a4\ub9c8\ud2b8\ube4c \uac74\ub108\ud3b8", "latitude": 36.343792, "longitude": 127.434345, "timestamp": "2025-03-02T14:28:01.223589Z", "free_bikes": 1, "empty_slots": null, "extra": {"uid": "ST1205", "address": "\ub300\uc804\uad11\uc5ed\uc2dc \ub3d9\uad6c \uc131\ub0a8\ub3d9 166-120"}}, {"id": "2103a255d91878e493093a15047f6cd3", "name": "\uc720\uc131\uacbd\ucc30\uc11c \ubbfc\uc6d0\uc2e4\uc55e", "latitude": 36.37857, "longitude": 127.3258, "timestamp": "2025-03-02T14:28:01.221517Z", "free_bikes": 1, "empty_slots": null, "extra": {"uid": "ST0911", "address": "\ub300\uc804\uad11\uc5ed\uc2dc \uc720\uc131\uad6c \uc8fd\ub3d9 629"}}, {"id": "21a7efc2ed49903d50a3c9b4a0a20ab8", "name": "\ub178\uc7403\uc9c0\uad6c \uc601\ubb34\uc608\ub2e4\uc74c(102\ub3d9)(250)", "latitude": 36.374482, "longitude": 127.305412, "timestamp": "2025-03-02T14:28:01.206839Z", "free_bikes": 0, "empty_slots": null, "extra": {"uid": "ST0165", "address": "\uc9c0\uc871\ub3d9 1052"}}, {"id": "21c75e5326ef2426442f65267d1c187e", "name": "\uad00\uc800\ub3d9 \ub300\uc790\uc5f0\ub9c8\uc744 101\ub3d9", "latitude": 36.304785, "longitude": 127.338944, "timestamp": "2025-03-02T14:28:01.223141Z", "free_bikes": 0, "empty_slots": null, "extra": {"uid": "ST1117", "address": "\ub300\uc804\uad11\uc5ed\uc2dc \uc11c\uad6c \uad00\uc800\ub3d9 997"}}, {"id": "21dfbe382ee1570f9b91e013d6965610", "name": "\uc6d0\ub0b4\ub3d9 \uc0d8\ubb3c\ud0c0\uc6b4(308\ub3d9)", "latitude": 36.298553, "longitude": 127.323147, "timestamp": "2025-03-02T14:28:01.207527Z", "free_bikes": 0, "empty_slots": null, "extra": {"uid": "ST0272", "address": "\uc6d0\ub0b4\ub3d9 394"}}, {"id": "220fb00f9dc1862d305567871f1e2ca4", "name": "\ub3c4\ub9c8\ub3d9 \uc591\uc9c0\ud0c0\uc6b4 \uc785\uad6c", "latitude": 36.317889, "longitude": 127.37119, "timestamp": "2025-03-02T14:28:01.223811Z", "free_bikes": 0, "empty_slots": null, "extra": {"uid": "ST1252", "address": "\ub300\uc804\uad11\uc5ed\uc2dc \uc11c\uad6c \ub3c4\ub9c8\ub3d9 333-30"}}, {"id": "229d14c99c8f3bc8a1c4dcae9637716f", "name": "\ud558\ub098\ub85c\uc544\ud30c\ud2b8 101\ub3d9 \uc55e", "latitude": 36.359977, "longitude": 127.366487, "timestamp": "2025-03-02T14:28:01.223785Z", "free_bikes": 1, "empty_slots": null, "extra": {"uid": "ST1246", "address": "\ub300\uc804\uad11\uc5ed\uc2dc \uc11c\uad6c \uc6d4\ud3c9\ub3d9 311-1"}}, {"id": "22d940337b608ad86e7a9c69d54c8e74", "name": "\ub300\ud654\ub3d9 \ub300\ud654\uc544\ud30c\ud2b8 \uac74\ub108\ud3b8", "latitude": 36.367829, "longitude": 127.414137, "timestamp": "2025-03-02T14:28:01.217974Z", "free_bikes": 0, "empty_slots": null, "extra": {"uid": "ST0481", "address": "\ub300\ud654\ub3d9 1-30"}}, {"id": "22e38522f6615057c8f166bc13edeca6", "name": "\ud604\ucda9\uc6d0\uc5ed 3\ubc88\ucd9c\uad6c(183)", "latitude": 36.359578, "longitude": 127.320842, "timestamp": "2025-03-02T14:28:01.208477Z", "free_bikes": 0, "empty_slots": null, "extra": {"uid": "ST0405", "address": "\uad6c\uc554\ub3d9 424-88"}}, {"id": "23233af5955d72ec408246e056fd939f", "name": "\uac74\uc591\ub300\ub124\uac70\ub9ac(175)", "latitude": 36.302408, "longitude": 127.339333, "timestamp": "2025-03-02T14:28:01.207560Z", "free_bikes": 1, "empty_slots": null, "extra": {"uid": "ST0277", "address": "\uad00\uc800\ub3d9 1002"}}, {"id": "23843f9d6dd5abd7dbe657a67f08d1e9", "name": "\uac00\uc591\ub3d9 \uc640\uc640\ud234\ucf54\ub9ac\uc544", "latitude": 36.348707, "longitude": 127.443426, "timestamp": "2025-03-02T14:28:01.219740Z", "free_bikes": 0, "empty_slots": null, "extra": {"uid": "ST0678", "address": "\uac00\uc591\ub3d9 429-4"}}, {"id": "23c629472f2f6d206225f22693b7a10d", "name": "\uc6b0\uc1a1\ub300 \uc815\ubb38 \uac74\ub108\ud3b8(151)", "latitude": 36.336899, "longitude": 127.44775, "timestamp": "2025-03-02T14:28:01.222779Z", "free_bikes": 0, "empty_slots": null, "extra": {"uid": "ST1068", "address": "\ub300\uc804\uad11\uc5ed\uc2dc \ub3d9\uad6c \uc790\uc591\ub3d9 58-12"}}, {"id": "23ec138b53a09226f781a94569f23620", "name": "\ud55c\uc804 \ub300\uc804\uc138\uc885\ucda9\ub0a8\uc9c0\uc5ed\ubcf8\ubd80 \uac74\ub108\ud3b8(115)", "latitude": 36.357341, "longitude": 127.434212, "timestamp": "2025-03-02T14:28:01.206262Z", "free_bikes": 0, "empty_slots": null, "extra": {"uid": "ST0073", "address": "\uc6a9\uc804\ub3d9 45-1"}}, {"id": "2427ccf27b897481cba8427d039ca97f", "name": "\uc6a9\ub450\ub3d9 \uc815\ub2f4\uce58\uacfc", "latitude": 36.322994, "longitude": 127.415387, "timestamp": "2025-03-02T14:28:01.218368Z", "free_bikes": 0, "empty_slots": null, "extra": {"uid": "ST0539", "address": "\uc6a9\ub450\ub3d9 12-1"}}, {"id": "243efd23933556af2200a9c6fb227883", "name": "\ubaa9\uc6d0\ub300\ud559\uad50 \uc815\ubb38\uc6b0\uce21(\ub86f\ub370\ub9ac\uc544)", "latitude": 36.330444, "longitude": 127.33831, "timestamp": "2025-03-02T14:28:01.207236Z", "free_bikes": 0, "empty_slots": null, "extra": {"uid": "ST0227", "address": "\ub3c4\uc548\ub3d9 844"}}, {"id": "2453cfceba9a5078c558cb9be61a01a0", "name": "\uc778\uc7ac\uac1c\ubc1c\uc6d0 \uc785\uad6c", "latitude": 36.400999, "longitude": 127.364712, "timestamp": "2025-03-02T14:28:01.223539Z", "free_bikes": 6, "empty_slots": null, "extra": {"uid": "ST1197", "address": "\ub300\uc804\uad11\uc5ed\uc2dc \uc720\uc131\uad6c \uc7a5\ub3d9 25-4"}}, {"id": "24628ea51953d94532f92dcaa23855cb", "name": "\ud55c\ubc2d\ub300\ud559\uad50 \ud559\uc0dd\uc0dd\ud65c\uad00 \ubaa9\ub828\ud654\ub3d9", "latitude": 36.345701, "longitude": 127.304726, "timestamp": "2025-03-02T14:28:01.208266Z", "free_bikes": 0, "empty_slots": null, "extra": {"uid": "ST0371", "address": "\ub355\uba85\ub3d9 16-1"}}, {"id": "24c9d128c53d7488fdfc11fa69a7c3ac", "name": "\ub454\uc0b0 \ud558\uc774\ub9c8\ud2b8(14)", "latitude": 36.35547, "longitude": 127.379202, "timestamp": "2025-03-02T14:28:01.208490Z", "free_bikes": 2, "empty_slots": null, "extra": {"uid": "ST0407", "address": "\ub454\uc0b0\ub3d9 962"}}, {"id": "24f126168d77dc1b72203d80af545f4d", "name": "\ub300\ud765\ub3d9 \ub4dc\ub9bc\uc2dc\ud2f0", "latitude": 36.324053, "longitude": 127.426964, "timestamp": "2025-03-02T14:28:01.218390Z", "free_bikes": 0, "empty_slots": null, "extra": {"uid": "ST0542", "address": "\ub300\ud765\ub3d9 437"}}, {"id": "2507aafeee78b57529eb976775ab959b", "name": "\ub300\ud654\ub3d9 \ubcf5\ud569\ubb38\ud654\uc13c\ud130", "latitude": 36.368525, "longitude": 127.401277, "timestamp": "2025-03-02T14:28:01.223559Z", "free_bikes": 6, "empty_slots": null, "extra": {"uid": "ST1201", "address": "\ub300\uc804\uad11\uc5ed\uc2dc \ub300\ub355\uad6c \ub300\ud654\ub3d9 530-3"}}, {"id": "252258872dbcbdd1af01a8386acb2d12", "name": "\ubc18\uc11d\uc5ed 5\ubc88\ucd9c\uad6c", "latitude": 36.392494, "longitude": 127.314722, "timestamp": "2025-03-02T14:28:01.206827Z", "free_bikes": 0, "empty_slots": null, "extra": {"uid": "ST0163", "address": "\ubc18\uc11d\ub3d9 61-3"}}, {"id": "25398100f6fa0ab17978c7d54c9dddec", "name": "\ud0c4\ubc29\ub3d9 \ub3c4\uc0b0\uc11c\uc6d0(\uc6a9\ubb38\ub124\uac70\ub9ac \ubc29\uba74) \uc815\ub958\uc7a5", "latitude": 36.34365, "longitude": 127.399978, "timestamp": "2025-03-02T14:28:01.206539Z", "free_bikes": 0, "empty_slots": null, "extra": {"uid": "ST0116", "address": "\ud0c4\ubc29\ub3d9 1483-11"}}, {"id": "2554438b819deb612af29f558acb4afe", "name": "\ub355\uc554\ub3d9 \ub300\uccad\uc0c8\ub9c8\uc744\uae08\uace0 \uc0c8\ub738\uc9c0\uc810", "latitude": 36.448075, "longitude": 127.419894, "timestamp": "2025-03-02T14:28:01.220003Z", "free_bikes": 1, "empty_slots": null, "extra": {"uid": "ST0721", "address": "\ub355\uc554\ub3d9 1-3"}}, {"id": "25624aaecd0148ba6ee3c61f04f49bab", "name": "\uc1a1\uac15\ub3d9 \ud55c\ub9c8\uc744\uc544\ud30c\ud2b8(107\ub3d9)", "latitude": 36.430575, "longitude": 127.38344, "timestamp": "2025-03-02T14:28:01.221646Z", "free_bikes": 1, "empty_slots": null, "extra": {"uid": "ST0937", "address": "\uc1a1\uac15\ub3d9 200-4"}}, {"id": "258ad1e603506385cfa921750726cb60", "name": "\uc790\uc591\ub3d9 \uc6b0\uc1a1\uc0bc\uac70\ub9ac(\ucee4\ud53c\ub2c8)", "latitude": 36.336116, "longitude": 127.447265, "timestamp": "2025-03-02T14:28:01.222880Z", "free_bikes": 0, "empty_slots": null, "extra": {"uid": "ST1086", "address": "\ub300\uc804\uad11\uc5ed\uc2dc \ub3d9\uad6c \uc790\uc591\ub3d9 66-1"}}, {"id": "25d14d387bd8204d4f4311a3d3d7b064", "name": "\ucda9\ub0a8\uc5ec\uc911\uc0bc\uac70\ub9ac", "latitude": 36.331903, "longitude": 127.410369, "timestamp": "2025-03-02T14:28:01.242513Z", "free_bikes": 2, "empty_slots": null, "extra": {"uid": "ST1367", "address": "\ub300\uc804\uad11\uc5ed\uc2dc \uc911\uad6c \ubaa9\ub3d9 115-6"}}, {"id": "2622766d93fa26965ac2e69d8f9f00b9", "name": "\ub300\uc804\ub300\ud559\uad50 \ub300\uc804\ud55c\ubc29\ubcd1\uc6d0 \uc815\ub958\uc7a5", "latitude": 36.345996, "longitude": 127.379133, "timestamp": "2025-03-02T14:28:01.206620Z", "free_bikes": 1, "empty_slots": null, "extra": {"uid": "ST0130", "address": "\ub454\uc0b0\ub3d9 1136"}}, {"id": "263b43d4d7cb2cb724f9a9c3fdc8b7d0", "name": "\ubaa9\uc6d0\ub300\ub124\uac70\ub9ac(\ub3c4\ub85c\uad50\ud1b5\uacf5\ub2e8 \ubc29\uba74) \uc815\ub958\uc7a5", "latitude": 36.332575, "longitude": 127.339389, "timestamp": "2025-03-02T14:28:01.207229Z", "free_bikes": 1, "empty_slots": null, "extra": {"uid": "ST0226", "address": "\uc6d0\uc2e0\ud765\ub3d9 558-11"}}, {"id": "2665a81a38790c92b33c657a43f1646e", "name": "\ud55c\uc2e0\uc5d0\uc2a4\uba54\uce74 \uc815\ub958\uc7a5(\uad00\ud3c9\uc911\ud559\uad50\ubc29\uba74)", "latitude": 36.428544, "longitude": 127.391358, "timestamp": "2025-03-02T14:28:01.242739Z", "free_bikes": 0, "empty_slots": null, "extra": {"uid": "ST1403", "address": "\ub300\uc804\uad11\uc5ed\uc2dc \uc720\uc131\uad6c \uad00\ud3c9\ub3d9 1361"}}, {"id": "2670be159e8f6324d3cc7d4f3a308d52", "name": "\ud6a8\ubb38\ud654\ub9c8\uc744\uc785\uad6c \uc815\ub958\uc7a5", "latitude": 36.286708, "longitude": 127.378397, "timestamp": "2025-03-02T14:28:01.242443Z", "free_bikes": 0, "empty_slots": null, "extra": {"uid": "ST1356", "address": "\ub300\uc804\uad11\uc5ed\uc2dc \uc911\uad6c \uc548\uc601\ub3d9 61"}}, {"id": "26c20d4253f5d687953079daa659f600", "name": "\ub3c4\uc548 9\ub2e8\uc9c0 \ud2b8\ub9ac\ud480\uc2dc\ud2f0(920\ub3d9)(69)", "latitude": 36.342826, "longitude": 127.337756, "timestamp": "2025-03-02T14:28:01.207170Z", "free_bikes": 0, "empty_slots": null, "extra": {"uid": "ST0216", "address": "\uc0c1\ub300\ub3d9 487"}}, {"id": "26e446d65e9c4b0bc8f28dcb29581c88", "name": "\ub3c4\uc548\uc544\uc774\ud30c\ud06c(\ub300\uc804\uc5d0\ub108\uc9c0\uc0ac\uc5c5\ub2e8 \ubc29\uba74) \uc815\ub958\uc7a5", "latitude": 36.324228, "longitude": 127.345374, "timestamp": "2025-03-02T14:28:01.220475Z", "free_bikes": 0, "empty_slots": null, "extra": {"uid": "ST0779", "address": "\ub3c4\uc548\ub3d9 1118"}}, {"id": "26f15129939baa46a23d61f3a16ff262", "name": "\uc7a5\ub300\ub124\uac70\ub9ac(\ud558\uc774\ub9c8\ud2b8)", "latitude": 36.363885, "longitude": 127.338397, "timestamp": "2025-03-02T14:28:01.222478Z", "free_bikes": 2, "empty_slots": null, "extra": {"uid": "ST1019", "address": "\ub300\uc804\uad11\uc5ed\uc2dc \uc720\uc131\uad6c \uc7a5\ub300\ub3d9 339"}}, {"id": "2716754206b0b40c6baafdb1ff9c76ef", "name": "\uc911\ucd0c\ub3d9 \uc2e0\uc218\ube4c\ub529", "latitude": 36.342852, "longitude": 127.409797, "timestamp": "2025-03-02T14:28:01.222639Z", "free_bikes": 5, "empty_slots": null, "extra": {"uid": "ST1045", "address": "\ub300\uc804\uad11\uc5ed\uc2dc \uc911\uad6c \uc911\ucd0c\ub3d9 436"}}, {"id": "2757698cb86024efa2511a5c00809a35", "name": "\uad6c\uc989\ub3d9 \ud589\uc815\ubcf5\uc9c0\uc13c\ud130 \uc785\uad6c \uc815\ub958\uc7a5", "latitude": 36.441154, "longitude": 127.385611, "timestamp": "2025-03-02T14:28:01.221696Z", "free_bikes": 1, "empty_slots": null, "extra": {"uid": "ST0945", "address": "\ubd09\uc0b0\ub3d9 305-1"}}, {"id": "27586c621bbcb3a9d76fe9dba9f20626", "name": "\ub300\uc804\ud574\ubaa8\ub85c\ub354\uc13c\ud2b8\ub77c\uc544\ud30c\ud2b8 107\ub3d9", "latitude": 36.328225, "longitude": 127.415696, "timestamp": "2025-03-02T14:28:01.242507Z", "free_bikes": 0, "empty_slots": null, "extra": {"uid": "ST1366", "address": "\ub300\uc804\uad11\uc5ed\uc2dc \uc911\uad6c \uc120\ud654\ub3d9 901"}}, {"id": "278284ad728e82ef2b40cf0bb5c1ce6b", "name": "\uba54\ud2b8\ub85c\ud3a0\ub9ac\uc2a4\uc624\ud53c\uc2a4\ud154", "latitude": 36.352522, "longitude": 127.386933, "timestamp": "2025-03-02T14:28:01.208663Z", "free_bikes": 2, "empty_slots": null, "extra": {"uid": "ST0434", "address": "\ub454\uc0b0\ub3d9 1547"}}, {"id": "2830154abf09de75b2750473051dd4c7", "name": "\ub0ad\uc6d4\ub3d9 \uc11d\ucc9c\ub4e4\uc544\ud30c\ud2b8 \uac74\ub108\ud3b8(112\ub3d9)", "latitude": 36.276448, "longitude": 127.46708, "timestamp": "2025-03-02T14:28:01.218726Z", "free_bikes": 1, "empty_slots": null, "extra": {"uid": "ST0591", "address": "\ub0ad\uc6d4\ub3d9 738"}}, {"id": "283555148f4a3c35238587ce9b9133dc", "name": "\uc74d\ub0b4\ub3d9 \uc6b0\ud3b8\ucde8\uae09\uad6d(210)", "latitude": 36.378602, "longitude": 127.421322, "timestamp": "2025-03-02T14:28:01.222866Z", "free_bikes": 3, "empty_slots": null, "extra": {"uid": "ST1083", "address": "\ub300\uc804\uad11\uc5ed\uc2dc \ub300\ub355\uad6c \uc74d\ub0b4\ub3d9 248-2"}}, {"id": "289383a033cd4231fac780be976bacff", "name": "\uc6b0\uc554\uc0ac\uc801\uacf5\uc6d0", "latitude": 36.346892, "longitude": 127.455789, "timestamp": "2025-03-02T14:28:01.223582Z", "free_bikes": 0, "empty_slots": null, "extra": {"uid": "ST1204", "address": "\ub300\uc804\uad11\uc5ed\uc2dc \ub3d9\uad6c \uac00\uc591\ub3d9 687"}}, {"id": "28aabf2ed6c0e364da9e2b654bcd1b50", "name": "\ub3c4\uc548 10\ub2e8\uc9c0 \ud734\uba3c\uc2dc\uc544 (1010\ub3d9)", "latitude": 36.338364, "longitude": 127.338494, "timestamp": "2025-03-02T14:28:01.207284Z", "free_bikes": 2, "empty_slots": null, "extra": {"uid": "ST0234", "address": "\uc6d0\uc2e0\ud765\ub3d9 493-1"}}, {"id": "28c7eb3fd206928d76665cb088351c12", "name": "\uad00\uc800\ub3d9 \ub290\ub9ac\uc6b8\ub9c8\uc744 11\ub2e8\uc9c0 \uc815\ub958\uc7a5(1114\ub3d9)", "latitude": 36.302792, "longitude": 127.343594, "timestamp": "2025-03-02T14:28:01.207359Z", "free_bikes": 0, "empty_slots": null, "extra": {"uid": "ST0246", "address": "\uad00\uc800\ub3d9 1422"}}, {"id": "28f40bea73685f77df1b87a871b6f136", "name": "\uc131\ub0a8\ub2e4\ubaa9\uc801\uccb4\uc721\uad00", "latitude": 36.342257, "longitude": 127.430947, "timestamp": "2025-03-02T14:28:01.242392Z", "free_bikes": 0, "empty_slots": null, "extra": {"uid": "ST1348", "address": "\ub300\uc804\uad11\uc5ed\uc2dc \ub3d9\uad6c \uc131\ub0a8\ub3d9 535"}}, {"id": "2925620c65a6425d4bfdbc1c1eaf7935", "name": "\ub300\uc131\ub3d9 \ud3c9\uc591\uc228\ub450\ubd80 \uac74\ub108\ud3b8", "latitude": 36.301302, "longitude": 127.457148, "timestamp": "2025-03-02T14:28:01.223203Z", "free_bikes": 0, "empty_slots": null, "extra": {"uid": "ST1129", "address": "\ub300\uc804\uad11\uc5ed\uc2dc \ub3d9\uad6c \ub300\uc131\ub3d9 130"}}, {"id": "2a16af129c449f911537971eebbf9459", "name": "\ud55c\uac00\ub78c\uc544\ud30c\ud2b8 \uc815\ub958\uc7a5(9\ub3d9)", "latitude": 36.348879, "longitude": 127.391961, "timestamp": "2025-03-02T14:28:01.206384Z", "free_bikes": 0, "empty_slots": null, "extra": {"uid": "ST0092", "address": "\ud0c4\ubc29\ub3d9 834"}}, {"id": "2a52689cd7dc7818d625df96b5978310", "name": "\ud638\ub3d9 \uadf8\ub9b0\uc138\ud0c1\uc18c", "latitude": 36.302862, "longitude": 127.448513, "timestamp": "2025-03-02T14:28:01.222373Z", "free_bikes": 0, "empty_slots": null, "extra": {"uid": "ST1002", "address": "\ud638\ub3d9 27-4"}}, {"id": "2a6834bdc4f8f211c1d0b0b945e74281", "name": "\ubaa9\uc6d0\ub300(\ub3d9\uc11c\ub300\ub85c) \ub124\uac70\ub9ac", "latitude": 36.331895, "longitude": 127.338308, "timestamp": "2025-03-02T14:28:01.220441Z", "free_bikes": 2, "empty_slots": null, "extra": {"uid": "ST0774", "address": "\ub3c4\uc548\ub3d9 849"}}, {"id": "2aa811d71a9eebf1a110c819c3e87514", "name": "\uc624\uc815\ub3d9 \ud55c\ub0a8\uc721\uad50 \uc544\ub798", "latitude": 36.350763, "longitude": 127.419203, "timestamp": "2025-03-02T14:28:01.206303Z", "free_bikes": 6, "empty_slots": null, "extra": {"uid": "ST0079", "address": "\uc624\uc815\ub3d9 454-6"}}, {"id": "2aac7d5fbfc72d7ad22d19a515e1b948", "name": "\uc194\ube0c\ub9bf\uc9c0 \uad6d\uc81c\ub300\ud559(243)", "latitude": 36.339134, "longitude": 127.433092, "timestamp": "2025-03-02T14:28:01.206229Z", "free_bikes": 1, "empty_slots": null, "extra": {"uid": "ST0067", "address": "\uc0bc\uc131\ub3d9 150-27"}}, {"id": "2ad39303a149c3dcadfd07caa7aa4fd5", "name": "\uc194\ub791\ub9c8\uc744 \uc544\ud30c\ud2b8 \uc0c1\uac00", "latitude": 36.342778, "longitude": 127.42359, "timestamp": "2025-03-02T14:28:01.206296Z", "free_bikes": 3, "empty_slots": null, "extra": {"uid": "ST0078", "address": "\uc0bc\uc131\ub3d9 369-1"}}, {"id": "2aeb6daa7d9d7fbf4aa0029c14d1c00a", "name": "\ub86f\ub370\ub9c8\ud2b8 \uc11c\ub300\uc804\uc810", "latitude": 36.300023, "longitude": 127.325134, "timestamp": "2025-03-02T14:28:01.207547Z", "free_bikes": 0, "empty_slots": null, "extra": {"uid": "ST0275", "address": "\uc6d0\ub0b4\ub3d9 33-13"}}, {"id": "2b44ee671bebc7afd186815d54e39067", "name": "\uc0c1\uc218\ub3c4\uc0ac\uc5c5\ubcf8\ubd80(\uac08\ub9c8\uc911\ud559\uad50\uc785\uad6c \ubc29\uba74)\uc815\ub958\uc7a5", "latitude": 36.346465, "longitude": 127.36854, "timestamp": "2025-03-02T14:28:01.219963Z", "free_bikes": 2, "empty_slots": null, "extra": {"uid": "ST0715", "address": "\uac08\ub9c8\ub3d9 378-32"}}, {"id": "2b7b9128bfe8a98fff714f300e680693", "name": "\ubd09\uc0b0\ud734\uba3c\uc2dc\uc5442\ub2e8\uc9c0\uc544\ud30c\ud2b8 \uc785\uad6c \uac74\ub108\ud3b8", "latitude": 36.438054, "longitude": 127.386075, "timestamp": "2025-03-02T14:28:01.220256Z", "free_bikes": 1, "empty_slots": null, "extra": {"uid": "ST0744", "address": "\ubd09\uc0b0\ub3d9 197-1"}}, {"id": "2b9af815b61c07cb9724a2abcba1f0ff", "name": "\uac00\uc624\ub3d9 \uc2e0\ud765\uad50\ud68c", "latitude": 36.306, "longitude": 127.451932, "timestamp": "2025-03-02T14:28:01.222415Z", "free_bikes": 1, "empty_slots": null, "extra": {"uid": "ST1009", "address": "\uac00\uc624\ub3d9 236-11"}}, {"id": "2bb7648f997b44c53d985b4a2573dba9", "name": "\ud55c\uac00\ub78c\uc544\ud30c\ud2b8(2\ub3d9)", "latitude": 36.348201, "longitude": 127.390409, "timestamp": "2025-03-02T14:28:01.205756Z", "free_bikes": 2, "empty_slots": null, "extra": {"uid": "ST0004", "address": "\ud0c4\ubc29\ub3d9 1446"}}, {"id": "2bc207ae6b29b1a87b0dfb31753a9921", "name": "\uc62c\ub9ac\ube0c\uc601 \ub300\uc804\uac00\uc218\uc6d0\uc810", "latitude": 36.304983, "longitude": 127.351179, "timestamp": "2025-03-02T14:28:01.217862Z", "free_bikes": 0, "empty_slots": null, "extra": {"uid": "ST0464", "address": "\uac00\uc218\uc6d0\ub3d9 446-25"}}, {"id": "2bd0e4b4e7c6e21e410af9caf6f96ecb", "name": "\ubc95\ub3d9 \ud55c\ub9c8\uc74c\uc544\ud30c\ud2b8 106\ub3d9 \uac74\ub108\ud3b8", "latitude": 36.370096, "longitude": 127.432297, "timestamp": "2025-03-02T14:28:01.221101Z", "free_bikes": 0, "empty_slots": null, "extra": {"uid": "ST0846", "address": "\ubc95\ub3d9 191-2"}}, {"id": "2c1b5cdbd9d7b8d64ff0335817d521d2", "name": "\uc5b4\uc9c4\ub9c8\uc744\uc544\ud30c\ud2b8 \uc815\ub958\uc7a5", "latitude": 36.320845, "longitude": 127.44379, "timestamp": "2025-03-02T14:28:01.242231Z", "free_bikes": 0, "empty_slots": null, "extra": {"uid": "ST1323", "address": "\ub300\uc804\uad11\uc5ed\uc2dc \ub3d9\uad6c \uc2e0\ud765\ub3d9 41-18"}}, {"id": "2c65adb0e4c6afc6c9e198642f3d67bf", "name": "\ud55c\uad6d\uce68\ub840\uc2e0\ud559\ub300\ud559\uad50 \uc785\uad6c", "latitude": 36.387013, "longitude": 127.324609, "timestamp": "2025-03-02T14:28:01.206929Z", "free_bikes": 0, "empty_slots": null, "extra": {"uid": "ST0179", "address": "\ud558\uae30\ub3d9 534-3"}}, {"id": "2c99448393a21159b325b90bad5e5a3e", "name": "\ud55c\ubc2d\ub3c4\uc11c\uad00(195)", "latitude": 36.310043, "longitude": 127.408289, "timestamp": "2025-03-02T14:28:01.222701Z", "free_bikes": 0, "empty_slots": null, "extra": {"uid": "ST1055", "address": "\ub300\uc804\uad11\uc5ed\uc2dc \uc911\uad6c \ubb38\ud654\ub3d9 192-12"}}, {"id": "2caed6ceeba4715c0cc9636e937b5af9", "name": "\ucc9c\ub3d9\ucd08\ub4f1\ud559\uad50(245)", "latitude": 36.3168, "longitude": 127.443898, "timestamp": "2025-03-02T14:28:01.206173Z", "free_bikes": 1, "empty_slots": null, "extra": {"uid": "ST0057", "address": "\ub300\uc804\uad11\uc5ed\uc2dc \ub3d9\uad6c \ucc9c\ub3d9 199-64"}}, {"id": "2cba4220353474010ac33ae6c444aaaf", "name": "\ub3d9\uad6c \ubcf4\uac74\uc9c0\uc18c", "latitude": 36.342625, "longitude": 127.420159, "timestamp": "2025-03-02T14:28:01.205991Z", "free_bikes": 7, "empty_slots": null, "extra": {"uid": "ST0030", "address": "\uc0bc\uc131\ub3d9 353-14"}}, {"id": "2d4492fca8ed843f31079f7da00efefa", "name": "\uba38\ud2f0\ub124\uac70\ub9ac(220)", "latitude": 36.309219, "longitude": 127.388027, "timestamp": "2025-03-02T14:28:01.206057Z", "free_bikes": 2, "empty_slots": null, "extra": {"uid": "ST0040", "address": "\uc0b0\uc131\ub3d9 160-9"}}, {"id": "2d5937d5f45211454c244e43089e5b61", "name": "\ube44\ub798\ub3d9 \uc720\uc564\ubbf8\uc544\ud30c\ud2b8", "latitude": 36.360221, "longitude": 127.450114, "timestamp": "2025-03-02T14:28:01.222008Z", "free_bikes": 0, "empty_slots": null, "extra": {"uid": "ST0971", "address": "\ube44\ub798\ub3d9 531"}}, {"id": "2dc2143ec701afd929b685ff60ba0c8a", "name": "\uc6d0\ub0b4\ub3d9 \uc194\ub9c8\ub8e8\uc5b4\ub9b0\uc774\uacf5\uc6d0 \uc785\uad6c", "latitude": 36.303985, "longitude": 127.320409, "timestamp": "2025-03-02T14:28:01.207540Z", "free_bikes": 1, "empty_slots": null, "extra": {"uid": "ST0274", "address": "\ub300\uc804\uad11\uc5ed\uc2dc \uc720\uc131\uad6c \uc6d0\ub0b4\ub3d9 80-16"}}, {"id": "2e2db0f85dc26e1bba45aa85721ce6ac", "name": "\uc218\uc815\ud0c0\uc6b4\uc544\ud30c\ud2b8(1\ub3d9)", "latitude": 36.358282, "longitude": 127.395424, "timestamp": "2025-03-02T14:28:01.205887Z", "free_bikes": 0, "empty_slots": null, "extra": {"uid": "ST0015", "address": "\ub300\uc804\uad11\uc5ed\uc2dc \uc11c\uad6c \ub454\uc0b0\ub3d9 1524-1"}}, {"id": "2e836a854b020987c8dcf38ce778ae96", "name": "\ubb38\uc9c0\ub3d9 GS\uce7c\ud14d\uc2a4 \uae30\uc220\uc5f0\uad6c\uc18c", "latitude": 36.389043, "longitude": 127.404876, "timestamp": "2025-03-02T14:28:01.221350Z", "free_bikes": 1, "empty_slots": null, "extra": {"uid": "ST0885", "address": "\ubb38\uc9c0\ub3d9 104-4"}}, {"id": "2e8839eae35de77bb9e658682f4a2992", "name": "\uad00\uc800\ub3d9 \ub9c8\uce58\uad11\uc7a5 \uc11c\uce21", "latitude": 36.297879, "longitude": 127.33699, "timestamp": "2025-03-02T14:28:01.207414Z", "free_bikes": 1, "empty_slots": null, "extra": {"uid": "ST0255", "address": "\uad00\uc800\ub3d9 1519"}}, {"id": "2f785fad1eb9d753cdfedb87ed24f160", "name": "\ub300\uc815\ub3d9 \ubaa8\ub2e4\uc544\uc6b8\ub81b(226)", "latitude": 36.313023, "longitude": 127.319778, "timestamp": "2025-03-02T14:28:01.207554Z", "free_bikes": 2, "empty_slots": null, "extra": {"uid": "ST0276", "address": "\ub300\uc815\ub3d9 303-5"}}, {"id": "2f97ea5095e9faadba56104e23943032", "name": "\uac00\uc624\ub3d9 \uc5d4\uc81c\ub9ac\ub108\uc2a4", "latitude": 36.305386, "longitude": 127.454794, "timestamp": "2025-03-02T14:28:01.218699Z", "free_bikes": 1, "empty_slots": null, "extra": {"uid": "ST0586", "address": "\uac00\uc624\ub3d9 663"}}, {"id": "30066c92e609b6d5b199c25357072c63", "name": "\uc801\uc2ed\uc790 \ubc84\uc2a4\uc815\ub958\uc7a5", "latitude": 36.352955, "longitude": 127.442832, "timestamp": "2025-03-02T14:28:01.223664Z", "free_bikes": 0, "empty_slots": null, "extra": {"uid": "ST1218", "address": "\ub300\uc804\uad11\uc5ed\uc2dc \ub300\ub355\uad6c \uc1a1\ucd0c\ub3d9 367"}}, {"id": "30329d55c2a1b60b3191bb36c68ac08c", "name": "\ub300\uc804\ub300 \ud6c4\ubb38(206)", "latitude": 36.335168, "longitude": 127.456467, "timestamp": "2025-03-02T14:28:01.206151Z", "free_bikes": 0, "empty_slots": null, "extra": {"uid": "ST0054", "address": "\uc6a9\uc6b4\ub3d9 631"}}, {"id": "3034857999c6ac0ce813d82d33d09d80", "name": "\uac00\uc218\uc6d0\ud30c\ucd9c\uc18c \uac74\ub108\ud3b8(253)", "latitude": 36.308726, "longitude": 127.351583, "timestamp": "2025-03-02T14:28:01.207339Z", "free_bikes": 0, "empty_slots": null, "extra": {"uid": "ST0242", "address": "\uac00\uc218\uc6d0\ub3d9 927"}}, {"id": "3048977a7b736fcfb678ef033d220c7c", "name": "\ub86f\ub370\ubc31\ud654\uc810 \uac74\ub108\ud3b8 \uace8\ub4dc\ubc45\ud06c", "latitude": 36.341391, "longitude": 127.389783, "timestamp": "2025-03-02T14:28:01.206601Z", "free_bikes": 1, "empty_slots": null, "extra": {"uid": "ST0127", "address": "\ud0c4\ubc29\ub3d9 91-8"}}, {"id": "30cf66c7d5b8dc8f7fd4b3932b28254f", "name": "\ub3c4\uc548\ud734\uba3c\uc2dc\uc54410\ub2e8\uc9c0\uc544\ud30c\ud2b8 1001\ub3d9", "latitude": 36.33838, "longitude": 127.340334, "timestamp": "2025-03-02T14:28:01.220468Z", "free_bikes": 0, "empty_slots": null, "extra": {"uid": "ST0778", "address": "\uc6d0\uc2e0\ud765\ub3d9 494-2"}}, {"id": "30d307d3ea6d26a6cb95b825de5ef08c", "name": "\uc6d4\ud3c9\ud0c0\uc6b4(40)", "latitude": 36.352915, "longitude": 127.356225, "timestamp": "2025-03-02T14:28:01.206452Z", "free_bikes": 0, "empty_slots": null, "extra": {"uid": "ST0103", "address": "\uc6d4\ud3c9\ub3d9 1298"}}, {"id": "30daf4178a9d140b9b09c6d80f6779d7", "name": "\ub454\uc0b0\ub3d9 \ud558\uc774\ud22c\uc790\uc99d\uad8c", "latitude": 36.352483, "longitude": 127.390068, "timestamp": "2025-03-02T14:28:01.208657Z", "free_bikes": 5, "empty_slots": null, "extra": {"uid": "ST0433", "address": "\ub454\uc0b0\ub3d9 1506"}}, {"id": "311e3d4fda030f7f56a16018e5c207c6", "name": "\uc11c\ub300\uc804\uc5ed 4\ubc88\ucd9c\uad6c", "latitude": 36.322718, "longitude": 127.411924, "timestamp": "2025-03-02T14:28:01.218180Z", "free_bikes": 6, "empty_slots": null, "extra": {"uid": "ST0511", "address": "\ub300\uc804\uad11\uc5ed\uc2dc \uc911\uad6c \uc624\ub958\ub3d9 195"}}, {"id": "313f04bd9336088efdabdc8641d70945", "name": "\ub3c4\uc548 11\ub2e8\uc9c0 \ucc9c\ub144\ub098\ubb34 \uc785\uad6c(\ubd81\uce21)", "latitude": 36.341652, "longitude": 127.345658, "timestamp": "2025-03-02T14:28:01.207256Z", "free_bikes": 0, "empty_slots": null, "extra": {"uid": "ST0230", "address": "\uc6d0\uc2e0\ud765\ub3d9 512"}}, {"id": "3148cbaf176590cece18b5278e2c14af", "name": "\uad00\uc800\ub3d9 \uacf5\uc601\uc8fc\ucc28\uc7a5", "latitude": 36.300021, "longitude": 127.3379, "timestamp": "2025-03-02T14:28:01.207461Z", "free_bikes": 1, "empty_slots": null, "extra": {"uid": "ST0262", "address": "\uad00\uc800\ub3d9 1446"}}, {"id": "317a21136854126431fc8f303908a840", "name": "\ub3c4\ub9c8\ub3d9 \uacbd\ub0a8\uc544\ud30c\ud2b8 1\ub2e8\uc9c0(3\ub3d9)", "latitude": 36.320815, "longitude": 127.370582, "timestamp": "2025-03-02T14:28:01.218562Z", "free_bikes": 0, "empty_slots": null, "extra": {"uid": "ST0568", "address": "\ub3c4\ub9c8\ub3d9 205"}}, {"id": "31925697f92f218ad431219ba46ca936", "name": "\ubb38\ud654\ub3d9 \ud558\uc6b0\uc2a4\ud1a0\ub9ac 1\ucc28", "latitude": 36.320166, "longitude": 127.415835, "timestamp": "2025-03-02T14:28:01.218215Z", "free_bikes": 0, "empty_slots": null, "extra": {"uid": "ST0516", "address": "\ub300\uc0ac\ub3d9 248-222"}}, {"id": "3196622c4ab4a246bda51c26555b1ea2", "name": "\ub300\uc804\uacbd\ucc30\uccad", "latitude": 36.353848, "longitude": 127.385255, "timestamp": "2025-03-02T14:28:01.208121Z", "free_bikes": 0, "empty_slots": null, "extra": {"uid": "ST0364", "address": "\ub454\uc0b0\ub3d9 1399"}}, {"id": "322b436e5f10fe464d7f70caa9c66238", "name": "\ud0c4\ubc29\ub3d9 \ud55c\uc0ac\ub791\ubcd1\uc6d0", "latitude": 36.348446, "longitude": 127.390052, "timestamp": "2025-03-02T14:28:01.205741Z", "free_bikes": 0, "empty_slots": null, "extra": {"uid": "ST0003", "address": "\ud0c4\ubc29\ub3d9 730"}}, {"id": "322f3c4ae28e943fd9201c09f7144beb", "name": "\ubbf8\ub974\ub9c8\uc744\uc544\ud30c\ud2b8 115\ub3d9", "latitude": 36.32488, "longitude": 127.412917, "timestamp": "2025-03-02T14:28:01.242520Z", "free_bikes": 4, "empty_slots": null, "extra": {"uid": "ST1368", "address": "\ub300\uc804\uad11\uc5ed\uc2dc \uc911\uad6c \uc6a9\ub450\ub3d9 39"}}, {"id": "32464edda549183a590185576c18afbc", "name": "\ubaa9\ub828\uc544\ud30c\ud2b8(103\ub3d9)", "latitude": 36.350037, "longitude": 127.390402, "timestamp": "2025-03-02T14:28:01.205762Z", "free_bikes": 4, "empty_slots": null, "extra": {"uid": "ST0005", "address": "\ub454\uc0b0\ub3d9 1510"}}, {"id": "327985402aa41990cddc697b51a70b5b", "name": "\uc6b0\uc1a1\ub300,\uc194\ud3ab\ub3d9\ubb3c\ubcd1\uc6d0,\uc6b0\uc1a1\uc560\uacac\uc13c\ud130", "latitude": 36.334552, "longitude": 127.445966, "timestamp": "2025-03-02T14:28:01.222948Z", "free_bikes": 3, "empty_slots": null, "extra": {"uid": "ST1103", "address": "\ub300\uc804\uad11\uc5ed\uc2dc \ub3d9\uad6c \uc790\uc591\ub3d9 159"}}, {"id": "32e87d13aae749643deea90cf25d5d84", "name": "\uc2e0\ud765\ub3d9\uc2dc\uc678\ubc84\uc2a4\uc815\ub958\uc7a5", "latitude": 36.323145, "longitude": 127.445184, "timestamp": "2025-03-02T14:28:01.223677Z", "free_bikes": 0, "empty_slots": null, "extra": {"uid": "ST1222", "address": "\ub300\uc804\uad11\uc5ed\uc2dc \ub3d9\uad6c \uc2e0\ud765\ub3d9 6"}}, {"id": "32eba746cc78b069342e1404d7f93064", "name": "\uc120\ud654\uad50(\ub300\uc804\uc5ed \ubc29\ud5a5)", "latitude": 36.333186, "longitude": 127.425797, "timestamp": "2025-03-02T14:28:01.242348Z", "free_bikes": 1, "empty_slots": null, "extra": {"uid": "ST1341", "address": "\ub300\uc804\uad11\uc5ed\uc2dc \ub3d9\uad6c \uc0bc\uc131\ub3d9 457"}}, {"id": "32fac4676da56519eb69040430d1ca92", "name": "\uc6d0\ub0b4\ub3d9 \ud55c\uc544\ub984\uc544\ud30c\ud2b8 \uc0c1\uac00\ub3d9", "latitude": 36.296059, "longitude": 127.320214, "timestamp": "2025-03-02T14:28:01.220731Z", "free_bikes": 1, "empty_slots": null, "extra": {"uid": "ST0816", "address": "\uc6d0\ub0b4\ub3d9 357"}}, {"id": "3378d3e3e60beffe81cc548e3bc7a8f0", "name": "\uad81\ub3d9 \ub2e4\uc194\uc544\ud30c\ud2b8 \uc785\uad6c", "latitude": 36.361324, "longitude": 127.34789, "timestamp": "2025-03-02T14:28:01.207011Z", "free_bikes": 2, "empty_slots": null, "extra": {"uid": "ST0192", "address": "\uad81\ub3d9 418-2"}}, {"id": "33a7194db1b19768844d91b58992ea48", "name": "\uc6d4\ud3c91\ub3d9 \uacf5\uc601\uc8fc\ucc28\uc7a5 \uc785\uad6c", "latitude": 36.356261, "longitude": 127.362776, "timestamp": "2025-03-02T14:28:01.224167Z", "free_bikes": 5, "empty_slots": null, "extra": {"uid": "ST1285", "address": "\ub300\uc804\uad11\uc5ed\uc2dc \uc11c\uad6c \uc6d4\ud3c9\ub3d9 1525"}}, {"id": "33f8dd024e3c80b18ae8e8ac8ae4a631", "name": "\ud55c\uad6d\ud0c0\uc774\uc5b4 \ud6c4\ubb38 \uc815\ub958\uc7a5(\ubaa9\uc0c1\ub3d9)", "latitude": 36.449827, "longitude": 127.41556, "timestamp": "2025-03-02T14:28:01.242626Z", "free_bikes": 2, "empty_slots": null, "extra": {"uid": "ST1385", "address": "\ub300\uc804\uad11\uc5ed\uc2dc \ub300\ub355\uad6c \ubaa9\uc0c1\ub3d9 37-5"}}, {"id": "3412436c5ff84085541aa3c5bd11b7da", "name": "\uc2e0\ub300\ub178\uc778\ubcf5\uc9c0\uad00", "latitude": 36.398428, "longitude": 127.420516, "timestamp": "2025-03-02T14:28:01.207755Z", "free_bikes": 0, "empty_slots": null, "extra": {"uid": "ST0306", "address": "\uc2e0\ub300\ub3d9 228-5"}}, {"id": "3438df6710012984ebd40a6f5f3b894d", "name": "\ubd09\uba85\ub3d9 \ub9e4\ub4dc\ube14\ub7ed", "latitude": 36.358699, "longitude": 127.343662, "timestamp": "2025-03-02T14:28:01.222496Z", "free_bikes": 2, "empty_slots": null, "extra": {"uid": "ST1023", "address": "\ub300\uc804\uad11\uc5ed\uc2dc \uc720\uc131\uad6c \ubd09\uba85\ub3d9 608"}}, {"id": "3466e58f0fd90c7cd73823a4df137b81", "name": "\ucda9\ub0a8\uc5ec\uace0 \uc55e \ubcf4\ub3c4\uc721\uad50(\ucda9\ub0a8\uc5ec\uace0 \uce21)", "latitude": 36.330633, "longitude": 127.409798, "timestamp": "2025-03-02T14:28:01.224108Z", "free_bikes": 0, "empty_slots": null, "extra": {"uid": "ST1275", "address": "\ub300\uc804\uad11\uc5ed\uc2dc \uc911\uad6c \ubaa9\ub3d9 111-10"}}, {"id": "34c3692158d764c18fd76a1242934504", "name": "\ub3c4\uc548\ub3d9 \ud558\ub098\uc740\ud589", "latitude": 36.331925, "longitude": 127.340176, "timestamp": "2025-03-02T14:28:01.220448Z", "free_bikes": 1, "empty_slots": null, "extra": {"uid": "ST0775", "address": "\ub300\uc804\uad11\uc5ed\uc2dc \uc11c\uad6c \ub3c4\uc548\ub3d9 854"}}, {"id": "351bcc25882c902371d39b7f4e379d47", "name": "\ub0b4\ub3d9 \uc7a5\ub09c\uac10\ud560\uc778\ub9c8\ud2b8", "latitude": 36.334194, "longitude": 127.36925, "timestamp": "2025-03-02T14:28:01.218486Z", "free_bikes": 0, "empty_slots": null, "extra": {"uid": "ST0556", "address": "\ub0b4\ub3d9 155-9"}}, {"id": "35401f760566254140ce9444566e42a3", "name": "\uc624\ud398\ub77c\uc6e8\ub529\ud640 \uac74\ub108\ud3b8(47)", "latitude": 36.348453, "longitude": 127.382779, "timestamp": "2025-03-02T14:28:01.208358Z", "free_bikes": 0, "empty_slots": null, "extra": {"uid": "ST0386", "address": "\ub454\uc0b0\ub3d9 1255"}}, {"id": "3564bb74f7e84c69abc2c30dfe24db1e", "name": "\uc11d\ubd09\ub3d9 \ud3c9\uc548\uc815\ud615\uc678\uacfc \uac74\ub108\ud3b8", "latitude": 36.444868, "longitude": 127.42456, "timestamp": "2025-03-02T14:28:01.223270Z", "free_bikes": 2, "empty_slots": null, "extra": {"uid": "ST1147", "address": "\ub300\uc804\uad11\uc5ed\uc2dc \ub300\ub355\uad6c \uc11d\ubd09\ub3d9 768"}}, {"id": "35789303aefc26eaf06f971ffd66b098", "name": "\ud30c\ud30c\uc874\uc2a4 \ub300\uc804\ub3d9\uad6c\uc810 ", "latitude": 36.325749, "longitude": 127.445308, "timestamp": "2025-03-02T14:28:01.242270Z", "free_bikes": 1, "empty_slots": null, "extra": {"uid": "ST1329", "address": "\ub300\uc804\uad11\uc5ed\uc2dc \ub3d9\uad6c \ub300\ub3d9 195-19"}}, {"id": "35b0ad05de2984288befb9ac1d3f1e71", "name": "\ubc18\uc11d\ub9c8\uc7441\ub2e8\uc9c0\ud638\ubc18\ub9ac\uc820\uc2dc\ube4c 102\ub3d9", "latitude": 36.387894, "longitude": 127.310805, "timestamp": "2025-03-02T14:28:01.220316Z", "free_bikes": 0, "empty_slots": null, "extra": {"uid": "ST0753", "address": "\uc9c0\uc871\ub3d9 977"}}, {"id": "35eb8aea0a43d093a9fa8a2f3744675b", "name": "\ube44\ub798\ub3d9 \uae08\uc131\ubc31\uc870(101\ub3d9 \ubd81\ucabd)", "latitude": 36.358738, "longitude": 127.451886, "timestamp": "2025-03-02T14:28:01.222216Z", "free_bikes": 0, "empty_slots": null, "extra": {"uid": "ST0974", "address": "\ube44\ub798\ub3d9 535"}}, {"id": "363c7ace3e20620800455e0bac754dc4", "name": "\ub300\uc804\uc911\ud559\uad50 \uac74\ub108\ud3b8(\ubcf4\ubb38\uc624\uac70\ub9ac \ubc29\uba74)", "latitude": 36.320298, "longitude": 127.424093, "timestamp": "2025-03-02T14:28:01.218430Z", "free_bikes": 0, "empty_slots": null, "extra": {"uid": "ST0548", "address": "\ub300\ud765\ub3d9 330-18"}}, {"id": "3658d204b46e6a50360c4d3e2b814965", "name": "\uad00\uc800\ub3d9 \ub9c8\uce58\uad11\uc7a5 \ud574\ub730\ub9c8\uc744\uc5b4\ub9b0\uc774\ub3c4\uc11c\uad00", "latitude": 36.29797, "longitude": 127.338627, "timestamp": "2025-03-02T14:28:01.207408Z", "free_bikes": 1, "empty_slots": null, "extra": {"uid": "ST0254", "address": "\uad00\uc800\ub3d9 1516"}}, {"id": "368221e28fe0f1619ef1756201d08b18", "name": "\ub300\uc804\ub300\ud559\uad50(\uc0c8\uc6b8\ubc29\uba74)  ", "latitude": 36.332506, "longitude": 127.463753, "timestamp": "2025-03-02T14:28:01.242251Z", "free_bikes": 0, "empty_slots": null, "extra": {"uid": "ST1326", "address": "\ub300\uc804\uad11\uc5ed\uc2dc \ub3d9\uad6c \uc6a9\uc6b4\ub3d9 510-85"}}, {"id": "36abbe5589e07175e8b1edb91b694d4b", "name": "\ubc84\ub4dc\ub0b4\ucd08\ub4f1\ud559\uad50(89)", "latitude": 36.319767, "longitude": 127.392384, "timestamp": "2025-03-02T14:28:01.207860Z", "free_bikes": 4, "empty_slots": null, "extra": {"uid": "ST0322", "address": "\ud0dc\ud3c9\ub3d9 551"}}, {"id": "36ac51b582bda87f7b527eaf7ec7b415", "name": "\ubb38\ud654\ub3d9 \uc13c\ud2b8\ub7f4\ud30c\ud06c 3\ub2e8\uc9c0(307\ub3d9)", "latitude": 36.317873, "longitude": 127.413673, "timestamp": "2025-03-02T14:28:01.218235Z", "free_bikes": 5, "empty_slots": null, "extra": {"uid": "ST0519", "address": "\ubb38\ud654\ub3d9 1-3"}}, {"id": "36d193d78a05f8ad68059570776fa6d3", "name": "\ub454\uc0b0\ub3d9 \ud604\ub300\ud574\uc0c1", "latitude": 36.352974, "longitude": 127.382773, "timestamp": "2025-03-02T14:28:01.208108Z", "free_bikes": 0, "empty_slots": null, "extra": {"uid": "ST0362", "address": "\ub454\uc0b0\ub3d9 1309"}}, {"id": "377520a7820d02a8082afb8930557b9e", "name": "\uc9c0\ub3c4\ud45c\uc131\uacbd\uae40", "latitude": 36.411588, "longitude": 127.424494, "timestamp": "2025-03-02T14:28:01.242595Z", "free_bikes": 2, "empty_slots": null, "extra": {"uid": "ST1380", "address": "\ub300\uc804\uad11\uc5ed\uc2dc \ub300\ub355\uad6c \uc640\ub3d9 250"}}, {"id": "3806a99f1d5af298688557d2c5cf5258", "name": "\uce68\uc2e0\ub300\ub124\uac70\ub9ac(\ub86f\ub370\ub9c8\ud2b8)", "latitude": 36.384798, "longitude": 127.320819, "timestamp": "2025-03-02T14:28:01.206681Z", "free_bikes": 0, "empty_slots": null, "extra": {"uid": "ST0140", "address": "\ud558\uae30\ub3d9 519"}}, {"id": "3875a843e51d5669abddd29a3b1992db", "name": "\ub3c4\ub8e1\ub3d9 \uae30\ucd08\uacfc\ud559\uc5f0\uad6c\uc6d0", "latitude": 36.376255, "longitude": 127.386106, "timestamp": "2025-03-02T14:28:01.242733Z", "free_bikes": 1, "empty_slots": null, "extra": {"uid": "ST1402", "address": "\ub300\uc804\uad11\uc5ed\uc2dc \uc720\uc131\uad6c \ub3c4\ub8e1\ub3d9 3-1"}}, {"id": "38916d6c7f963fd51f4dd6b83c746c8c", "name": "\uc120\ud654\ub3d9 \uae08\uac15\ud68c\uad00", "latitude": 36.334306, "longitude": 127.420776, "timestamp": "2025-03-02T14:28:01.208095Z", "free_bikes": 1, "empty_slots": null, "extra": {"uid": "ST0360", "address": "\uc120\ud654\ub3d9 73-5"}}, {"id": "38ae455066f3081d372daed2ca8ef71c", "name": "\uc131\ub0a8\ub3d9 \uc2a4\ub9c8\ud2b8\ubdf0(110\ub3d9)", "latitude": 36.341915, "longitude": 127.433, "timestamp": "2025-03-02T14:28:01.219398Z", "free_bikes": 0, "empty_slots": null, "extra": {"uid": "ST0625", "address": "\uc131\ub0a8\ub3d9 528"}}, {"id": "38d6dd95cb3f36e206880c568265fff2", "name": "\ubc95\ub3d9 \uc601\uc9c4\ub85c\uc584\uc544\ud30c\ud2b8 \uc785\uad6c", "latitude": 36.37412, "longitude": 127.426557, "timestamp": "2025-03-02T14:28:01.222440Z", "free_bikes": 4, "empty_slots": null, "extra": {"uid": "ST1013", "address": "\ubc95\ub3d9 344-16"}}, {"id": "3a33eac1515aff372903782db87c83b0", "name": "\uc6d4\ud3c9\uc5ed 1\ubc88\ucd9c\uad6c", "latitude": 36.357998, "longitude": 127.364775, "timestamp": "2025-03-02T14:28:01.206412Z", "free_bikes": 0, "empty_slots": null, "extra": {"uid": "ST0096", "address": "\uc6d4\ud3c9\ub3d9 541"}}, {"id": "3b143ac53ca6579fbf2a17956df39472", "name": "\uac08\ub9c8\uc544\ud30c\ud2b8 \ud55c\ub9c8\uc74c\ub3d9\uc0b0(222)", "latitude": 36.344199, "longitude": 127.368366, "timestamp": "2025-03-02T14:28:01.206473Z", "free_bikes": 1, "empty_slots": null, "extra": {"uid": "ST0106", "address": "\uac08\ub9c8\ub3d9 392-6"}}, {"id": "3b6df136fad8c312ff439d1c5fa806d0", "name": "\ub3c4\uc548 2\ub2e8\uc9c0 \ud638\ubc18\ubca0\ub974\ub514\uc6c0(201\ub3d9)(145)", "latitude": 36.348885, "longitude": 127.347667, "timestamp": "2025-03-02T14:28:01.207078Z", "free_bikes": 3, "empty_slots": null, "extra": {"uid": "ST0202", "address": "\ubd09\uba85\ub3d9 1021"}}, {"id": "3b71e592b28bfe4cde340725ace87083", "name": "\ub3c4\uc548 17\ub2e8\uc9c0 \uacc4\ub8e1\ub9ac\uc288\ube4c(1710\ub3d9)", "latitude": 36.317298, "longitude": 127.347777, "timestamp": "2025-03-02T14:28:01.207312Z", "free_bikes": 1, "empty_slots": null, "extra": {"uid": "ST0238", "address": "\ub3c4\uc548\ub3d9 1368"}}, {"id": "3bd59c6fe850ae67bebd70e0431193c9", "name": "\ud0dc\ud3c9\ub3d9 \uc30d\uc6a9\uc608\uac00(87)", "latitude": 36.322685, "longitude": 127.398107, "timestamp": "2025-03-02T14:28:01.223313Z", "free_bikes": 8, "empty_slots": null, "extra": {"uid": "ST1155", "address": "\ub300\uc804\uad11\uc5ed\uc2dc \uc911\uad6c \ud0dc\ud3c9\ub3d9 554"}}, {"id": "3bee2fa158ed2a240a2663e4bdb634a5", "name": "\uad00\uc800\ub354\uc0f5 2\ucc28(202\ub3d9)", "latitude": 36.293938, "longitude": 127.326051, "timestamp": "2025-03-02T14:28:01.222616Z", "free_bikes": 0, "empty_slots": null, "extra": {"uid": "ST1042", "address": "\ub300\uc804\uad11\uc5ed\uc2dc \uc11c\uad6c \uad00\uc800\ub3d9 1981"}}, {"id": "3c0507bdcd2179e64217292e6abd789f", "name": "\ub300\uc804\ubcf4\uac74\ub300(225)", "latitude": 36.349253, "longitude": 127.451694, "timestamp": "2025-03-02T14:28:01.219537Z", "free_bikes": 1, "empty_slots": null, "extra": {"uid": "ST0647", "address": "\uac00\uc591\ub3d9 88-1"}}, {"id": "3c0fb46f03a51186c46f8323433c12c9", "name": "\uc9c0\uc871\ub3d9 \uacbd\uc2e0\ube4c\ub529", "latitude": 36.375826, "longitude": 127.31618, "timestamp": "2025-03-02T14:28:01.221487Z", "free_bikes": 0, "empty_slots": null, "extra": {"uid": "ST0906", "address": "\uc9c0\uc871\ub3d9 884-4"}}, {"id": "3c11b942236d998ee71103a2945bb7ba", "name": "\ub300\uc804\ubcf5\ud569\ubc84\uc2a4\ud130\ubbf8\ub110(118)", "latitude": 36.3488, "longitude": 127.434918, "timestamp": "2025-03-02T14:28:01.206242Z", "free_bikes": 2, "empty_slots": null, "extra": {"uid": "ST0069", "address": "\uc6a9\uc804\ub3d9 143-46"}}, {"id": "3c1d8836fc224fcae3d0afd4a5c6ea93", "name": "\ud5a5\ucd0c\uc544\ud30c\ud2b8 116\ub3d9 \uc815\ub958\uc7a5", "latitude": 36.354981, "longitude": 127.374504, "timestamp": "2025-03-02T14:28:01.219931Z", "free_bikes": 1, "empty_slots": null, "extra": {"uid": "ST0710", "address": "\ub454\uc0b0\ub3d9 970"}}, {"id": "3c4a0f46697aadc28abf12f57eddc959", "name": "\ub300\uc804\uacfc\ud559\uae30\uc220\ub300 \uc815\ubb38 \uac74\ub108\ud3b8", "latitude": 36.304837, "longitude": 127.374705, "timestamp": "2025-03-02T14:28:01.206650Z", "free_bikes": 0, "empty_slots": null, "extra": {"uid": "ST0135", "address": "\ubcf5\uc218\ub3d9 275-31"}}, {"id": "3caed5a47a7b6eaad25bf42c9519150c", "name": "\uc0b0\uc131\ub3d9 \ub2f9\ub514\uc22f\ubd88\uac08\ube44", "latitude": 36.310054, "longitude": 127.388576, "timestamp": "2025-03-02T14:28:01.218340Z", "free_bikes": 0, "empty_slots": null, "extra": {"uid": "ST0535", "address": "\uc0b0\uc131\ub3d9 144-9"}}, {"id": "3cc22cacef903749f9cf9c9e681066e6", "name": "\uc6a9\ubb38\ub3d9 \ub9ac\ubca0\ub77c\uc544\uc774\ub204\ub9ac 1\ub2e8\uc9c0(101\ub3d9)", "latitude": 36.335689, "longitude": 127.39612, "timestamp": "2025-03-02T14:28:01.206570Z", "free_bikes": 5, "empty_slots": null, "extra": {"uid": "ST0122", "address": "\uc6a9\ubb38\ub3d9 255-7"}}, {"id": "3cd6fa5cca1183de11901e5b86d3109a", "name": "\ub178\uc7403\uc9c0\uad6c \ub178\uc740\ud574\ub791\uc232\ub9c8\uc744 5\ub2e8\uc9c0 \uc544\ud30c\ud2b8 508\ub3d9 \uc55e", "latitude": 36.385803, "longitude": 127.304398, "timestamp": "2025-03-02T14:28:01.223755Z", "free_bikes": 1, "empty_slots": null, "extra": {"uid": "ST1240", "address": "\ub300\uc804\uad11\uc5ed\uc2dc \uc720\uc131\uad6c \uc9c0\uc871\ub3d9 1033"}}, {"id": "3ce07ca7388866ac9f4c696c90511501", "name": "\uad6d\ub9bd\uc911\uc559\uacfc\ud559\uad00(104)", "latitude": 36.37522, "longitude": 127.378129, "timestamp": "2025-03-02T14:28:01.222765Z", "free_bikes": 6, "empty_slots": null, "extra": {"uid": "ST1066", "address": "\ub300\uc804\uad11\uc5ed\uc2dc \uc720\uc131\uad6c \uac00\uc815\ub3d9 54-3"}}, {"id": "3cfc8e9136e54640ed0b4c583f9e2b50", "name": "\uc11c\ub300\uc804\ub18d\ud611 \ubcf8\uc810 \uc8fc\ucc28\uc7a5", "latitude": 36.318013, "longitude": 127.395195, "timestamp": "2025-03-02T14:28:01.207801Z", "free_bikes": 3, "empty_slots": null, "extra": {"uid": "ST0313", "address": "\uc720\ucc9c\ub3d9 308-3"}}, {"id": "3d33cd3ef69739a07717decd3716c334", "name": "\ub300\ud765\ub124\uac70\ub9ac(171)", "latitude": 36.3236, "longitude": 127.42867, "timestamp": "2025-03-02T14:28:01.222812Z", "free_bikes": 0, "empty_slots": null, "extra": {"uid": "ST1073", "address": "\ub300\uc804\uad11\uc5ed\uc2dc \uc911\uad6c \ub300\ud765\ub3d9 630"}}, {"id": "3d43fc3fce69c927e89b0edf79a039ca", "name": "\uac11\ucc9c1\ube14\ub7ed \ud2b8\ub9ac\ud50c\uc2dc\ud2f0 \ud790\uc2a4\ud14c\uc774\ud2b8", "latitude": 36.342265, "longitude": 127.347635, "timestamp": "2025-03-02T14:28:01.242746Z", "free_bikes": 1, "empty_slots": null, "extra": {"uid": "ST1404", "address": "\ub300\uc804\uad11\uc5ed\uc2dc \uc720\uc131\uad6c \uc6d0\uc2e0\ud765\ub3d9 610"}}, {"id": "3d9a8009946cde5c7011206b6090764b", "name": "\ub300\ud654\ub3d9 \ub300\uc804\ubcd1\uc6d0(GS25)", "latitude": 36.362747, "longitude": 127.417977, "timestamp": "2025-03-02T14:28:01.217947Z", "free_bikes": 0, "empty_slots": null, "extra": {"uid": "ST0477", "address": "\ub300\uc804\uad11\uc5ed\uc2dc \ub300\ub355\uad6c \uc624\uc815\ub3d9 10-102"}}, {"id": "3daaccd7d8668e77eb1fc107171a82a7", "name": "\uc720\uc131\uc628\ucc9c\uc5ed 1\ubc88\ucd9c\uad6c", "latitude": 36.353291, "longitude": 127.342098, "timestamp": "2025-03-02T14:28:01.207038Z", "free_bikes": 1, "empty_slots": null, "extra": {"uid": "ST0196", "address": "\ubd09\uba85\ub3d9 1016-1"}}, {"id": "3e7b6b95ef2a2c9265f5d906f869216e", "name": "\ubc95\ubb34\ubd80 \ub300\uc804\uc194\ub85c\ubaac\ub85c\ud30c\ud06c", "latitude": 36.377126, "longitude": 127.403183, "timestamp": "2025-03-02T14:28:01.223714Z", "free_bikes": 19, "empty_slots": null, "extra": {"uid": "ST1228", "address": "\ub300\uc804\uad11\uc5ed\uc2dc \uc720\uc131\uad6c \uc6d0\ucd0c\ub3d9 53"}}, {"id": "3e8e11d8a63d45396ddf8823351f9e65", "name": "\uad00\uc8001\ub3d9 \ud589\uc815\ubcf5\uc9c0\uc13c\ud130(177)", "latitude": 36.303741, "longitude": 127.337202, "timestamp": "2025-03-02T14:28:01.207567Z", "free_bikes": 0, "empty_slots": null, "extra": {"uid": "ST0278", "address": "\uad00\uc800\ub3d9 999-3"}}, {"id": "3ea8d591e902e061e5bb6dc0a0312e00", "name": "\ud559\ud558\ub9ac\uc288\ube4c\ud3ec\ub808 \ubd80\ucd9c\uc785\uad6c \uc55e", "latitude": 36.334663, "longitude": 127.310289, "timestamp": "2025-03-02T14:28:01.223658Z", "free_bikes": 0, "empty_slots": null, "extra": {"uid": "ST1217", "address": "\ub300\uc804\uad11\uc5ed\uc2dc \uc720\uc131\uad6c \ud559\ud558\ub3d9 823"}}, {"id": "3f343455dcece83afae74097bd7960ac", "name": "\uc9c0\uc871\ub3d9 \uc5f4\ub9e4\ub9c8\uc744 2\ub2e8\uc9c0(202\ub3d9)", "latitude": 36.37998, "longitude": 127.318261, "timestamp": "2025-03-02T14:28:01.221505Z", "free_bikes": 0, "empty_slots": null, "extra": {"uid": "ST0909", "address": "\uc9c0\uc871\ub3d9 873"}}, {"id": "3f3f7de784a8c559a881149bc536e5f6", "name": "\uc5b4\uc740\uce58\uc548\uc13c\ud130 \uc785\uad6c", "latitude": 36.360821, "longitude": 127.354303, "timestamp": "2025-03-02T14:28:01.220382Z", "free_bikes": 5, "empty_slots": null, "extra": {"uid": "ST0764", "address": "\uc5b4\uc740\ub3d9 106-3"}}, {"id": "3f4cf2b2b9b9a9321a0101f3fdc78bcb", "name": "\uac00\uc591\ub3c4\uc11c\uad00 \ubc84\uc2a4\uc815\ub958\uc7a5", "latitude": 36.348545, "longitude": 127.444001, "timestamp": "2025-03-02T14:28:01.219746Z", "free_bikes": 0, "empty_slots": null, "extra": {"uid": "ST0679", "address": "\uac00\uc591\ub3d9 422-7"}}, {"id": "3f7daa366c484f009cb1504930448be9", "name": "\uac00\uc7a5\uad50(\uc131\uc740\uc0ac)(113)", "latitude": 36.328533, "longitude": 127.388022, "timestamp": "2025-03-02T14:28:01.207834Z", "free_bikes": 0, "empty_slots": null, "extra": {"uid": "ST0318", "address": "\uac00\uc7a5\ub3d9 31-7"}}, {"id": "3f9cf09efd38651abd3669766c598bb1", "name": "\uc2e0\ud0c4\uc9c4\uc5ed(127)", "latitude": 36.448314, "longitude": 127.429185, "timestamp": "2025-03-02T14:28:01.220156Z", "free_bikes": 6, "empty_slots": null, "extra": {"uid": "ST0726", "address": "\uc2e0\ud0c4\uc9c4\ub3d9 147-5"}}, {"id": "3fdc3f36592cd5727d07598cd6535b24", "name": "\uc2e0\ud765\ubb38\ud654\uacf5\uc6d0", "latitude": 36.324584, "longitude": 127.445479, "timestamp": "2025-03-02T14:28:01.242224Z", "free_bikes": 1, "empty_slots": null, "extra": {"uid": "ST1322", "address": "\ub300\uc804\uad11\uc5ed\uc2dc \ub3d9\uad6c \uc2e0\ud765\ub3d9 266"}}, {"id": "403337c1a557747ae750e7757120f8f5", "name": "\uc790\uc6b4\ub300 \uc1fc\ud551\ud0c0\uc6b4(231\ub3d9)", "latitude": 36.414126, "longitude": 127.337154, "timestamp": "2025-03-02T14:28:01.222331Z", "free_bikes": 1, "empty_slots": null, "extra": {"uid": "ST0994", "address": "\uc2e0\ubd09\ub3d9 230-13"}},