{"id": "tigullionbike", "name": "Tigullionbike", "location": {"latitude": 44.272554, "longitude": 9.395714, "city": "Sestri Levante - Lavagna", "country": "IT"}, "href": "/v2/networks/tigullionbike", "company": ["Comunicare S.r.l."], "system": "Bicincitt\u00e0", "source": "https://www.bicincitta.com/frmLeStazioni.aspx?ID=80", "stations": [{"id": "4445eed27b59cec36a1dd3cff6f18b07", "name": "02. Sestri Levante FS", "latitude": 44.27607210589551, "longitude": 9.397017359733583, "timestamp": "2025-05-03T03:15:49.795870+00:00Z", "free_bikes": 0, "empty_slots": 8, "extra": {"uid": "578", "number": 2, "status": "offline", "score": 1.7, "reviews": 25}}, {"id": "5596a307c7a274cfcdbc2d7a9370a908", "name": "04. Tannino", "latitude": 44.272553791754596, "longitude": 9.41034257411957, "timestamp": "2025-05-03T03:15:49.795891+00:00Z", "free_bikes": 0, "empty_slots": 0, "extra": {"uid": "580", "number": 4, "status": "offline", "score": 1.9, "reviews": 35}}, {"id": "7b3da5bd731a925fd149539db7dc4aff", "name": "05. Parco Lavagnina", "latitude": 44.26909843699858, "longitude": 9.425800443288967, "timestamp": "2025-05-03T03:15:49.795901+00:00Z", "free_bikes": 1, "empty_slots": 5, "extra": {"uid": "581", "number": 5, "status": "online", "score": 1.2, "reviews": 22}}, {"id": "bf3b95f1a5d176956cbffaad9dbe0814", "name": "03. Baia delle favole", "latitude": 44.270840649886665, "longitude": 9.393246173858644, "timestamp": "2025-05-03T03:15:49.795881+00:00Z", "free_bikes": 1, "empty_slots": 7, "extra": {"uid": "579", "number": 3, "status": "offline", "score": 2.0, "reviews": 30}}, {"id": "cec72fa7468e07be9f0c723ede0ceff0", "name": "07. San Bartolomeo", "latitude": 44.266906, "longitude": 9.418236, "timestamp": "2025-05-03T03:15:49.795923+00:00Z", "free_bikes": 0, "empty_slots": 5, "extra": {"uid": "920", "number": 7, "status": "offline", "score": 1.3, "reviews": 5}}, {"id": "d35e47d5c89fbbecfab260e82f119c57", "name": "06. Riva Trigoso", "latitude": 44.2592660312764, "longitude": 9.423517584800722, "timestamp": "2025-05-03T03:15:49.795913+00:00Z", "free_bikes": 2, "empty_slots": 5, "extra": {"uid": "582", "number": 6, "status": "offline", "score": 1.9, "reviews": 23}}, {"id": "d9aabfd7f2fff0fbd7fd752286eb944f", "name": "01. Lungomare Descalzo", "latitude": 44.27770059920247, "longitude": 9.393020868301393, "timestamp": "2025-05-03T03:15:49.795858+00:00Z", "free_bikes": 3, "empty_slots": 4, "extra": {"uid": "577", "number": 1, "status": "offline", "score": 2.0, "reviews": 25}}, {"id": "fe091c7869ea9ed6b87b85cac6c4f1f6", "name": "08. Parco Mandela", "latitude": 44.27106045337366, "longitude": 9.405822136318488, "timestamp": "2025-05-03T03:15:49.795830+00:00Z", "free_bikes": 1, "empty_slots": 4, "extra": {"uid": "576", "number": 8, "status": "offline", "score": 1.9, "reviews": 44}}]}