{"id": "twisto-velo", "name": "Twisto v\u00e9lo", "location": {"latitude": 49.1813403, "longitude": -0.3635615, "city": "Caen", "country": "FR"}, "href": "/v2/networks/twisto-velo", "company": ["Fifteen"], "gbfs_href": "https://gbfs.partners.fifteen.eu/gbfs/2.2/caen/en/gbfs.json", "stations": [{"id": "07f80f62c90da639c5f5f2d85255edf8", "name": "Lebisey", "latitude": 49.19951, "longitude": -0.35386, "timestamp": "2025-05-03T03:15:41.879871+00:00Z", "free_bikes": 7, "empty_slots": 0, "extra": {"uid": "ctbhn701snvdkble5rag", "renting": true, "returning": true, "last_updated": 1746242120, "slots": 10, "ebikes": 7, "has_ebikes": true, "rental_uris": {"android": "-%!(EXTRA string=ctbhn701snvdkble5rag)", "ios": "-%!(EXTRA string=ctbhn701snvdkble5rag)"}, "virtual": false}}, {"id": "08529d61303278bfbf5223e3a967d25f", "name": "Carpiquet Mairie", "latitude": 49.1836, "longitude": -0.44082, "timestamp": "2025-05-03T03:15:41.879368+00:00Z", "free_bikes": 5, "empty_slots": 4, "extra": {"uid": "ctbhn6g1snvdkble5qk0", "renting": true, "returning": true, "last_updated": 1746242120, "slots": 10, "ebikes": 5, "has_ebikes": true, "rental_uris": {"android": "-%!(EXTRA string=ctbhn6g1snvdkble5qk0)", "ios": "-%!(EXTRA string=ctbhn6g1snvdkble5qk0)"}, "virtual": false}}, {"id": "140b2e5253b62d000f79ee035253df83", "name": "H\u00e9rouville Fonderie ", "latitude": 49.20996, "longitude": -0.33537, "timestamp": "2025-05-03T03:15:41.879814+00:00Z", "free_bikes": 10, "empty_slots": 0, "extra": {"uid": "ctbhn701snvdkble5r7g", "renting": true, "returning": true, "last_updated": 1746242120, "slots": 10, "ebikes": 10, "has_ebikes": true, "rental_uris": {"android": "-%!(EXTRA string=ctbhn701snvdkble5r7g)", "ios": "-%!(EXTRA string=ctbhn701snvdkble5r7g)"}, "virtual": false}}, {"id": "14b9fce199bece5136a93a4b31a7dd5d", "name": "Saint-Jean-Eudes", "latitude": 49.19056, "longitude": -0.34243, "timestamp": "2025-05-03T03:15:41.880169+00:00Z", "free_bikes": 0, "empty_slots": 9, "extra": {"uid": "ctq0fmdj5eo065fugiqg", "renting": true, "returning": true, "last_updated": 1746242120, "slots": 10, "ebikes": 0, "has_ebikes": true, "normal_bikes": 0, "rental_uris": {"android": "-%!(EXTRA string=ctq0fmdj5eo065fugiqg)", "ios": "-%!(EXTRA string=ctq0fmdj5eo065fugiqg)"}, "virtual": false}}, {"id": "153d2c3d852e52ac9306ca53d83b5740", "name": "Port - Place Courtonne", "latitude": 49.18406, "longitude": -0.3557, "timestamp": "2025-05-03T03:15:41.880218+00:00Z", "free_bikes": 0, "empty_slots": 20, "extra": {"uid": "ctrbpd5j5eocn9cbci1g", "renting": true, "returning": true, "last_updated": 1746242120, "slots": 20, "ebikes": 0, "has_ebikes": true, "rental_uris": {"android": "-%!(EXTRA string=ctrbpd5j5eocn9cbci1g)", "ios": "-%!(EXTRA string=ctrbpd5j5eocn9cbci1g)"}, "virtual": false}}, {"id": "1936da52f6518e211e9a0782cbcb6cea", "name": "Abbaye-aux-Hommes ", "latitude": 49.18154, "longitude": -0.37103, "timestamp": "2025-05-03T03:15:41.879043+00:00Z", "free_bikes": 0, "empty_slots": 6, "extra": {"uid": "ctbhn681snvdkble5qe0", "renting": true, "returning": true, "last_updated": 1746242120, "slots": 10, "ebikes": 0, "has_ebikes": true, "rental_uris": {"android": "-%!(EXTRA string=ctbhn681snvdkble5qe0)", "ios": "-%!(EXTRA string=ctbhn681snvdkble5qe0)"}, "virtual": false}}, {"id": "1c3224d63f3fb82f2411664a7ea2842a", "name": "Colombelles Effiscience", "latitude": 49.18825, "longitude": -0.30689, "timestamp": "2025-05-03T03:15:41.879521+00:00Z", "free_bikes": 2, "empty_slots": 7, "extra": {"uid": "ctbhn6vaok6uht7ctbh0", "renting": true, "returning": true, "last_updated": 1746242120, "slots": 10, "ebikes": 2, "has_ebikes": true, "rental_uris": {"android": "-%!(EXTRA string=ctbhn6vaok6uht7ctbh0)", "ios": "-%!(EXTRA string=ctbhn6vaok6uht7ctbh0)"}, "virtual": false}}, {"id": "246d16156be183c56a924a97c6372f16", "name": "Giberville Pierre de Coubertin ", "latitude": 49.18216, "longitude": -0.28269, "timestamp": "2025-05-03T03:15:41.879743+00:00Z", "free_bikes": 12, "empty_slots": 0, "extra": {"uid": "ctbhn6o1snvdkble5r1g", "renting": true, "returning": true, "last_updated": 1746242120, "slots": 10, "ebikes": 12, "has_ebikes": true, "rental_uris": {"android": "-%!(EXTRA string=ctbhn6o1snvdkble5r1g)", "ios": "-%!(EXTRA string=ctbhn6o1snvdkble5r1g)"}, "virtual": false}}, {"id": "2556d0fbc0745fb53cda852fd99f7fd5", "name": "Blainville-sur-Orne M\u00e9diath\u00e8que", "latitude": 49.22696, "longitude": -0.30257, "timestamp": "2025-05-03T03:15:41.879098+00:00Z", "free_bikes": 3, "empty_slots": 6, "extra": {"uid": "ctbhn6g1snvdkble5qfg", "renting": true, "returning": true, "last_updated": 1746242120, "slots": 10, "ebikes": 3, "has_ebikes": true, "rental_uris": {"android": "-%!(EXTRA string=ctbhn6g1snvdkble5qfg)", "ios": "-%!(EXTRA string=ctbhn6g1snvdkble5qfg)"}, "virtual": false}}, {"id": "2622b214fa99f595a53b883649aa76b7", "name": "CHU - Entr\u00e9e sud", "latitude": 49.20396, "longitude": -0.35903, "timestamp": "2025-05-03T03:15:41.879488+00:00Z", "free_bikes": 0, "empty_slots": 20, "extra": {"uid": "ctbhn6o1snvdkble5qog", "renting": true, "returning": true, "last_updated": 1746242120, "slots": 20, "ebikes": 0, "has_ebikes": true, "rental_uris": {"android": "-%!(EXTRA string=ctbhn6o1snvdkble5qog)", "ios": "-%!(EXTRA string=ctbhn6o1snvdkble5qog)"}, "virtual": false}}, {"id": "27595910fef3f9d0527978c0263290c1", "name": "Ifs Jean Vilar", "latitude": 49.15002, "longitude": -0.35059, "timestamp": "2025-05-03T03:15:41.879843+00:00Z", "free_bikes": 7, "empty_slots": 3, "extra": {"uid": "ctbhn701snvdkble5r90", "renting": true, "returning": true, "last_updated": 1746242120, "slots": 10, "ebikes": 7, "has_ebikes": true, "rental_uris": {"android": "-%!(EXTRA string=ctbhn701snvdkble5r90)", "ios": "-%!(EXTRA string=ctbhn701snvdkble5r90)"}, "virtual": false}}, {"id": "2949740de193efe00c1967d46e1cf745", "name": "Foch", "latitude": 49.17852, "longitude": -0.35996, "timestamp": "2025-05-03T03:15:41.880116+00:00Z", "free_bikes": 0, "empty_slots": 9, "extra": {"uid": "ctq0fmdj5eo065fugim0", "renting": true, "returning": true, "last_updated": 1746242120, "slots": 10, "ebikes": 0, "has_ebikes": true, "rental_uris": {"android": "-%!(EXTRA string=ctq0fmdj5eo065fugim0)", "ios": "-%!(EXTRA string=ctq0fmdj5eo065fugim0)"}, "virtual": false}}, {"id": "2d01870335b62fb504128bbed6351566", "name": "Planitre", "latitude": 49.18686, "longitude": -0.40221, "timestamp": "2025-05-03T03:15:41.880156+00:00Z", "free_bikes": 9, "empty_slots": 1, "extra": {"uid": "ctq0fmdj5eo065fugip0", "renting": true, "returning": true, "last_updated": 1746242120, "slots": 10, "ebikes": 9, "has_ebikes": true, "rental_uris": {"android": "-%!(EXTRA string=ctq0fmdj5eo065fugip0)", "ios": "-%!(EXTRA string=ctq0fmdj5eo065fugip0)"}, "virtual": false}}, {"id": "2d3da6836eae3bf56940890618644d6a", "name": "Fontaine Venoise ", "latitude": 49.17498, "longitude": -0.40084, "timestamp": "2025-05-03T03:15:41.879713+00:00Z", "free_bikes": 7, "empty_slots": 2, "extra": {"uid": "ctbhn6o1snvdkble5r00", "renting": true, "returning": true, "last_updated": 1746242120, "slots": 10, "ebikes": 7, "has_ebikes": true, "rental_uris": {"android": "-%!(EXTRA string=ctbhn6o1snvdkble5r00)", "ios": "-%!(EXTRA string=ctbhn6o1snvdkble5r00)"}, "virtual": false}}, {"id": "346380c7e16f34bec315f1025fe50342", "name": "Clemenceau", "latitude": 49.18798, "longitude": -0.35208, "timestamp": "2025-05-03T03:15:41.880101+00:00Z", "free_bikes": 0, "empty_slots": 10, "extra": {"uid": "ctq0fme82ttmd6g9m9k0", "renting": true, "returning": true, "last_updated": 1746242120, "slots": 10, "ebikes": 0, "has_ebikes": true, "rental_uris": {"android": "-%!(EXTRA string=ctq0fme82ttmd6g9m9k0)", "ios": "-%!(EXTRA string=ctq0fme82ttmd6g9m9k0)"}, "virtual": false}}, {"id": "3487f3ccc16ef39ac2198babdcccc74c", "name": "Mountbatten", "latitude": 49.20016, "longitude": -0.39395, "timestamp": "2025-05-03T03:15:41.879928+00:00Z", "free_bikes": 1, "empty_slots": 7, "extra": {"uid": "ctbhn7faok6uht7ctc5g", "renting": true, "returning": true, "last_updated": 1746242120, "slots": 10, "ebikes": 1, "has_ebikes": true, "rental_uris": {"android": "-%!(EXTRA string=ctbhn7faok6uht7ctc5g)", "ios": "-%!(EXTRA string=ctbhn7faok6uht7ctc5g)"}, "virtual": false}}, {"id": "3b62150999351a9468337744f267213b", "name": "Fleury-sur-Orne Bourg", "latitude": 49.14877, "longitude": -0.37487, "timestamp": "2025-05-03T03:15:41.879684+00:00Z", "free_bikes": 4, "empty_slots": 5, "extra": {"uid": "ctbhn6o1snvdkble5qug", "renting": true, "returning": true, "last_updated": 1746242120, "slots": 10, "ebikes": 4, "has_ebikes": true, "rental_uris": {"android": "-%!(EXTRA string=ctbhn6o1snvdkble5qug)", "ios": "-%!(EXTRA string=ctbhn6o1snvdkble5qug)"}, "virtual": false}}, {"id": "3e092ee2165d503884a4b073e6d2e62c", "name": "Saint-Ouen", "latitude": 49.17479, "longitude": -0.37749, "timestamp": "2025-05-03T03:15:41.880189+00:00Z", "free_bikes": 1, "empty_slots": 9, "extra": {"uid": "ctq0fmdj5eo065fugis0", "renting": true, "returning": true, "last_updated": 1746242120, "slots": 10, "ebikes": 1, "has_ebikes": true, "rental_uris": {"android": "-%!(EXTRA string=ctq0fmdj5eo065fugis0)", "ios": "-%!(EXTRA string=ctq0fmdj5eo065fugis0)"}, "virtual": false}}, {"id": "41447dca99e2696223c29aafe302b64f", "name": "Campus 2 - ENSICAEN", "latitude": 49.21384, "longitude": -0.36745, "timestamp": "2025-05-03T03:15:41.879338+00:00Z", "free_bikes": 2, "empty_slots": 17, "extra": {"uid": "ctbhn6g1snvdkble5qig", "renting": true, "returning": true, "last_updated": 1746242120, "slots": 20, "ebikes": 2, "has_ebikes": true, "rental_uris": {"android": "-%!(EXTRA string=ctbhn6g1snvdkble5qig)", "ios": "-%!(EXTRA string=ctbhn6g1snvdkble5qig)"}, "virtual": false}}, {"id": "436fab51b19462c886b2a4dc66a416e5", "name": "Presqu'ile - Biblioth\u00e8que", "latitude": 49.18259, "longitude": -0.35018, "timestamp": "2025-05-03T03:15:41.880016+00:00Z", "free_bikes": 0, "empty_slots": 10, "extra": {"uid": "ctbhn781snvdkble5rkg", "renting": true, "returning": true, "last_updated": 1746242120, "slots": 10, "ebikes": 0, "has_ebikes": true, "rental_uris": {"android": "-%!(EXTRA string=ctbhn781snvdkble5rkg)", "ios": "-%!(EXTRA string=ctbhn781snvdkble5rkg)"}, "virtual": false}}, {"id": "47ca041b4a22c7045dfbd91ebf843255", "name": "Campus 1 - Esplanade", "latitude": 49.18855, "longitude": -0.36425, "timestamp": "2025-05-03T03:15:41.879321+00:00Z", "free_bikes": 0, "empty_slots": 19, "extra": {"uid": "ctbhn6g1snvdkble5qh0", "renting": true, "returning": true, "last_updated": 1746242120, "slots": 20, "ebikes": 0, "has_ebikes": true, "rental_uris": {"android": "-%!(EXTRA string=ctbhn6g1snvdkble5qh0)", "ios": "-%!(EXTRA string=ctbhn6g1snvdkble5qh0)"}, "virtual": false}}, {"id": "4b95b959d5c511c1a641548884167d85", "name": "Saint-Pierre", "latitude": 49.18398, "longitude": -0.3598, "timestamp": "2025-05-03T03:15:41.880204+00:00Z", "free_bikes": 1, "empty_slots": 5, "extra": {"uid": "ctq0fmdj5eo065fugitg", "renting": true, "returning": true, "last_updated": 1746242120, "slots": 10, "ebikes": 1, "has_ebikes": true, "rental_uris": {"android": "-%!(EXTRA string=ctq0fmdj5eo065fugitg)", "ios": "-%!(EXTRA string=ctq0fmdj5eo065fugitg)"}, "virtual": false}}, {"id": "51efdb15f75c1d99a4ce60e3a2fc059a", "name": "Folie-Couvrechef - Sainte-Ursule", "latitude": 49.20094, "longitude": -0.38054, "timestamp": "2025-05-03T03:15:41.879699+00:00Z", "free_bikes": 4, "empty_slots": 3, "extra": {"uid": "ctbhn6vaok6uht7ctbmg", "renting": true, "returning": true, "last_updated": 1746242120, "slots": 10, "ebikes": 4, "has_ebikes": true, "rental_uris": {"android": "-%!(EXTRA string=ctbhn6vaok6uht7ctbmg)", "ios": "-%!(EXTRA string=ctbhn6vaok6uht7ctbmg)"}, "virtual": false}}, {"id": "53a4f93626fd6c2a757b04532afb8793", "name": "R\u00e9sistance", "latitude": 49.18031, "longitude": -0.35589, "timestamp": "2025-05-03T03:15:41.880046+00:00Z", "free_bikes": 0, "empty_slots": 19, "extra": {"uid": "ctbhn781snvdkble5rng", "renting": true, "returning": true, "last_updated": 1746242120, "slots": 20, "ebikes": 0, "has_ebikes": true, "rental_uris": {"android": "-%!(EXTRA string=ctbhn781snvdkble5rng)", "ios": "-%!(EXTRA string=ctbhn781snvdkble5rng)"}, "virtual": false}}, {"id": "5c49bdca067477cf0c4bbd83bd0ec9c9", "name": "Campus 4 et 5", "latitude": 49.20995, "longitude": -0.35643, "timestamp": "2025-05-03T03:15:41.879354+00:00Z", "free_bikes": 0, "empty_slots": 20, "extra": {"uid": "ctbhn6naok6uht7ctbd0", "renting": true, "returning": true, "last_updated": 1746242120, "slots": 20, "ebikes": 0, "has_ebikes": true, "rental_uris": {"android": "-%!(EXTRA string=ctbhn6naok6uht7ctbd0)", "ios": "-%!(EXTRA string=ctbhn6naok6uht7ctbd0)"}, "virtual": false}}, {"id": "5c7e35a9e11a6a9d66b2bcad6f435729", "name": "R\u00e9publique", "latitude": 49.18088, "longitude": -0.36406, "timestamp": "2025-05-03T03:15:41.880031+00:00Z", "free_bikes": 0, "empty_slots": 14, "extra": {"uid": "ctbhn781snvdkble5rm0", "renting": true, "returning": true, "last_updated": 1746242120, "slots": 20, "ebikes": 0, "has_ebikes": true, "rental_uris": {"android": "-%!(EXTRA string=ctbhn781snvdkble5rm0)", "ios": "-%!(EXTRA string=ctbhn781snvdkble5rm0)"}, "virtual": false}}, {"id": "5fe211326df82dc62bd1045bb1921e00", "name": "Parc expo-Z\u00e9nith", "latitude": 49.17163, "longitude": -0.38139, "timestamp": "2025-05-03T03:15:41.879970+00:00Z", "free_bikes": 0, "empty_slots": 16, "extra": {"uid": "ctbhn781snvdkble5rgg", "renting": true, "returning": true, "last_updated": 1746242120, "slots": 20, "ebikes": 0, "has_ebikes": true, "rental_uris": {"android": "-%!(EXTRA string=ctbhn781snvdkble5rgg)", "ios": "-%!(EXTRA string=ctbhn781snvdkble5rgg)"}, "virtual": false}}, {"id": "622580b0475e0b2b160bc27256f06a60", "name": "Pierre Heuz\u00e9 - Champlain", "latitude": 49.19797, "longitude": -0.3474, "timestamp": "2025-05-03T03:15:41.879987+00:00Z", "free_bikes": 9, "empty_slots": 1, "extra": {"uid": "ctbhn781snvdkble5rj0", "renting": true, "returning": true, "last_updated": 1746242120, "slots": 10, "ebikes": 9, "has_ebikes": true, "rental_uris": {"android": "-%!(EXTRA string=ctbhn781snvdkble5rj0)", "ios": "-%!(EXTRA string=ctbhn781snvdkble5rj0)"}, "virtual": false}}, {"id": "62702ad7d257aa5be35208267b2a5bef", "name": "Chemin Vert - Schuman", "latitude": 49.19228, "longitude": -0.39078, "timestamp": "2025-05-03T03:15:41.879445+00:00Z", "free_bikes": 8, "empty_slots": 0, "extra": {"uid": "ctbhn6g1snvdkble5qn0", "renting": true, "returning": true, "last_updated": 1746242120, "slots": 10, "ebikes": 8, "has_ebikes": true, "rental_uris": {"android": "-%!(EXTRA string=ctbhn6g1snvdkble5qn0)", "ios": "-%!(EXTRA string=ctbhn6g1snvdkble5qn0)"}, "virtual": false}}, {"id": "63f528241264a599fad698cdbab0e39d", "name": "Lyautey", "latitude": 49.16827, "longitude": -0.36144, "timestamp": "2025-05-03T03:15:41.879885+00:00Z", "free_bikes": 1, "empty_slots": 7, "extra": {"uid": "ctbhn77aok6uht7ctc2g", "renting": true, "returning": true, "last_updated": 1746242120, "slots": 10, "ebikes": 1, "has_ebikes": true, "rental_uris": {"android": "-%!(EXTRA string=ctbhn77aok6uht7ctc2g)", "ios": "-%!(EXTRA string=ctbhn77aok6uht7ctc2g)"}, "virtual": false}}, {"id": "69d2395f2b6e93790e08f89728a57452", "name": "Ouistreham Eglise", "latitude": 49.27615, "longitude": -0.25819, "timestamp": "2025-05-03T03:15:41.879942+00:00Z", "free_bikes": 1, "empty_slots": 9, "extra": {"uid": "ctbhn781snvdkble5rdg", "renting": true, "returning": true, "last_updated": 1746242120, "slots": 10, "ebikes": 1, "has_ebikes": true, "rental_uris": {"android": "-%!(EXTRA string=ctbhn781snvdkble5rdg)", "ios": "-%!(EXTRA string=ctbhn781snvdkble5rdg)"}, "virtual": false}}, {"id": "74664445e5b58c3b2541359a6e0175a0", "name": "Institut Lemonnier", "latitude": 49.19306, "longitude": -0.35298, "timestamp": "2025-05-03T03:15:41.879857+00:00Z", "free_bikes": 4, "empty_slots": 2, "extra": {"uid": "ctbhn77aok6uht7ctc00", "renting": true, "returning": true, "last_updated": 1746242120, "slots": 10, "ebikes": 4, "has_ebikes": true, "rental_uris": {"android": "-%!(EXTRA string=ctbhn77aok6uht7ctc00)", "ios": "-%!(EXTRA string=ctbhn77aok6uht7ctc00)"}, "virtual": false}}, {"id": "76c4b3daee22c8e96dc4207ad1789f1f", "name": "Mondeville centre", "latitude": 49.17589, "longitude": -0.3226, "timestamp": "2025-05-03T03:15:41.879900+00:00Z", "free_bikes": 2, "empty_slots": 8, "extra": {"uid": "ctbhn77aok6uht7ctc40", "renting": true, "returning": true, "last_updated": 1746242120, "slots": 10, "ebikes": 2, "has_ebikes": true, "rental_uris": {"android": "-%!(EXTRA string=ctbhn77aok6uht7ctc40)", "ios": "-%!(EXTRA string=ctbhn77aok6uht7ctc40)"}, "virtual": false}}, {"id": "85c075105147077750b974a8564e78b4", "name": "Ouistreham Plage", "latitude": 49.28854, "longitude": -0.25763, "timestamp": "2025-05-03T03:15:41.879956+00:00Z", "free_bikes": 12, "empty_slots": 4, "extra": {"uid": "ctbhn781snvdkble5rf0", "renting": true, "returning": true, "last_updated": 1746242120, "slots": 20, "ebikes": 12, "has_ebikes": true, "rental_uris": {"android": "-%!(EXTRA string=ctbhn781snvdkble5rf0)", "ios": "-%!(EXTRA string=ctbhn781snvdkble5rf0)"}, "virtual": false}}, {"id": "8aac12d1e4992a73d9759e516bc69f00", "name": "Cormelles-le-Royal Drakkars", "latitude": 49.16104, "longitude": -0.33579, "timestamp": "2025-05-03T03:15:41.879635+00:00Z", "free_bikes": 2, "empty_slots": 7, "extra": {"uid": "ctbhn6o1snvdkble5qt0", "renting": true, "returning": true, "last_updated": 1746242120, "slots": 10, "ebikes": 2, "has_ebikes": true, "rental_uris": {"android": "-%!(EXTRA string=ctbhn6o1snvdkble5qt0)", "ios": "-%!(EXTRA string=ctbhn6o1snvdkble5qt0)"}, "virtual": false}}, {"id": "9a1e9686d93afde6471d2a1c185e08ad", "name": "Colombelles Mairie", "latitude": 49.20412, "longitude": -0.29701, "timestamp": "2025-05-03T03:15:41.879536+00:00Z", "free_bikes": 4, "empty_slots": 6, "extra": {"uid": "ctbhn6o1snvdkble5qrg", "renting": true, "returning": true, "last_updated": 1746242120, "slots": 10, "ebikes": 4, "has_ebikes": true, "rental_uris": {"android": "-%!(EXTRA string=ctbhn6o1snvdkble5qrg)", "ios": "-%!(EXTRA string=ctbhn6o1snvdkble5qrg)"}, "virtual": false}}, {"id": "a5d7288b12d53ef4263189145942bb1d", "name": "Place Bouchard", "latitude": 49.1834, "longitude": -0.36425, "timestamp": "2025-05-03T03:15:41.880001+00:00Z", "free_bikes": 1, "empty_slots": 17, "extra": {"uid": "ctbhn7faok6uht7ctc80", "renting": true, "returning": true, "last_updated": 1746242120, "slots": 20, "ebikes": 1, "has_ebikes": true, "rental_uris": {"android": "-%!(EXTRA string=ctbhn7faok6uht7ctc80)", "ios": "-%!(EXTRA string=ctbhn7faok6uht7ctc80)"}, "virtual": false}}, {"id": "a7f38ba1421457418cfa91942f7d7175", "name": "Detolle", "latitude": 49.1817, "longitude": -0.38711, "timestamp": "2025-05-03T03:15:41.879670+00:00Z", "free_bikes": 1, "empty_slots": 8, "extra": {"uid": "ctbhn6vaok6uht7ctbl0", "renting": true, "returning": true, "last_updated": 1746242120, "slots": 10, "ebikes": 1, "has_ebikes": true, "rental_uris": {"android": "-%!(EXTRA string=ctbhn6vaok6uht7ctbl0)", "ios": "-%!(EXTRA string=ctbhn6vaok6uht7ctbl0)"}, "virtual": false}}, {"id": "a899962d92fa01a5c8eca774213b3cda", "name": "Gr\u00e2ce de Dieu - Place du Commerce", "latitude": 49.1612, "longitude": -0.35981, "timestamp": "2025-05-03T03:15:41.879757+00:00Z", "free_bikes": 3, "empty_slots": 6, "extra": {"uid": "ctbhn701snvdkble5r30", "renting": true, "returning": true, "last_updated": 1746242120, "slots": 10, "ebikes": 3, "has_ebikes": true, "rental_uris": {"android": "-%!(EXTRA string=ctbhn701snvdkble5r30)", "ios": "-%!(EXTRA string=ctbhn701snvdkble5r30)"}, "virtual": false}}, {"id": "b04b6e53ff16b9642e74dde8bf02a7c5", "name": "C\u00f4te de Nacre", "latitude": 49.21028, "longitude": -0.36717, "timestamp": "2025-05-03T03:15:41.879653+00:00Z", "free_bikes": 6, "empty_slots": 14, "extra": {"uid": "ctbhn6vaok6uht7ctbjg", "renting": true, "returning": true, "last_updated": 1746242120, "slots": 20, "ebikes": 6, "has_ebikes": true, "rental_uris": {"android": "-%!(EXTRA string=ctbhn6vaok6uht7ctbjg)", "ios": "-%!(EXTRA string=ctbhn6vaok6uht7ctbjg)"}, "virtual": false}}, {"id": "badfee65abcf3abd9551a722329fefb7", "name": "Sainte-Th\u00e9r\u00e8se", "latitude": 49.17066, "longitude": -0.3395, "timestamp": "2025-05-03T03:15:41.880074+00:00Z", "free_bikes": 5, "empty_slots": 1, "extra": {"uid": "ctbhn781snvdkble5rqg", "renting": true, "returning": true, "last_updated": 1746242120, "slots": 10, "ebikes": 5, "has_ebikes": true, "rental_uris": {"android": "-%!(EXTRA string=ctbhn781snvdkble5rqg)", "ios": "-%!(EXTRA string=ctbhn781snvdkble5rqg)"}, "virtual": false}}, {"id": "c10ac5488fa252e21b91673937063042", "name": "Ifs Debussy", "latitude": 49.14039, "longitude": -0.35456, "timestamp": "2025-05-03T03:15:41.880142+00:00Z", "free_bikes": 7, "empty_slots": 2, "extra": {"uid": "ctq0fmdj5eo065fuging", "renting": true, "returning": true, "last_updated": 1746242120, "slots": 10, "ebikes": 7, "has_ebikes": true, "rental_uris": {"android": "-%!(EXTRA string=ctq0fmdj5eo065fuging)", "ios": "-%!(EXTRA string=ctq0fmdj5eo065fuging)"}, "virtual": false}}, {"id": "c16ce1c5222bf7f63062f14271e777d7", "name": "H\u00e9rouville Coll\u00e8ge-lyc\u00e9e exp\u00e9rimental", "latitude": 49.19981, "longitude": -0.33726, "timestamp": "2025-05-03T03:15:41.879799+00:00Z", "free_bikes": 4, "empty_slots": 5, "extra": {"uid": "ctbhn701snvdkble5r60", "renting": true, "returning": true, "last_updated": 1746242120, "slots": 10, "ebikes": 4, "has_ebikes": true, "rental_uris": {"android": "-%!(EXTRA string=ctbhn701snvdkble5r60)", "ios": "-%!(EXTRA string=ctbhn701snvdkble5r60)"}, "virtual": false}}, {"id": "c268d37fb6b2f05c1036135d3357bc5c", "name": "H\u00e9rouville Caf\u00e9 des images", "latitude": 49.20235, "longitude": -0.33294, "timestamp": "2025-05-03T03:15:41.879785+00:00Z", "free_bikes": 2, "empty_slots": 18, "extra": {"uid": "ctbhn701snvdkble5r4g", "renting": true, "returning": true, "last_updated": 1746242120, "slots": 20, "ebikes": 2, "has_ebikes": true, "rental_uris": {"android": "-%!(EXTRA string=ctbhn701snvdkble5r4g)", "ios": "-%!(EXTRA string=ctbhn701snvdkble5r4g)"}, "virtual": false}}, {"id": "c8ad5e64393be7e13764e636c802d3bf", "name": "Rue de Vaucelles", "latitude": 49.17531, "longitude": -0.35382, "timestamp": "2025-05-03T03:15:41.880060+00:00Z", "free_bikes": 1, "empty_slots": 7, "extra": {"uid": "ctbhn781snvdkble5rp0", "renting": true, "returning": true, "last_updated": 1746242120, "slots": 10, "ebikes": 1, "has_ebikes": true, "rental_uris": {"android": "-%!(EXTRA string=ctbhn781snvdkble5rp0)", "ios": "-%!(EXTRA string=ctbhn781snvdkble5rp0)"}, "virtual": false}}, {"id": "c8b1bcadda7f8dbcaa7132f5f5dbef39", "name": "Gare nord ", "latitude": 49.17706, "longitude": -0.34929, "timestamp": "2025-05-03T03:15:41.879728+00:00Z", "free_bikes": 1, "empty_slots": 29, "extra": {"uid": "ctbhn6vaok6uht7ctbp0", "renting": true, "returning": true, "last_updated": 1746242120, "slots": 30, "ebikes": 1, "has_ebikes": true, "rental_uris": {"android": "-%!(EXTRA string=ctbhn6vaok6uht7ctbp0)", "ios": "-%!(EXTRA string=ctbhn6vaok6uht7ctbp0)"}, "virtual": false}}, {"id": "ca9c67adbfb099daff466a8e179f51b6", "name": "Chemin Vert - Coty", "latitude": 49.19217, "longitude": -0.39509, "timestamp": "2025-05-03T03:15:41.879383+00:00Z", "free_bikes": 7, "empty_slots": 3, "extra": {"uid": "ctbhn6g1snvdkble5qlg", "renting": true, "returning": true, "last_updated": 1746242120, "slots": 10, "ebikes": 7, "has_ebikes": true, "rental_uris": {"android": "-%!(EXTRA string=ctbhn6g1snvdkble5qlg)", "ios": "-%!(EXTRA string=ctbhn6g1snvdkble5qlg)"}, "virtual": false}}, {"id": "cd65fdcb78d7067eb65d013b936d470e", "name": "Beaulieu", "latitude": 49.1821, "longitude": -0.40061, "timestamp": "2025-05-03T03:15:41.879078+00:00Z", "free_bikes": 6, "empty_slots": 12, "extra": {"uid": "ctbhn6naok6uht7ctb8g", "renting": true, "returning": true, "last_updated": 1746242120, "slots": 20, "ebikes": 6, "has_ebikes": true, "rental_uris": {"android": "-%!(EXTRA string=ctbhn6naok6uht7ctb8g)", "ios": "-%!(EXTRA string=ctbhn6naok6uht7ctb8g)"}, "virtual": false}}, {"id": "df0b68feae61b0e6824c35f9a04884a3", "name": "Claude Decaen", "latitude": 49.1679, "longitude": -0.34669, "timestamp": "2025-05-03T03:15:41.879505+00:00Z", "free_bikes": 8, "empty_slots": 0, "extra": {"uid": "ctbhn6o1snvdkble5qq0", "renting": true, "returning": true, "last_updated": 1746242120, "slots": 10, "ebikes": 8, "has_ebikes": true, "rental_uris": {"android": "-%!(EXTRA string=ctbhn6o1snvdkble5qq0)", "ios": "-%!(EXTRA string=ctbhn6o1snvdkble5qq0)"}, "virtual": false}}, {"id": "e0f8df60fa4306c5fc4f13053827bb29", "name": "CHU - Entr\u00e9e nord", "latitude": 49.20588, "longitude": -0.3573, "timestamp": "2025-05-03T03:15:41.879470+00:00Z", "free_bikes": 1, "empty_slots": 19, "extra": {"uid": "ctbhn6naok6uht7ctbeg", "renting": true, "returning": true, "last_updated": 1746242120, "slots": 20, "ebikes": 1, "has_ebikes": true, "rental_uris": {"android": "-%!(EXTRA string=ctbhn6naok6uht7ctbeg)", "ios": "-%!(EXTRA string=ctbhn6naok6uht7ctbeg)"}, "virtual": false}}, {"id": "e1c5e5c0f77396c4186996ed52b474a9", "name": "Mondeville Espace Letellier", "latitude": 49.16786, "longitude": -0.32523, "timestamp": "2025-05-03T03:15:41.879914+00:00Z", "free_bikes": 1, "empty_slots": 9, "extra": {"uid": "ctbhn781snvdkble5rc0", "renting": true, "returning": true, "last_updated": 1746242120, "slots": 10, "ebikes": 1, "has_ebikes": true, "rental_uris": {"android": "-%!(EXTRA string=ctbhn781snvdkble5rc0)", "ios": "-%!(EXTRA string=ctbhn781snvdkble5rc0)"}, "virtual": false}}, {"id": "e5933991414c90ef19c03e6593d5d2cd", "name": "Anciennes Boucheries", "latitude": 49.18252, "longitude": -0.37507, "timestamp": "2025-05-03T03:15:41.880087+00:00Z", "free_bikes": 2, "empty_slots": 7, "extra": {"uid": "ctq0fm5j5eo065fugij0", "renting": true, "returning": true, "last_updated": 1746242120, "slots": 10, "ebikes": 2, "has_ebikes": true, "rental_uris": {"android": "-%!(EXTRA string=ctq0fm5j5eo065fugij0)", "ios": "-%!(EXTRA string=ctq0fm5j5eo065fugij0)"}, "virtual": false}}, {"id": "e67b7bb06a7a2f49fa0423c903b99a52", "name": "Stade Nautique", "latitude": 49.17679, "longitude": -0.36845, "timestamp": "2025-05-03T03:15:41.880233+00:00Z", "free_bikes": 0, "empty_slots": 19, "extra": {"uid": "ctrqn0rh0nj4spam44d0", "renting": true, "returning": true, "last_updated": 1746242120, "slots": 20, "ebikes": 0, "has_ebikes": true, "rental_uris": {"android": "-%!(EXTRA string=ctrqn0rh0nj4spam44d0)", "ios": "-%!(EXTRA string=ctrqn0rh0nj4spam44d0)"}, "virtual": false}}, {"id": "ebc978ab16d799fea1b98ba7e1c7ff17", "name": "H\u00e9rouville Montmorency", "latitude": 49.19519, "longitude": -0.32759, "timestamp": "2025-05-03T03:15:41.879828+00:00Z", "free_bikes": 5, "empty_slots": 3, "extra": {"uid": "ctbhn77aok6uht7ctbug", "renting": true, "returning": true, "last_updated": 1746242120, "slots": 10, "ebikes": 5, "has_ebikes": true, "rental_uris": {"android": "-%!(EXTRA string=ctbhn77aok6uht7ctbug)", "ios": "-%!(EXTRA string=ctbhn77aok6uht7ctbug)"}, "virtual": false}}, {"id": "ecc73bb96005a9476641997d606e2acf", "name": "Gare sud", "latitude": 49.17609, "longitude": -0.34824, "timestamp": "2025-05-03T03:15:41.880129+00:00Z", "free_bikes": 1, "empty_slots": 18, "extra": {"uid": "ctq0fme82ttmd6g9m9lg", "renting": true, "returning": true, "last_updated": 1746242120, "slots": 20, "ebikes": 1, "has_ebikes": true, "rental_uris": {"android": "-%!(EXTRA string=ctq0fme82ttmd6g9m9lg)", "ios": "-%!(EXTRA string=ctq0fme82ttmd6g9m9lg)"}, "virtual": false}}, {"id": "f7e2605223cf609ed964e2729835455b", "name": "Calvaire St Pierre - D\u00e9fense passive", "latitude": 49.19877, "longitude": -0.36429, "timestamp": "2025-05-03T03:15:41.879305+00:00Z", "free_bikes": 5, "empty_slots": 2, "extra": {"uid": "ctbhn6naok6uht7ctbbg", "renting": true, "returning": true, "last_updated": 1746242120, "slots": 10, "ebikes": 5, "has_ebikes": true, "rental_uris": {"android": "-%!(EXTRA string=ctbhn6naok6uht7ctbbg)", "ios": "-%!(EXTRA string=ctbhn6naok6uht7ctbbg)"}, "virtual": false}}, {"id": "fa8b2e79737f906fac33d63108a4af9d", "name": "Gu\u00e9rini\u00e8re - Place de la Libert\u00e9", "latitude": 49.16064, "longitude": -0.34361, "timestamp": "2025-05-03T03:15:41.879771+00:00Z", "free_bikes": 5, "empty_slots": 5, "extra": {"uid": "ctbhn77aok6uht7ctbrg", "renting": true, "returning": true, "last_updated": 1746242120, "slots": 10, "ebikes": 5, "has_ebikes": true, "rental_uris": {"android": "-%!(EXTRA string=ctbhn77aok6uht7ctbrg)", "ios": "-%!(EXTRA string=ctbhn77aok6uht7ctbrg)"}, "virtual": false}}]}