{"id": "valenbisi", "name": "Valenbisi", "location": {"latitude": 39.4699075, "longitude": -0.3762881, "city": "Valencia", "country": "ES"}, "href": "/v2/networks/valenbisi", "company": ["JCDecaux"], "system": "Cyclocity", "license": {"name": "Open Licence", "url": "https://developer.jcdecaux.com/#/opendata/licence"}, "source": "https://developer.jcdecaux.com", "stations": [{"id": "00bb7d72809bca3d4398c311c8aa9074", "name": "175_CALLE_JUAN_XXIII", "latitude": 39.4925571677332, "longitude": -0.382803130751858, "timestamp": "2025-05-03T02:57:56.613864+00:00Z", "free_bikes": 14, "empty_slots": 1, "extra": {"uid": 175, "address": "Juan XXIII - Domingo G\u00f3mez", "status": "OPEN", "banking": false, "bonus": false, "last_update": "2025-05-03T02:49:09Z", "slots": 15, "has_ebikes": false}}, {"id": "01a291e46c315f184716f81af823c6bb", "name": "135_AVDA. CONSTITUCI\u00d3N", "latitude": 39.4856701458608, "longitude": -0.378592114439778, "timestamp": "2025-05-03T02:57:56.613926+00:00Z", "free_bikes": 18, "empty_slots": 2, "extra": {"uid": 135, "address": "Constituci\u00f3n - Reus", "status": "OPEN", "banking": false, "bonus": false, "last_update": "2025-05-03T02:49:04Z", "slots": 20, "has_ebikes": false}}, {"id": "031d7e15ef8e255477f57035721f68cf", "name": "063_AVDA. DEL PUERTO I", "latitude": 39.4677470918986, "longitude": -0.358505044597536, "timestamp": "2025-05-03T02:57:56.613432+00:00Z", "free_bikes": 13, "empty_slots": 7, "extra": {"uid": 63, "address": "Av Puerto 19 (Telef\u00f3nica)", "status": "OPEN", "banking": false, "bonus": false, "last_update": "2025-05-03T02:47:05Z", "slots": 20, "has_ebikes": false}}, {"id": "03265e3fb5c0d2d4ab8072e00b5419b4", "name": "258_PINTOR_RAFAEL_SOLVES_ESQ_JOSE_SOTO_MICO", "latitude": 39.4397959876251, "longitude": -0.38922812163005, "timestamp": "2025-05-03T02:57:56.613697+00:00Z", "free_bikes": 8, "empty_slots": 6, "extra": {"uid": 258, "address": "Pintor Rafael Solves - Jose Soto Mico", "status": "OPEN", "banking": false, "bonus": false, "last_update": "2025-05-03T02:52:04Z", "slots": 15, "has_ebikes": false}}, {"id": "036aa99f2fb3c9ff1dd89a0923e8a5a3", "name": "030_CIRILO AMOROS", "latitude": 39.468569091411, "longitude": -0.368590075268948, "timestamp": "2025-05-03T02:57:56.614064+00:00Z", "free_bikes": 13, "empty_slots": 5, "extra": {"uid": 30, "address": "Cirilo Amor\u00f3s - Jorge Juan (Mercado Col\u00f3n)", "status": "OPEN", "banking": false, "bonus": false, "last_update": "2025-05-03T02:54:07Z", "slots": 20, "has_ebikes": false}}, {"id": "04539038b6ed899ca03aac2390490745", "name": "016_COLON I", "latitude": 39.470060095815, "longitude": -0.370524081869223, "timestamp": "2025-05-03T02:57:56.613896+00:00Z", "free_bikes": 0, "empty_slots": 20, "extra": {"uid": 16, "address": "Col\u00f3n, 60", "status": "OPEN", "banking": false, "bonus": false, "last_update": "2025-05-03T02:51:10Z", "slots": 20, "has_ebikes": false}}, {"id": "0496810463a6d4b217407fe8d3683d12", "name": "088_AVDA. BLASCO IBA\u00d1EZ 3", "latitude": 39.4774801238339, "longitude": -0.361233058011854, "timestamp": "2025-05-03T02:57:56.613973+00:00Z", "free_bikes": 1, "empty_slots": 39, "extra": {"uid": 88, "address": "Blasco Iba\u00f1ez, 28 (F. Geograf\u00eda e Historia)", "status": "OPEN", "banking": false, "bonus": false, "last_update": "2025-05-03T02:53:06Z", "slots": 40, "has_ebikes": false}}, {"id": "04f9805a51d8eeb36d14d1eae649f6fb", "name": "39_AVDA. PERIS Y VALERO", "latitude": 39.457822053401, "longitude": -0.374022085762198, "timestamp": "2025-05-03T02:57:56.613585+00:00Z", "free_bikes": 18, "empty_slots": 0, "extra": {"uid": 39, "address": "Peris y Valero - Cuba", "status": "OPEN", "banking": false, "bonus": false, "last_update": "2025-05-03T02:56:08Z", "slots": 19, "has_ebikes": false}}, {"id": "054a8f1421962d839c3229c50c50a800", "name": "89_AVDA. BLASCO IBA\u00d1EZ", "latitude": 39.4777701253999, "longitude": -0.359409052701581, "timestamp": "2025-05-03T02:57:56.614126+00:00Z", "free_bikes": 6, "empty_slots": 24, "extra": {"uid": 89, "address": "Blasco Iba\u00f1ez, 23 (F. Filosof\u00eda y Psicolog\u00eda)", "status": "OPEN", "banking": false, "bonus": false, "last_update": "2025-05-03T02:53:01Z", "slots": 30, "has_ebikes": false}}, {"id": "057771a2555bfa4d3f882191b5a0920a", "name": "107_C/ CAMPILLO ALTO BUEY", "latitude": 39.4752131242374, "longitude": -0.336314982139155, "timestamp": "2025-05-03T02:57:56.613604+00:00Z", "free_bikes": 8, "empty_slots": 7, "extra": {"uid": 107, "address": "Campillo de Altobuey (Polideportivo)", "status": "OPEN", "banking": false, "bonus": false, "last_update": "2025-05-03T02:51:09Z", "slots": 15, "has_ebikes": false}}, {"id": "066d570567f9d7cee546920ef6e9407d", "name": "170_PAVIA 5", "latitude": 39.4829411537881, "longitude": -0.325424953690914, "timestamp": "2025-05-03T02:57:56.614852+00:00Z", "free_bikes": 13, "empty_slots": 7, "extra": {"uid": 170, "address": "Isabel de Villena - Mendiz\u00e1bal", "status": "OPEN", "banking": false, "bonus": false, "last_update": "2025-05-03T02:52:40Z", "slots": 20, "has_ebikes": false}}, {"id": "079c94f18de72eb1742299e33c6783fa", "name": "223_CALLE_VALLE_BALLESTERA_ESQ_PLAZA_POLICIA_LOCAL", "latitude": 39.4785261144674, "longitude": -0.40127817864509, "timestamp": "2025-05-03T02:57:56.614035+00:00Z", "free_bikes": 2, "empty_slots": 18, "extra": {"uid": 223, "address": "Valle de la Ballestera - Hospital Nueve de Octubre", "status": "OPEN", "banking": false, "bonus": false, "last_update": "2025-05-03T02:47:05Z", "slots": 20, "has_ebikes": false}}, {"id": "087258d54ec76117a507e90e7dcbe492", "name": "44_AVDA. GRAL. URRUTIA", "latitude": 39.4563970521313, "longitude": -0.363105052261891, "timestamp": "2025-05-03T02:57:56.613890+00:00Z", "free_bikes": 9, "empty_slots": 10, "extra": {"uid": 44, "address": "General Urrutia - Av. de la Plata", "status": "OPEN", "banking": false, "bonus": false, "last_update": "2025-05-03T02:49:55Z", "slots": 19, "has_ebikes": false}}, {"id": "0a1e0a3c486673ee68ffccdf9b22a2aa", "name": "189_HOSPITAL_NUEVA_FE", "latitude": 39.444747, "longitude": -0.377156, "timestamp": "2025-05-03T02:57:56.614132+00:00Z", "free_bikes": 0, "empty_slots": 30, "extra": {"uid": 189, "address": "Hospital Nueva Fe (administraci\u00f3n)", "status": "OPEN", "banking": false, "bonus": false, "last_update": "2025-05-03T02:52:59Z", "slots": 30, "has_ebikes": false}}, {"id": "0a71083f554b252ecb650048f6933dde", "name": "173_AVENIDA_PIO_XII_34", "latitude": 39.4845091367472, "longitude": -0.394769162326153, "timestamp": "2025-05-03T02:57:56.614790+00:00Z", "free_bikes": 5, "empty_slots": 15, "extra": {"uid": 173, "address": "P\u00edo XII - Monestir de Poblet", "status": "OPEN", "banking": false, "bonus": false, "last_update": "2025-05-03T02:48:23Z", "slots": 20, "has_ebikes": false}}, {"id": "0b05ad3f3a9425ffc4645af0cb38daf5", "name": "114_ADOLFO SUAREZ", "latitude": 39.4817721429927, "longitude": -0.346682016720988, "timestamp": "2025-05-03T02:57:56.613733+00:00Z", "free_bikes": 14, "empty_slots": 16, "extra": {"uid": 114, "address": "UPV Inform\u00e1tica", "status": "OPEN", "banking": false, "bonus": false, "last_update": "2025-05-03T02:48:09Z", "slots": 30, "has_ebikes": false}}, {"id": "0b3676f22046b575fdba9880d309d8bc", "name": "172_AVENIDA_PIO_XII", "latitude": 39.4814301267876, "longitude": -0.39343615667867, "timestamp": "2025-05-03T02:57:56.613343+00:00Z", "free_bikes": 4, "empty_slots": 16, "extra": {"uid": 172, "address": "P\u00edo XII - Campanar", "status": "OPEN", "banking": false, "bonus": false, "last_update": "2025-05-03T02:56:09Z", "slots": 20, "has_ebikes": false}}, {"id": "0b3bfbb423fdb1386f720dac543febf8", "name": "032_C/ CONDE DE ALTEA", "latitude": 39.4659740827401, "longitude": -0.368338073115823, "timestamp": "2025-05-03T02:57:56.613501+00:00Z", "free_bikes": 0, "empty_slots": 20, "extra": {"uid": 32, "address": "Conde Altea - Almirante Cadarso", "status": "OPEN", "banking": false, "bonus": false, "last_update": "2025-05-03T02:56:38Z", "slots": 20, "has_ebikes": false}}, {"id": "0bfc112c05c5459cd9abedd8e6f84677", "name": "264_AVDA_CID_ANTES_MARCONI", "latitude": 39.469128078481, "longitude": -0.414523213347863, "timestamp": "2025-05-03T02:57:56.613764+00:00Z", "free_bikes": 1, "empty_slots": 19, "extra": {"uid": 264, "address": "Av. del Cid - Marconi", "status": "OPEN", "banking": false, "bonus": false, "last_update": "2025-05-03T02:48:00Z", "slots": 20, "has_ebikes": false}}, {"id": "0d508204b31afbecd73bcd8fd3c374d7", "name": "54_PASEO ALAMEDA", "latitude": 39.4597460667729, "longitude": -0.352781023126671, "timestamp": "2025-05-03T02:57:56.614591+00:00Z", "free_bikes": 0, "empty_slots": 20, "extra": {"uid": 54, "address": "Plaza de Europa", "status": "OPEN", "banking": false, "bonus": false, "last_update": "2025-05-03T02:48:04Z", "slots": 20, "has_ebikes": false}}, {"id": "0d9f2caae400b0039fb63570d9ce5853", "name": "161_MEDITERRANEO", "latitude": 39.467937101176, "longitude": -0.331816964744236, "timestamp": "2025-05-03T02:57:56.614770+00:00Z", "free_bikes": 4, "empty_slots": 11, "extra": {"uid": 161, "address": "Mediterr\u00e1neo - Plaza Cruz de Ca\u00f1amelar", "status": "OPEN", "banking": false, "bonus": false, "last_update": "2025-05-03T02:56:16Z", "slots": 15, "has_ebikes": false}}, {"id": "0eed6b05c9533b54fbec2cfe9d091e08", "name": "222_AVDA_MAESTRO_RODRIGO_ESQ_AVDA_MANUEL_DE_FALLA", "latitude": 39.4768611101047, "longitude": -0.397373166037864, "timestamp": "2025-05-03T02:57:56.614516+00:00Z", "free_bikes": 6, "empty_slots": 14, "extra": {"uid": 222, "address": "Maestro Rodrigo - Manuel de Falla", "status": "OPEN", "banking": false, "bonus": false, "last_update": "2025-05-03T02:47:01Z", "slots": 20, "has_ebikes": false}}, {"id": "100815c38150436068a810524c0e28c1", "name": "251_ARQUITECTO_SEGURA_LAGO_CAMINO_NUEVO_DE_PICA\u00d1A", "latitude": 39.4557980367043, "longitude": -0.404504176110588, "timestamp": "2025-05-03T02:57:56.613931+00:00Z", "free_bikes": 13, "empty_slots": 2, "extra": {"uid": 251, "address": "Arquitecto Segura del Lago - Camino Nuevo de Pica\u00f1a", "status": "OPEN", "banking": false, "bonus": false, "last_update": "2025-05-03T02:55:11Z", "slots": 15, "has_ebikes": false}}, {"id": "10983ec613c4503e9db76aa14f388d4b", "name": "53_C/ LUIS GARCIA BERLANGA", "latitude": 39.456732058086, "longitude": -0.348230007860048, "timestamp": "2025-05-03T02:57:56.613875+00:00Z", "free_bikes": 20, "empty_slots": 5, "extra": {"uid": 53, "address": "Alameda - Pintor Maella", "status": "OPEN", "banking": false, "bonus": false, "last_update": "2025-05-03T02:49:49Z", "slots": 25, "has_ebikes": false}}, {"id": "11416c916ac49cf2015c8ae012333b63", "name": "160_JOSE MARIA DE HARO", "latitude": 39.4673040966933, "longitude": -0.33907198613268, "timestamp": "2025-05-03T02:57:56.614775+00:00Z", "free_bikes": 11, "empty_slots": 9, "extra": {"uid": 160, "address": "Jos\u00e9 Mar\u00eda de Haro - Justo y Pastor", "status": "OPEN", "banking": false, "bonus": false, "last_update": "2025-05-03T02:54:50Z", "slots": 20, "has_ebikes": false}}, {"id": "118d758d65732a633cef6e4ebb2f2daf", "name": "243_ALBACETE_ESQ_MALUQUER", "latitude": 39.4627880667241, "longitude": -0.384633120260506, "timestamp": "2025-05-03T02:57:56.613396+00:00Z", "free_bikes": 8, "empty_slots": 10, "extra": {"uid": 243, "address": "Albacete - Maluquer", "status": "OPEN", "banking": false, "bonus": false, "last_update": "2025-05-03T02:47:09Z", "slots": 18, "has_ebikes": false}}, {"id": "133238db3f0890cae4ef18c505de12e2", "name": "272_VICENTE_LA_RODA_C_INGENIERO_FAUSTO_ELIO", "latitude": 39.4805911436594, "longitude": -0.332280972954351, "timestamp": "2025-05-03T02:57:56.614546+00:00Z", "free_bikes": 11, "empty_slots": 4, "extra": {"uid": 272, "address": "Vicente la Roda - Ingeniero Fausto Elio", "status": "OPEN", "banking": false, "bonus": false, "last_update": "2025-05-03T02:56:16Z", "slots": 15, "has_ebikes": false}}, {"id": "145b2e7c75f44b0475436eb0a884da81", "name": "001_GUILLEN_DE_CASTRO", "latitude": 39.48001, "longitude": -0.38302, "timestamp": "2025-05-03T02:57:56.613374+00:00Z", "free_bikes": 1, "empty_slots": 24, "extra": {"uid": 1, "address": "C/GUILLEM DE CASTRO esquina con C/NA JORDANA", "status": "OPEN", "banking": false, "bonus": false, "last_update": "2025-05-03T02:55:03Z", "slots": 25, "has_ebikes": false}}, {"id": "15ef5ef78b043e7b8410b7b064ca9b6b", "name": "238_SAN_JOSE_ARTESANO_FRANCISCO_MOROTE_GREUS", "latitude": 39.4974171803837, "longitude": -0.394474168343446, "timestamp": "2025-05-03T02:57:56.613422+00:00Z", "free_bikes": 15, "empty_slots": 0, "extra": {"uid": 238, "address": "San Jose Artesano - Francisco Morote Greus", "status": "OPEN", "banking": false, "bonus": false, "last_update": "2025-05-03T02:52:03Z", "slots": 15, "has_ebikes": false}}, {"id": "15f9ca03cd68bf284d3fe99115dff326", "name": "83_PZA. DE LA LEGI\u00d3N ESPA\u00d1OLA", "latitude": 39.4775531222011, "longitude": -0.367061075518166, "timestamp": "2025-05-03T02:57:56.614151+00:00Z", "free_bikes": 1, "empty_slots": 24, "extra": {"uid": 83, "address": "General Elio - Llano del Real", "status": "OPEN", "banking": false, "bonus": false, "last_update": "2025-05-03T02:47:03Z", "slots": 25, "has_ebikes": false}}, {"id": "174479feded520eeaa2eafa9911f11ae", "name": "269_CAMPAMENTO_81", "latitude": 39.4998751784868, "longitude": -0.426354265293528, "timestamp": "2025-05-03T02:57:56.614482+00:00Z", "free_bikes": 0, "empty_slots": 15, "extra": {"uid": 269, "address": "Campamento, 81", "status": "OPEN", "banking": false, "bonus": false, "last_update": "2025-05-03T02:53:04Z", "slots": 15, "has_ebikes": false}}, {"id": "17b14b621925ac5f789793027037f801", "name": "56_AVDA. DE FRANCIA", "latitude": 39.4583890648843, "longitude": -0.344495997567289, "timestamp": "2025-05-03T02:57:56.613437+00:00Z", "free_bikes": 11, "empty_slots": 4, "extra": {"uid": 56, "address": "Francia - Menorca", "status": "OPEN", "banking": false, "bonus": false, "last_update": "2025-05-03T02:50:06Z", "slots": 15, "has_ebikes": false}}, {"id": "1831cb079898a341a104ab1e7e79ac7c", "name": "46_AVDA. INSTITUTO OBRERO DE VALENCIA", "latitude": 39.455477050399, "longitude": -0.358878039093959, "timestamp": "2025-05-03T02:57:56.613853+00:00Z", "free_bikes": 12, "empty_slots": 8, "extra": {"uid": 46, "address": "Pintor Luis Arcas - Inst. Obrero Valenciano", "status": "OPEN", "banking": false, "bonus": false, "last_update": "2025-05-03T02:50:03Z", "slots": 20, "has_ebikes": false}}, {"id": "18a0dd2516704f896490c7959a4c6e21", "name": "84_SERRERIA_ESQ_PINTOR FERRER CALATAYUD", "latitude": 39.4670909, "longitude": -0.3353167, "timestamp": "2025-05-03T02:57:56.613263+00:00Z", "free_bikes": 14, "empty_slots": 1, "extra": {"uid": 84, "address": "Serrer\u00eda, 67", "status": "OPEN", "banking": false, "bonus": false, "last_update": "2025-05-03T02:48:04Z", "slots": 15, "has_ebikes": false}}, {"id": "1b0e3d149291be1cdc10203b83ebaf79", "name": "126_C/ ALFAUIR", "latitude": 39.4930661767053, "longitude": -0.36019506326505, "timestamp": "2025-05-03T02:57:56.614561+00:00Z", "free_bikes": 17, "empty_slots": 3, "extra": {"uid": 126, "address": "Alfahuir - Jos\u00e9 Chabas Bordehore", "status": "OPEN", "banking": false, "bonus": false, "last_update": "2025-05-03T02:50:54Z", "slots": 20, "has_ebikes": false}}, {"id": "1b813be9492160adaf18d85d7b66a769", "name": "77_C/ MOLINELL", "latitude": 39.4849411475299, "longitude": -0.365758075579642, "timestamp": "2025-05-03T02:57:56.613795+00:00Z", "free_bikes": 15, "empty_slots": 5, "extra": {"uid": 77, "address": "Molinell - Calder\u00f3n de la Barca", "status": "OPEN", "banking": false, "bonus": false, "last_update": "2025-05-03T02:51:08Z", "slots": 20, "has_ebikes": false}}, {"id": "1c8a622906cb0df9c108c5991dfdc862", "name": "092_AVDA. DE ARAGON, 4 - ESQ AVDA BLASCO IBA\u00d1EZ", "latitude": 39.4758281199338, "longitude": -0.356059041618514, "timestamp": "2025-05-03T02:57:56.613988+00:00Z", "free_bikes": 19, "empty_slots": 1, "extra": {"uid": 92, "address": "Blasco Iba\u00f1ez - Arag\u00f3n", "status": "OPEN", "banking": false, "bonus": false, "last_update": "2025-05-03T02:56:16Z", "slots": 20, "has_ebikes": false}}, {"id": "1d4dc097807b10cc7b1a1fdf6e5eb5f9", "name": "064_AVDA. DEL PUERTO II", "latitude": 39.4664860890115, "longitude": -0.354286031274125, "timestamp": "2025-05-03T02:57:56.614755+00:00Z", "free_bikes": 20, "empty_slots": 0, "extra": {"uid": 64, "address": "Av. Puerto 61-63", "status": "OPEN", "banking": false, "bonus": false, "last_update": "2025-05-03T02:48:04Z", "slots": 20, "has_ebikes": false}}, {"id": "1d5ad22188b9193167423fe43fd04b4a", "name": "115_C/ DR. VICENTE ZARAGOZA", "latitude": 39.4815301403857, "longitude": -0.352239033238509, "timestamp": "2025-05-03T02:57:56.613474+00:00Z", "free_bikes": 15, "empty_slots": 1, "extra": {"uid": 115, "address": "Catalu\u00f1a - Doctor Vicente Zaragoz\u00e1", "status": "OPEN", "banking": false, "bonus": false, "last_update": "2025-05-03T02:49:04Z", "slots": 16, "has_ebikes": false}}, {"id": "1dd5433eafa6f538f18f43d28ce0029b", "name": "193_CALLE_CARTEROS", "latitude": 39.4551140401216, "longitude": -0.38680912265075, "timestamp": "2025-05-03T02:57:56.613268+00:00Z", "free_bikes": 10, "empty_slots": 10, "extra": {"uid": 193, "address": "Uruguay - Carteros", "status": "OPEN", "banking": false, "bonus": false, "last_update": "2025-05-03T02:47:03Z", "slots": 20, "has_ebikes": false}}, {"id": "1ee11b1b47c472077fd416cb878b3468", "name": "127_C/ DUQUE DE MANDAS", "latitude": 39.4905591668607, "longitude": -0.36453707493258, "timestamp": "2025-05-03T02:57:56.614750+00:00Z", "free_bikes": 20, "empty_slots": 0, "extra": {"uid": 127, "address": "Alfahuir - Duque de Mandas", "status": "OPEN", "banking": false, "bonus": false, "last_update": "2025-05-03T02:51:09Z", "slots": 20, "has_ebikes": false}}, {"id": "1f6b81722ca23ce520f77207b868afa9", "name": "136_CALLE_ECONOMISTA_GAY", "latitude": 39.4899091610835, "longitude": -0.375701108044157, "timestamp": "2025-05-03T02:57:56.614542+00:00Z", "free_bikes": 12, "empty_slots": 7, "extra": {"uid": 136, "address": "Economista Gay - Constituci\u00f3n", "status": "OPEN", "banking": false, "bonus": false, "last_update": "2025-05-03T02:50:00Z", "slots": 20, "has_ebikes": false}}, {"id": "1f86a3d7c3c0f220943742f70466c5dd", "name": "171_CALLE GRAN CANARIA", "latitude": 39.4830281528956, "longitude": -0.329098964737767, "timestamp": "2025-05-03T02:57:56.614080+00:00Z", "free_bikes": 10, "empty_slots": 5, "extra": {"uid": 171, "address": "Gran Canaria - Ingeniero Manuel Maese", "status": "OPEN", "banking": false, "bonus": false, "last_update": "2025-05-03T02:55:07Z", "slots": 15, "has_ebikes": false}}, {"id": "241fc428d0379543e3c84ada66fe455f", "name": "122_C_M\u00daSICO HIP\u00d3LITO MART\u00cdNEZ", "latitude": 39.4844531496192, "longitude": -0.354157040555065, "timestamp": "2025-05-03T02:57:56.613390+00:00Z", "free_bikes": 7, "empty_slots": 8, "extra": {"uid": 122, "address": "M\u00fasico Hip\u00f3lito Mart\u00ednez - Di\u00f3genes L\u00f3pez Mecho", "status": "OPEN", "banking": false, "bonus": false, "last_update": "2025-05-03T02:56:34Z", "slots": 15, "has_ebikes": false}}, {"id": "24835852f8935df7c2241f157493fe1e", "name": "112_AVDA. DE LOS NARANJOS", "latitude": 39.4785481335207, "longitude": -0.342366002058633, "timestamp": "2025-05-03T02:57:56.613385+00:00Z", "free_bikes": 0, "empty_slots": 0, "extra": {"uid": 112, "address": "Manuel Broseta i Pont - Naranjos", "status": "OPEN", "banking": false, "bonus": false, "last_update": "2025-05-03T02:56:14Z", "slots": 40, "has_ebikes": false}}, {"id": "24ca1001cd6855a691467fce7d2ca30b", "name": "130_C/ CONVENTO CARMELITAS", "latitude": 39.4832061402186, "longitude": -0.370301088264948, "timestamp": "2025-05-03T02:57:56.613609+00:00Z", "free_bikes": 9, "empty_slots": 6, "extra": {"uid": 130, "address": "Convento Carmelitas - Alboraya", "status": "OPEN", "banking": false, "bonus": false, "last_update": "2025-05-03T02:54:00Z", "slots": 15, "has_ebikes": false}}, {"id": "258e196cfcfe8d7b081ab49919bece89", "name": "246_AVDA_TRES_CRUCES_ENTRADA_HOSPITAL_GENERAL", "latitude": 39.469058080797, "longitude": -0.406600189533111, "timestamp": "2025-05-03T02:57:56.613301+00:00Z", "free_bikes": 1, "empty_slots": 19, "extra": {"uid": 246, "address": "Tres Cruces - Hospital General", "status": "OPEN", "banking": false, "bonus": false, "last_update": "2025-05-03T02:50:03Z", "slots": 20, "has_ebikes": false}}, {"id": "2649ddeac28c84f48578717384352113", "name": "210_CALLE_CAMPOS_CRESPO_ESQ_CALLE_JUAN_DE_GARAY", "latitude": 39.455521038259, "longitude": -0.396807152864784, "timestamp": "2025-05-03T02:57:56.613901+00:00Z", "free_bikes": 7, "empty_slots": 8, "extra": {"uid": 210, "address": "Campos Crespo - Juan de Garay", "status": "OPEN", "banking": false, "bonus": false, "last_update": "2025-05-03T02:54:05Z", "slots": 15, "has_ebikes": false}}, {"id": "27be3dcdced55b2affbae1e871a3a1bb", "name": "48_AVDA. ANTONIO FERRANDIS", "latitude": 39.4507751420051, "longitude": -0.358643429344464, "timestamp": "2025-05-03T02:57:56.613379+00:00Z", "free_bikes": 11, "empty_slots": 9, "extra": {"uid": 48, "address": "Antonio Ferrandis - General Urrutia", "status": "OPEN", "banking": false, "bonus": false, "last_update": "2025-05-03T02:52:04Z", "slots": 20, "has_ebikes": false}}, {"id": "27f2a75f8ef1cd96c936778ca6bf56b7", "name": "212_CALLE_FRAY_JUAN\u00cdPERO_SERRA_ESQ_CALLE_TORRENTE", "latitude": 39.4614520570921, "longitude": -0.40048716710112, "timestamp": "2025-05-03T02:57:56.614369+00:00Z", "free_bikes": 0, "empty_slots": 15, "extra": {"uid": 212, "address": "Fray Juan\u00edpero Serra - Torrente", "status": "OPEN", "banking": false, "bonus": false, "last_update": "2025-05-03T02:56:03Z", "slots": 15, "has_ebikes": false}}, {"id": "28394ecf25fa39d117b579d36928d530", "name": "43_C/ DE ORIENTE", "latitude": 39.4594450630151, "longitude": -0.361244048329219, "timestamp": "2025-05-03T02:57:56.614647+00:00Z", "free_bikes": 17, "empty_slots": 2, "extra": {"uid": 43, "address": "Escultor Jos\u00e9 Capuz - Oriente", "status": "OPEN", "banking": false, "bonus": false, "last_update": "2025-05-03T02:47:35Z", "slots": 20, "has_ebikes": false}}, {"id": "28ad06c4505d8b617d180ebe953ab7a3", "name": "90_AVDA. BLASCO IBA\u00d1EZ", "latitude": 39.4767021219125, "longitude": -0.35905805107551, "timestamp": "2025-05-03T02:57:56.614760+00:00Z", "free_bikes": 14, "empty_slots": 26, "extra": {"uid": 90, "address": "Blasco Iba\u00f1ez, 32 (F. Filolog\u00eda)", "status": "OPEN", "banking": false, "bonus": false, "last_update": "2025-05-03T02:54:04Z", "slots": 40, "has_ebikes": false}}, {"id": "292369edaf101b8f2bf575522a3074d8", "name": "34_AVDA. ANTIGUO REINO DE VALENCIA", "latitude": 39.4640900758311, "longitude": -0.370052077239064, "timestamp": "2025-05-03T02:57:56.613661+00:00Z", "free_bikes": 3, "empty_slots": 14, "extra": {"uid": 34, "address": "Regne de Valencia - Doctor Sumsi", "status": "OPEN", "banking": false, "bonus": false, "last_update": "2025-05-03T02:49:56Z", "slots": 17, "has_ebikes": false}}, {"id": "2951d85cf574883a94fa6777235a1090", "name": "120_C_DR VICENTE ZARAGOZA", "latitude": 39.4848481483816, "longitude": -0.362137064678155, "timestamp": "2025-05-03T02:57:56.613557+00:00Z", "free_bikes": 8, "empty_slots": 10, "extra": {"uid": 120, "address": "Doctor Vicente Zaragoz\u00e1 - Emilio Bar\u00f3", "status": "OPEN", "banking": false, "bonus": false, "last_update": "2025-05-03T02:54:16Z", "slots": 18, "has_ebikes": false}}, {"id": "2bf2e6dc1b4e829d55a65b60f4565929", "name": "244_AVDA_PIO_BAROJA_VALLE_DE_LA_BALLESTERA", "latitude": 39.4784741127009, "longitude": -0.406227193465013, "timestamp": "2025-05-03T02:57:56.614611+00:00Z", "free_bikes": 0, "empty_slots": 20, "extra": {"uid": 244, "address": "Valle de la Ballestera - Pio Baroja", "status": "OPEN", "banking": false, "bonus": false, "last_update": "2025-05-03T02:48:00Z", "slots": 20, "has_ebikes": false}}, {"id": "2c2576c79d3b750573ef0268b9e44de4", "name": "208_CALLE_CARTEROS_ESQ_CALLE_MOSSEN_FEBRER", "latitude": 39.4516600278603, "longitude": -0.38866912636635, "timestamp": "2025-05-03T02:57:56.614466+00:00Z", "free_bikes": 14, "empty_slots": 6, "extra": {"uid": 208, "address": "Carteros - Mossen Febrer", "status": "OPEN", "banking": false, "bonus": false, "last_update": "2025-05-03T02:53:07Z", "slots": 20, "has_ebikes": false}}, {"id": "2c32d90607a7f20f5160b65cdda59f91", "name": "190_CTRA_MALILLA", "latitude": 39.4460500116106, "longitude": -0.380387098491455, "timestamp": "2025-05-03T02:57:56.613517+00:00Z", "free_bikes": 9, "empty_slots": 8, "extra": {"uid": 190, "address": "Cra. Malilla - Bulevar Sur", "status": "OPEN", "banking": false, "bonus": false, "last_update": "2025-05-03T02:54:09Z", "slots": 18, "has_ebikes": false}}, {"id": "2daf456b67087ad7e4b143974aa5f0cb", "name": "267_C_BENIFERRI_VICENTE_TOMAS_MARTI", "latitude": 39.4941361656198, "longitude": -0.406020201221407, "timestamp": "2025-05-03T02:57:56.614694+00:00Z", "free_bikes": 6, "empty_slots": 10, "extra": {"uid": 267, "address": "Beniferri - Vicent Tom\u00e1s Mart\u00ed", "status": "OPEN", "banking": false, "bonus": false, "last_update": "2025-05-03T02:51:04Z", "slots": 16, "has_ebikes": false}}, {"id": "2fb8ba7baa534c8839bcad5344650b25", "name": "074_PLAZA SAN FELIPE NERI", "latitude": 39.4699171007281, "longitude": -0.353825031741888, "timestamp": "2025-05-03T02:57:56.613806+00:00Z", "free_bikes": 8, "empty_slots": 12, "extra": {"uid": 74, "address": "Plaza San Felipe Neri (Mercado Algir\u00f3s)", "status": "OPEN", "banking": false, "bonus": false, "last_update": "2025-05-03T02:48:37Z", "slots": 20, "has_ebikes": false}}, {"id": "30b930a072fa4f994be49238fed8e4bd", "name": "031_CALLE SALAMANCA", "latitude": 39.4673330883642, "longitude": -0.365119064198398, "timestamp": "2025-05-03T02:57:56.613285+00:00Z", "free_bikes": 3, "empty_slots": 15, "extra": {"uid": 31, "address": "Salamanca - Conde Altea", "status": "OPEN", "banking": false, "bonus": false, "last_update": "2025-05-03T02:55:18Z", "slots": 19, "has_ebikes": false}}, {"id": "30e3fe2f344f4f696910fe479db91bde", "name": "194_ESTACION_AVE_JOAQUIN_SOROLLA", "latitude": 39.46074, "longitude": -0.38189, "timestamp": "2025-05-03T02:57:56.614020+00:00Z", "free_bikes": 9, "empty_slots": 31, "extra": {"uid": 194, "address": "Estaci\u00f3n AVE Joaqu\u00edn Sorolla", "status": "OPEN", "banking": false, "bonus": false, "last_update": "2025-05-03T02:50:54Z", "slots": 40, "has_ebikes": false}}, {"id": "317e137f9fcc3830fa4b8b1b05912f0a", "name": "096_AVDA. BLASCO IBA\u00d1EZ 6", "latitude": 39.4735221146643, "longitude": -0.348305017144382, "timestamp": "2025-05-03T02:57:56.613681+00:00Z", "free_bikes": 20, "empty_slots": 0, "extra": {"uid": 96, "address": "Blasco Iba\u00f1ez - Yecla", "status": "OPEN", "banking": false, "bonus": false, "last_update": "2025-05-03T02:50:13Z", "slots": 21, "has_ebikes": false}}, {"id": "3400972b51bb61eb57ecdf01f4f7bfa3", "name": "200_AVDA_DEL_CID", "latitude": 39.4677050805168, "longitude": -0.393305148918046, "timestamp": "2025-05-03T02:57:56.614806+00:00Z", "free_bikes": 4, "empty_slots": 11, "extra": {"uid": 200, "address": "Av. del Cid - Juli\u00e1n Pe\u00f1a", "status": "OPEN", "banking": false, "bonus": false, "last_update": "2025-05-03T02:54:00Z", "slots": 15, "has_ebikes": false}}, {"id": "3407f1cf0184eb1de6bdfd3d2d0987e9", "name": "017_ESTACION RENFE I", "latitude": 39.4674360847595, "longitude": -0.377350100922523, "timestamp": "2025-05-03T02:57:56.613625+00:00Z", "free_bikes": 0, "empty_slots": 30, "extra": {"uid": 17, "address": "X\u00e1tiva - Bail\u00e9n (Estaci\u00f3n del Norte)", "status": "OPEN", "banking": false, "bonus": false, "last_update": "2025-05-03T02:51:14Z", "slots": 30, "has_ebikes": false}}, {"id": "373da064578377b43cbd3cc999eca7ca", "name": "133_C/ ALFAMBRA", "latitude": 39.4827241367683, "longitude": -0.375973105008805, "timestamp": "2025-05-03T02:57:56.613963+00:00Z", "free_bikes": 6, "empty_slots": 9, "extra": {"uid": 133, "address": "Alfambra - Poeta Monmeneu", "status": "OPEN", "banking": false, "bonus": false, "last_update": "2025-05-03T02:47:10Z", "slots": 15, "has_ebikes": false}}, {"id": "392005621c729ee4c1d4aa730efe9dda", "name": "191_CTRA_MALILLA", "latitude": 39.4502970264089, "longitude": -0.378957096498364, "timestamp": "2025-05-03T02:57:56.614719+00:00Z", "free_bikes": 9, "empty_slots": 6, "extra": {"uid": 191, "address": "Esparraguera - Cra. Malilla", "status": "OPEN", "banking": false, "bonus": false, "last_update": "2025-05-03T02:55:06Z", "slots": 15, "has_ebikes": false}}, {"id": "3931ba52b6eb858cb31b88aff3071ec7", "name": "076_CAMPOAMOR II", "latitude": 39.4700511045018, "longitude": -0.343552001034738, "timestamp": "2025-05-03T02:57:56.613246+00:00Z", "free_bikes": 19, "empty_slots": 0, "extra": {"uid": 76, "address": "Campoamor - M\u00fasico Gin\u00e9s", "status": "OPEN", "banking": false, "bonus": false, "last_update": "2025-05-03T02:50:07Z", "slots": 19, "has_ebikes": false}}, {"id": "3995cf6e4a29a46bd17e9d782abe52b4", "name": "062_MENORCA", "latitude": 39.4597790703012, "longitude": -0.342242991568314, "timestamp": "2025-05-03T02:57:56.614115+00:00Z", "free_bikes": 16, "empty_slots": 4, "extra": {"uid": 62, "address": "Menorca - Baleares", "status": "OPEN", "banking": false, "bonus": false, "last_update": "2025-05-03T02:55:50Z", "slots": 20, "has_ebikes": false}}, {"id": "39a826dfb91338ee35f6ae1f3cb41020", "name": "091_CALLE_GRABADOR_JORDAN_46_PLAZA_ESCULTOR_PASTOR", "latitude": 39.4440930091404, "longitude": -0.367664059275921, "timestamp": "2025-05-03T02:57:56.614070+00:00Z", "free_bikes": 9, "empty_slots": 6, "extra": {"uid": 91, "address": "Grabador Jordan - Escultor Pastor", "status": "OPEN", "banking": false, "bonus": false, "last_update": "2025-05-03T02:55:03Z", "slots": 15, "has_ebikes": false}}, {"id": "3aac114a06679baec6e1213130f17dcd", "name": "139_C/ REUS", "latitude": 39.4856741444693, "longitude": -0.382964127549696, "timestamp": "2025-05-03T02:57:56.614410+00:00Z", "free_bikes": 4, "empty_slots": 11, "extra": {"uid": 139, "address": "Reus - Alquer\u00eda de la Estrella", "status": "OPEN", "banking": false, "bonus": false, "last_update": "2025-05-03T02:48:48Z", "slots": 15, "has_ebikes": false}}, {"id": "3b83a9311c8805c1f2d65c444fd3a205", "name": "271_CALLE_SALVADOR_CERVER\u00d3_CALLE_CARLOS_CORTINA", "latitude": 39.4992471879931, "longitude": -0.389982155850781, "timestamp": "2025-05-03T02:57:56.613880+00:00Z", "free_bikes": 8, "empty_slots": 7, "extra": {"uid": 271, "address": "Salvador Cerver\u00f3 - Carlos Cortina", "status": "OPEN", "banking": false, "bonus": false, "last_update": "2025-05-03T02:55:05Z", "slots": 15, "has_ebikes": false}}, {"id": "3c089573ff1428119534575e0c335ee2", "name": "024_GRAN_VIA_RAMON_Y_CAJAL", "latitude": 39.4690450880029, "longitude": -0.384118122083548, "timestamp": "2025-05-03T02:57:56.614741+00:00Z", "free_bikes": 3, "empty_slots": 16, "extra": {"uid": 24, "address": "Fernando el Cat\u00f3lico - Cuenca", "status": "OPEN", "banking": false, "bonus": false, "last_update": "2025-05-03T02:49:02Z", "slots": 20, "has_ebikes": false}}, {"id": "3e64b306618b9eb73c45736f3f84149f", "name": "237_LEVANTE_UD_AVDA_ECUADOR", "latitude": 39.4947261723789, "longitude": -0.391129156875508, "timestamp": "2025-05-03T02:57:56.613542+00:00Z", "free_bikes": 14, "empty_slots": 1, "extra": {"uid": 237, "address": "Levante U.D. - Ecuador", "status": "OPEN", "banking": false, "bonus": false, "last_update": "2025-05-03T02:51:07Z", "slots": 15, "has_ebikes": false}}, {"id": "3e9c310be5da9d8a69d524f966d8b071", "name": "219_CALLE_CASTAN_TOBE\u00d1AS_ESQ_CALLE_VELAZQUEZ", "latitude": 39.472625, "longitude": -0.403121, "timestamp": "2025-05-03T02:57:56.614050+00:00Z", "free_bikes": 2, "empty_slots": 16, "extra": {"uid": 219, "address": "Cast\u00e1n Tobe\u00f1as - Rincon de Ademuz", "status": "OPEN", "banking": false, "bonus": false, "last_update": "2025-05-03T02:53:03Z", "slots": 18, "has_ebikes": false}}, {"id": "3ec3453e8e040c2f559e686f88a123f6", "name": "256_AVDA_TRES_FORQUES_TURIS", "latitude": 39.4639310680958, "longitude": -0.392326143951058, "timestamp": "2025-05-03T02:57:56.613640+00:00Z", "free_bikes": 12, "empty_slots": 3, "extra": {"uid": 256, "address": "Tres Forques - Tur\u00eds", "status": "OPEN", "banking": false, "bonus": false, "last_update": "2025-05-03T02:50:11Z", "slots": 15, "has_ebikes": false}}, {"id": "3ee8e96d2d8bda055ca2e3e14cc6b629", "name": "159_FRANCISCO CUBELLS", "latitude": 39.4634170849731, "longitude": -0.334812971276553, "timestamp": "2025-05-03T02:57:56.613322+00:00Z", "free_bikes": 8, "empty_slots": 9, "extra": {"uid": 159, "address": "Francisco Cubells - San Jos\u00e9 de la Vega", "status": "OPEN", "banking": false, "bonus": false, "last_update": "2025-05-03T02:53:07Z", "slots": 17, "has_ebikes": false}}, {"id": "402ba03f20a1c79d6b8e79b25edd4122", "name": "007_PZA_DEL_MERCADO_TAULA_DE_CANVIS", "latitude": 39.4748401091142, "longitude": -0.379276110679168, "timestamp": "2025-05-03T02:57:56.613821+00:00Z", "free_bikes": 0, "empty_slots": 18, "extra": {"uid": 7, "address": "Plaza del Mercado - Taula de Canvis", "status": "OPEN", "banking": false, "bonus": false, "last_update": "2025-05-03T02:51:04Z", "slots": 19, "has_ebikes": false}}, {"id": "41a58df2889f859b0f44f641f535add6", "name": "079_AVDA. ARAGON II", "latitude": 39.4727471091356, "longitude": -0.357333043778256, "timestamp": "2025-05-03T02:57:56.613507+00:00Z", "free_bikes": 2, "empty_slots": 18, "extra": {"uid": 79, "address": "Arag\u00f3n - Ernesto Ferrer", "status": "OPEN", "banking": false, "bonus": false, "last_update": "2025-05-03T02:53:07Z", "slots": 20, "has_ebikes": false}}, {"id": "42bc7084a652dca8af802a52a8d9c182", "name": "207_CALLE_MILLARES_ESQ_CALLE_FEDERICO_GARCA_LORCA", "latitude": 39.455361042514, "longitude": -0.381996108347568, "timestamp": "2025-05-03T02:57:56.613723+00:00Z", "free_bikes": 14, "empty_slots": 1, "extra": {"uid": 207, "address": "Giorgeta, 64", "status": "OPEN", "banking": false, "bonus": false, "last_update": "2025-05-03T02:51:03Z", "slots": 15, "has_ebikes": false}}, {"id": "4432fb08b2d47a257551d865110781c0", "name": "158_DR. LLUCH", "latitude": 39.4666660981916, "longitude": -0.327809952057852, "timestamp": "2025-05-03T02:57:56.614642+00:00Z", "free_bikes": 12, "empty_slots": 3, "extra": {"uid": 158, "address": "Doctor Lluch - Virgen del Sufragio", "status": "OPEN", "banking": false, "bonus": false, "last_update": "2025-05-03T02:52:05Z", "slots": 15, "has_ebikes": false}}, {"id": "44ef071464ed178ce932dc11c7dc999f", "name": "253_PLAZA_JOSE_MELIA_CASTELLO_CAMPOS_CRESPO", "latitude": 39.4526940272949, "longitude": -0.401192164498328, "timestamp": "2025-05-03T02:57:56.614531+00:00Z", "free_bikes": 5, "empty_slots": 10, "extra": {"uid": 253, "address": "Jos\u00e9 Meli\u00e1 Castell\u00f3 - Campos Crespo", "status": "OPEN", "banking": false, "bonus": false, "last_update": "2025-05-03T02:47:05Z", "slots": 15, "has_ebikes": false}}, {"id": "455e066cbdfc4574edacd537fde8e977", "name": "004_PLAZA_DE_LA_VIRGEN_CALLE_BAILIA", "latitude": 39.4767151166769, "longitude": -0.375433100164395, "timestamp": "2025-05-03T02:57:56.614075+00:00Z", "free_bikes": 2, "empty_slots": 22, "extra": {"uid": 4, "address": "Plaza de la Virgen - Bail\u00eda", "status": "OPEN", "banking": false, "bonus": false, "last_update": "2025-05-03T02:48:04Z", "slots": 25, "has_ebikes": false}}, {"id": "4696d36fea6f6656928b1c019118f4a9", "name": "186_CALLE_INGENIERO_JOAQUIN_BENLLOCH", "latitude": 39.4503590281921, "longitude": -0.374106081983545, "timestamp": "2025-05-03T02:57:56.613581+00:00Z", "free_bikes": 13, "empty_slots": 1, "extra": {"uid": 186, "address": "Benifair\u00f3 de Valldigna - Joaqu\u00edn Benlloch", "status": "OPEN", "banking": false, "bonus": false, "last_update": "2025-05-03T02:50:00Z", "slots": 14, "has_ebikes": false}}, {"id": "4786386fffd575e8d0c4556246766c32", "name": "006_GUILLEN_CASTRO_CON_CALLE_SAN_PEDRO_PASCUAL", "latitude": 39.4727661005389, "longitude": -0.384174124251856, "timestamp": "2025-05-03T02:57:56.614678+00:00Z", "free_bikes": 2, "empty_slots": 13, "extra": {"uid": 6, "address": "Guillem de Castro - San Pedro Pascual", "status": "OPEN", "banking": false, "bonus": false, "last_update": "2025-05-03T02:50:07Z", "slots": 15, "has_ebikes": false}}, {"id": "48ebb342370a5017bddb8ded666ab906", "name": "151_JERONIMO MONSORIU", "latitude": 39.4646370882768, "longitude": -0.337207979114133, "timestamp": "2025-05-03T02:57:56.613686+00:00Z", "free_bikes": 19, "empty_slots": 0, "extra": {"uid": 151, "address": "Jer\u00f3nimo Monsoriu - Alcalde Cano Coloma", "status": "OPEN", "banking": false, "bonus": false, "last_update": "2025-05-03T02:56:09Z", "slots": 20, "has_ebikes": false}}, {"id": "4909628b3fa2863180d74ac6e590e451", "name": "206_CALLE_PERIODISTA_GIL_SUMBIELA", "latitude": 39.4926801661293, "longitude": -0.389098149691761, "timestamp": "2025-05-03T02:57:56.614030+00:00Z", "free_bikes": 9, "empty_slots": 6, "extra": {"uid": 206, "address": "Periodista Gil Sumbiela - Poeta Serrano Clavero", "status": "OPEN", "banking": false, "bonus": false, "last_update": "2025-05-03T02:50:08Z", "slots": 15, "has_ebikes": false}}, {"id": "4b6167081892023746d55000a6249f38", "name": "012_CALLE_MINYANA", "latitude": 39.471935, "longitude": -0.374101, "timestamp": "2025-05-03T02:57:56.613317+00:00Z", "free_bikes": 1, "empty_slots": 19, "extra": {"uid": 12, "address": "Calle Salv\u00e1 - Calle Poeta Querol", "status": "OPEN", "banking": false, "bonus": false, "last_update": "2025-05-03T02:56:46Z", "slots": 20, "has_ebikes": false}}, {"id": "4ce9a1ce7fbc5201e885635040a086ea", "name": "230_CALLE_POETA_SERRANO_CLAVERO_EQ_GENERAL_LLORENS", "latitude": 39.4947181737151, "longitude": -0.386875144115863, "timestamp": "2025-05-03T02:57:56.614795+00:00Z", "free_bikes": 2, "empty_slots": 13, "extra": {"uid": 230, "address": "Poeta Serrano Clavero - General Llorens", "status": "OPEN", "banking": false, "bonus": false, "last_update": "2025-05-03T02:54:10Z", "slots": 15, "has_ebikes": false}}, {"id": "4e6c574378a88f0baf9ed6373a82c78b", "name": "155_C/ SALAMANCA", "latitude": 39.4649210808604, "longitude": -0.363169057053421, "timestamp": "2025-05-03T02:57:56.613532+00:00Z", "free_bikes": 0, "empty_slots": 0, "extra": {"uid": 155, "address": "Salamanca - Reina Do\u00f1a Germana", "status": "OPEN", "banking": false, "bonus": false, "last_update": "2025-05-03T02:49:36Z", "slots": 20, "has_ebikes": false}}, {"id": "5029bdcbc9555d26a90f31bb0056ff6d", "name": "082_GUILLEN_DE_CASTRO_TORRES_DE_QUART", "latitude": 39.4760241115844, "longitude": -0.384005125495213, "timestamp": "2025-05-03T02:57:56.613401+00:00Z", "free_bikes": 0, "empty_slots": 14, "extra": {"uid": 82, "address": "Guillem de Castro (Torres de Quart)", "status": "OPEN", "banking": false, "bonus": false, "last_update": "2025-05-03T02:56:57Z", "slots": 15, "has_ebikes": false}}, {"id": "50d7b99953405ed8ab39fcc482aad774", "name": "109_AVDA. NARANJOS", "latitude": 39.4767871304178, "longitude": -0.333600974859012, "timestamp": "2025-05-03T02:57:56.613948+00:00Z", "free_bikes": 11, "empty_slots": 8, "extra": {"uid": 109, "address": "Naranjos - Ingeniero Fausto Elio", "status": "OPEN", "banking": false, "bonus": false, "last_update": "2025-05-03T02:52:59Z", "slots": 20, "has_ebikes": false}}, {"id": "5109cc7c028add8d0513fb8a655295d5", "name": "270_CALLE_NINOT_ESQ_PZA_REGINO_MAS", "latitude": 39.5000431897182, "longitude": -0.392980165265021, "timestamp": "2025-05-03T02:57:56.614425+00:00Z", "free_bikes": 0, "empty_slots": 16, "extra": {"uid": 270, "address": "Ninot - Regino Mas", "status": "OPEN", "banking": false, "bonus": false, "last_update": "2025-05-03T02:54:35Z", "slots": 16, "has_ebikes": false}}, {"id": "51d5070bda66f337cef79b10774ac716", "name": "117_PRIMADO REIG", "latitude": 39.479219131011, "longitude": -0.357156046729095, "timestamp": "2025-05-03T02:57:56.614085+00:00Z", "free_bikes": 28, "empty_slots": 2, "extra": {"uid": 117, "address": "Gasc\u00f3 Oliag - Primado Reig", "status": "OPEN", "banking": false, "bonus": false, "last_update": "2025-05-03T02:51:11Z", "slots": 30, "has_ebikes": false}}, {"id": "520a5adee3c44314921dd94a66f90e7e", "name": "100_AVDA. BLASCO IBA\u00d1EZ 9", "latitude": 39.4716021114468, "longitude": -0.33824098596173, "timestamp": "2025-05-03T02:57:56.613754+00:00Z", "free_bikes": 9, "empty_slots": 11, "extra": {"uid": 100, "address": "Blasco Iba\u00f1ez - Mestre Ripoll", "status": "OPEN", "banking": false, "bonus": false, "last_update": "2025-05-03T02:54:07Z", "slots": 20, "has_ebikes": false}}, {"id": "52d57654be8087f73a785b7d42744247", "name": "071_AVDA DEL PUERTO VI", "latitude": 39.4603480750162, "longitude": -0.333621966050435, "timestamp": "2025-05-03T02:57:56.614800+00:00Z", "free_bikes": 8, "empty_slots": 12, "extra": {"uid": 71, "address": "Av. Puerto - Plaza Tribunal de les Aig\u00fces", "status": "OPEN", "banking": false, "bonus": false, "last_update": "2025-05-03T02:55:06Z", "slots": 20, "has_ebikes": false}}, {"id": "53fd53c98ebeaa219dd27605cbbd7645", "name": "228_AVDA_NICASIO_BENLLOCH_ESQ_CALLE_L'HORTA_SUD", "latitude": 39.493660166338, "longitude": -0.398762179196655, "timestamp": "2025-05-03T02:57:56.614673+00:00Z", "free_bikes": 3, "empty_slots": 12, "extra": {"uid": 228, "address": "Doctor Nicasio Benlloch - L'Horta Sud", "status": "OPEN", "banking": false, "bonus": false, "last_update": "2025-05-03T02:49:27Z", "slots": 15, "has_ebikes": false}}, {"id": "56c5aaca9352112044162f200598c498", "name": "252_DE_LOS_GREMIOS_CAMPOS_CRESPO", "latitude": 39.4502560182615, "longitude": -0.4036651706049, "timestamp": "2025-05-03T02:57:56.614440+00:00Z", "free_bikes": 3, "empty_slots": 17, "extra": {"uid": 252, "address": "Dels Gremis - Campos Crespo", "status": "OPEN", "banking": false, "bonus": false, "last_update": "2025-05-03T02:56:11Z", "slots": 20, "has_ebikes": false}}, {"id": "572a4b4a5e76aeb3c1f35b00a8890fa3", "name": "080_AMADEO SAVOIA", "latitude": 39.4737101107501, "longitude": -0.362389059448826, "timestamp": "2025-05-03T02:57:56.614136+00:00Z", "free_bikes": 18, "empty_slots": 7, "extra": {"uid": 80, "address": "Amadeo de Saboya (frente Ayuntamiento)", "status": "OPEN", "banking": false, "bonus": false, "last_update": "2025-05-03T02:54:00Z", "slots": 25, "has_ebikes": false}}, {"id": "58d48656c19d8e5a96a90383287e5554", "name": "099_AVDA. BLASCO IBA\u00d1EZ 166_PINTOR JOS\u00c9 MONGRELL", "latitude": 39.4713121097146, "longitude": -0.34057499279659, "timestamp": "2025-05-03T02:57:56.613291+00:00Z", "free_bikes": 20, "empty_slots": 1, "extra": {"uid": 99, "address": "Blasco Iba\u00f1ez 166 - Pintor Jos\u00e9 Mongrell", "status": "OPEN", "banking": false, "bonus": false, "last_update": "2025-05-03T02:53:07Z", "slots": 21, "has_ebikes": false}}, {"id": "59b8504b1ba1327848f5c60703bdd544", "name": "87_AVDA BLASCO IBA\u00d1EZ 2", "latitude": 39.4784861269877, "longitude": -0.361971060764256, "timestamp": "2025-05-03T02:57:56.614025+00:00Z", "free_bikes": 1, "empty_slots": 31, "extra": {"uid": 87, "address": "Blasco Iba\u00f1ez - Doctor G\u00f3mez Ferrer (Cl\u00ednico)", "status": "OPEN", "banking": false, "bonus": false, "last_update": "2025-05-03T02:51:00Z", "slots": 33, "has_ebikes": false}}, {"id": "5b0199afa00ff32b0935f978910711a7", "name": "129_C_ALMAZORA", "latitude": 39.485943149532, "longitude": -0.37003608893869, "timestamp": "2025-05-03T02:57:56.614141+00:00Z", "free_bikes": 2, "empty_slots": 18, "extra": {"uid": 129, "address": "Almazora - Benimuslem", "status": "OPEN", "banking": false, "bonus": false, "last_update": "2025-05-03T02:53:07Z", "slots": 20, "has_ebikes": false}}, {"id": "5bd6b11ed0b431ff6e04d43d03792e08", "name": "236_RIO_SEGRE_RAFAEL_COMPANY", "latitude": 39.4950341762248, "longitude": -0.382369130775341, "timestamp": "2025-05-03T02:57:56.613921+00:00Z", "free_bikes": 10, "empty_slots": 5, "extra": {"uid": 236, "address": "Rio Segre - Rafael Company", "status": "OPEN", "banking": false, "bonus": false, "last_update": "2025-05-03T02:50:04Z", "slots": 15, "has_ebikes": false}}, {"id": "5eb64920e1fc0f8f7d2db7f716dbc972", "name": "239_LA_FLORISTA_TRANVIA_PALACIO_CONGRESOS", "latitude": 39.4969531770325, "longitude": -0.400055184833165, "timestamp": "2025-05-03T02:57:56.613728+00:00Z", "free_bikes": 4, "empty_slots": 16, "extra": {"uid": 239, "address": "Florista - T4 (Palau de Congressos)", "status": "OPEN", "banking": false, "bonus": false, "last_update": "2025-05-03T02:53:03Z", "slots": 20, "has_ebikes": false}}, {"id": "60af4b9fc1984136a2bf1692577ea60e", "name": "072_RAMIRO MAETZU", "latitude": 39.467225, "longitude": -0.346537, "timestamp": "2025-05-03T02:57:56.613691+00:00Z", "free_bikes": 15, "empty_slots": 0, "extra": {"uid": 72, "address": "Ramiro de Maeztu - Peris Brell", "status": "OPEN", "banking": false, "bonus": false, "last_update": "2025-05-03T02:56:09Z", "slots": 15, "has_ebikes": false}}, {"id": "615ffb53a4ae2674330814b865ebd2eb", "name": "50_AVDA. AUTOPISTA DEL SALER", "latitude": 39.4532860449334, "longitude": -0.352950020141597, "timestamp": "2025-05-03T02:57:56.614471+00:00Z", "free_bikes": 0, "empty_slots": 37, "extra": {"uid": 50, "address": "Autopista del Saler - Antonio Ferrandis (C.C. El Saler)", "status": "OPEN", "banking": false, "bonus": false, "last_update": "2025-05-03T02:54:16Z", "slots": 40, "has_ebikes": false}}, {"id": "6370bf8101433193762c683f0634d222", "name": "118_C/ DR. GOMEZ FERRER", "latitude": 39.4804341340267, "longitude": -0.360507057423573, "timestamp": "2025-05-03T02:57:56.613718+00:00Z", "free_bikes": 10, "empty_slots": 10, "extra": {"uid": 118, "address": "G\u00f3mez Ferrer - \u00c1lvaro de Baz\u00e1n", "status": "OPEN", "banking": false, "bonus": false, "last_update": "2025-05-03T02:52:02Z", "slots": 20, "has_ebikes": false}}, {"id": "63cc48a0176645ad3c491b51423694e2", "name": "162_PZA. ARMADA ESPA\u00d1OLA", "latitude": 39.4635720870931, "longitude": -0.32988595660341, "timestamp": "2025-05-03T02:57:56.614005+00:00Z", "free_bikes": 16, "empty_slots": 2, "extra": {"uid": 162, "address": "Armada Espa\u00f1ola - Mariano Cuber", "status": "OPEN", "banking": false, "bonus": false, "last_update": "2025-05-03T02:55:54Z", "slots": 19, "has_ebikes": false}}, {"id": "655b523c74bde5c2be8b934faef76dc9", "name": "101_AVDA. BLASCO IBA\u00d1EZ 10", "latitude": 39.4701967993746, "longitude": -0.334933008846162, "timestamp": "2025-05-03T02:57:56.614735+00:00Z", "free_bikes": 17, "empty_slots": 13, "extra": {"uid": 101, "address": "Marino Blas de Lezo (estaci\u00f3n Caba\u00f1al Adif)", "status": "OPEN", "banking": false, "bonus": false, "last_update": "2025-05-03T02:55:18Z", "slots": 30, "has_ebikes": false}}, {"id": "655dc2a5363307b51a4d4abb57c69d52", "name": "250_AVDA_TRES_CRUCES_PIO_XI", "latitude": 39.45632, "longitude": -0.4008977, "timestamp": "2025-05-03T02:57:56.614502+00:00Z", "free_bikes": 5, "empty_slots": 10, "extra": {"uid": 250, "address": "Tres Cruces - Pio XI", "status": "OPEN", "banking": false, "bonus": false, "last_update": "2025-05-03T02:55:07Z", "slots": 15, "has_ebikes": false}}, {"id": "66ec03f4d4467d2cc78f141148e2708b", "name": "202_PASEO_PECHINA", "latitude": 39.4761901091111, "longitude": -0.393425153835504, "timestamp": "2025-05-03T02:57:56.613916+00:00Z", "free_bikes": 1, "empty_slots": 19, "extra": {"uid": 202, "address": "Pechina - Teruel", "status": "OPEN", "banking": false, "bonus": false, "last_update": "2025-05-03T02:56:11Z", "slots": 20, "has_ebikes": false}}, {"id": "6a0f71c7afc6ebd0d4014db09396edc8", "name": "163_PASEO NEPTUNO", "latitude": 39.4644050919738, "longitude": -0.323491937905993, "timestamp": "2025-05-03T02:57:56.614601+00:00Z", "free_bikes": 2, "empty_slots": 18, "extra": {"uid": 163, "address": "Paseo Neptuno 32-34", "status": "OPEN", "banking": false, "bonus": false, "last_update": "2025-05-03T02:47:00Z", "slots": 20, "has_ebikes": false}}, {"id": "6c978a38878865d150f5c19f887dcda8", "name": "144_CALLE_MARQUES_DE_SAN_JUAN", "latitude": 39.4787471170485, "longitude": -0.395571161644053, "timestamp": "2025-05-03T02:57:56.614121+00:00Z", "free_bikes": 0, "empty_slots": 15, "extra": {"uid": 144, "address": "Marqu\u00e9s de San Juan - Diputat Llu\u00eds Luc\u00eda", "status": "OPEN", "banking": false, "bonus": false, "last_update": "2025-05-03T02:48:03Z", "slots": 15, "has_ebikes": false}}, {"id": "6ca16e13fd1a0661111eee9f42594345", "name": "152_C/ LITERATO AZOR\u00cdN", "latitude": 39.4608930641588, "longitude": -0.372796083742631, "timestamp": "2025-05-03T02:57:56.613537+00:00Z", "free_bikes": 7, "empty_slots": 8, "extra": {"uid": 152, "address": "Reina Do\u00f1a Mar\u00eda - C\u00e1diz", "status": "OPEN", "banking": false, "bonus": false, "last_update": "2025-05-03T02:55:40Z", "slots": 15, "has_ebikes": false}}, {"id": "6d5970e36ac28b0d743b30547e191add", "name": "257_PLAZA_SALVADOR_SORIA_ESQ_PIO_X", "latitude": 39.4452190059457, "longitude": -0.389195124464717, "timestamp": "2025-05-03T02:57:56.614637+00:00Z", "free_bikes": 0, "empty_slots": 20, "extra": {"uid": 257, "address": "Plaza Salvador Soria, 8", "status": "OPEN", "banking": false, "bonus": false, "last_update": "2025-05-03T02:51:00Z", "slots": 20, "has_ebikes": false}}, {"id": "6e4df440c35a072ca54f02e1fd1d8410", "name": "069_AVDA. DEL PUERTO", "latitude": 39.461920078631, "longitude": -0.338811982446624, "timestamp": "2025-05-03T02:57:56.614415+00:00Z", "free_bikes": 16, "empty_slots": 8, "extra": {"uid": 69, "address": "Av. Puerto - Serrer\u00eda", "status": "OPEN", "banking": false, "bonus": false, "last_update": "2025-05-03T02:53:10Z", "slots": 25, "has_ebikes": false}}, {"id": "6e50fdd99983c7c9668ba1a8ab14c052", "name": "242_LA_SAFOR_AVDA_MAESTRO_RODRIGO", "latitude": 39.4878751450492, "longitude": -0.404288192680299, "timestamp": "2025-05-03T02:57:56.614497+00:00Z", "free_bikes": 3, "empty_slots": 12, "extra": {"uid": 242, "address": "La Safor - Maestro Rodrigo", "status": "OPEN", "banking": false, "bonus": false, "last_update": "2025-05-03T02:56:10Z", "slots": 15, "has_ebikes": false}}, {"id": "701b7a90ee733cd385fee137e6b94aba", "name": "138_SAN_PANCRACIO", "latitude": 39.4881581524135, "longitude": -0.384313132924836, "timestamp": "2025-05-03T02:57:56.613656+00:00Z", "free_bikes": 4, "empty_slots": 16, "extra": {"uid": 138, "address": "San Pancracio - Periodista Llorente", "status": "OPEN", "banking": false, "bonus": false, "last_update": "2025-05-03T02:52:11Z", "slots": 20, "has_ebikes": false}}, {"id": "709df8756149543351146d54a924fb62", "name": "111_UNIVERSIDAD POLITECNICA \u2013 JUNTO PISTAS DEPORTI", "latitude": 39.480632, "longitude": -0.339599, "timestamp": "2025-05-03T02:57:56.613744+00:00Z", "free_bikes": 21, "empty_slots": 8, "extra": {"uid": 111, "address": "UPV Galileo", "status": "OPEN", "banking": false, "bonus": false, "last_update": "2025-05-03T02:55:08Z", "slots": 30, "has_ebikes": false}}, {"id": "72cb350bc481c82cdaaaa170df3bebb0", "name": "214_CALLE_SANTA_CRUZ_DE_TENERIFE_ESQ_CALLE_LLOMBA", "latitude": 39.4649000686738, "longitude": -0.400667169496185, "timestamp": "2025-05-03T02:57:56.614040+00:00Z", "free_bikes": 2, "empty_slots": 13, "extra": {"uid": 214, "address": "Santa Cruz de Tenerife, 21", "status": "OPEN", "banking": false, "bonus": false, "last_update": "2025-05-03T02:48:03Z", "slots": 15, "has_ebikes": false}}, {"id": "73121d3666a679865e9b0e5a67da138f", "name": "057_CALLE PINTOR MONLEON", "latitude": 39.464444080812, "longitude": -0.35834704234339, "timestamp": "2025-05-03T02:57:56.614527+00:00Z", "free_bikes": 15, "empty_slots": 5, "extra": {"uid": 57, "address": "Alameda - Pintor Monle\u00f3n", "status": "OPEN", "banking": false, "bonus": false, "last_update": "2025-05-03T02:51:07Z", "slots": 20, "has_ebikes": false}}, {"id": "7359a7d6e7d07cc3f4129cb1ee2c50b3", "name": "110_KISSHOMARU", "latitude": 39.4807081426045, "longitude": -0.336770986463246, "timestamp": "2025-05-03T02:57:56.613832+00:00Z", "free_bikes": 20, "empty_slots": 10, "extra": {"uid": 110, "address": "UPV Trinquet", "status": "OPEN", "banking": false, "bonus": false, "last_update": "2025-05-03T02:54:01Z", "slots": 30, "has_ebikes": false}}, {"id": "74411e67321c52a6ca256c71bfa15a2a", "name": "146_AVDA. CAMPANAR", "latitude": 39.484706, "longitude": -0.391251, "timestamp": "2025-05-03T02:57:56.614765+00:00Z", "free_bikes": 2, "empty_slots": 28, "extra": {"uid": 146, "address": "Av. Campanar (La Fe)", "status": "OPEN", "banking": false, "bonus": false, "last_update": "2025-05-03T02:50:00Z", "slots": 30, "has_ebikes": false}}, {"id": "746708fae7648c3bf12472a5bec1a29e", "name": "028_NAVARRO REVERTE", "latitude": 39.4715501017061, "longitude": -0.367842074631205, "timestamp": "2025-05-03T02:57:56.613364+00:00Z", "free_bikes": 5, "empty_slots": 23, "extra": {"uid": 28, "address": "Navarro Reverter - Grabador Esteve", "status": "OPEN", "banking": false, "bonus": false, "last_update": "2025-05-03T02:53:37Z", "slots": 29, "has_ebikes": false}}, {"id": "755e058e0d552903326e7dbbde0bf8d5", "name": "209_AVDA_GASPAR_AGUILAR_ESQ_CALLE_MUSICO_PENELLA", "latitude": 39.4520500277393, "longitude": -0.393106139888379, "timestamp": "2025-05-03T02:57:56.613811+00:00Z", "free_bikes": 0, "empty_slots": 18, "extra": {"uid": 209, "address": "Gaspar Aguilar - M\u00fasico Penella", "status": "OPEN", "banking": false, "bonus": false, "last_update": "2025-05-03T02:53:07Z", "slots": 18, "has_ebikes": false}}, {"id": "76170a465ee9f19fa8b39cefef794c86", "name": "195_CALLE_GIORGETA", "latitude": 39.4593520552134, "longitude": -0.384372117626406, "timestamp": "2025-05-03T02:57:56.614566+00:00Z", "free_bikes": 13, "empty_slots": 3, "extra": {"uid": 195, "address": "Giorgeta - Roig de Corella", "status": "OPEN", "banking": false, "bonus": false, "last_update": "2025-05-03T02:49:13Z", "slots": 16, "has_ebikes": false}}, {"id": "76eebb74da81cd0b996a5bd8ccafdf97", "name": "245_9_DE_OCTUBRE_CIEZA", "latitude": 39.472098, "longitude": -0.405361, "timestamp": "2025-05-03T02:57:56.614420+00:00Z", "free_bikes": 5, "empty_slots": 15, "extra": {"uid": 245, "address": "Nueve de Octubre - Cieza", "status": "OPEN", "banking": false, "bonus": false, "last_update": "2025-05-03T02:49:06Z", "slots": 20, "has_ebikes": false}}, {"id": "778b966298c9a39cea050119a8d1dde6", "name": "164_PAVIA 1", "latitude": 39.4684281051279, "longitude": -0.324724943771547, "timestamp": "2025-05-03T02:57:56.613650+00:00Z", "free_bikes": 1, "empty_slots": 16, "extra": {"uid": 164, "address": "Pav\u00eda - Columbretes", "status": "OPEN", "banking": false, "bonus": false, "last_update": "2025-05-03T02:48:47Z", "slots": 17, "has_ebikes": false}}, {"id": "79ced6373e768fa80486fdb6868c5758", "name": "254_AVDA_DR_TOMAS_SALA_CARTEROS", "latitude": 39.4476820139972, "longitude": -0.39000812823506, "timestamp": "2025-05-03T02:57:56.613749+00:00Z", "free_bikes": 8, "empty_slots": 11, "extra": {"uid": 254, "address": "Doctor Tom\u00e1s Sala - Carteros", "status": "OPEN", "banking": false, "bonus": false, "last_update": "2025-05-03T02:48:42Z", "slots": 19, "has_ebikes": false}}, {"id": "7a333c41c00b9de334014dbd4ced58aa", "name": "47_AVDA. AUTOPISTA DEL SALER", "latitude": 39.4564800548746, "longitude": -0.355509029538065, "timestamp": "2025-05-03T02:57:56.613427+00:00Z", "free_bikes": 0, "empty_slots": 19, "extra": {"uid": 47, "address": "Autopista del Saler - Puente Monteolivete", "status": "OPEN", "banking": false, "bonus": false, "last_update": "2025-05-03T02:51:12Z", "slots": 20, "has_ebikes": false}}, {"id": "7bbb9a53f930c48e99a77183e2309fb5", "name": "265_C_ALCASSER_POETA_ALBERTO_LISTA", "latitude": 39.4709410866358, "longitude": -0.408208195369257, "timestamp": "2025-05-03T02:57:56.613417+00:00Z", "free_bikes": 9, "empty_slots": 6, "extra": {"uid": 265, "address": "Alcasser - Poeta Alberto Lista", "status": "OPEN", "banking": false, "bonus": false, "last_update": "2025-05-03T02:49:06Z", "slots": 15, "has_ebikes": false}}, {"id": "7d6de4f2a9b51576448385da98e2f2f0", "name": "205_CALLE_NICASIO_BENLLOCH", "latitude": 39.4892551532675, "longitude": -0.393181160103781, "timestamp": "2025-05-03T02:57:56.613958+00:00Z", "free_bikes": 19, "empty_slots": 5, "extra": {"uid": 205, "address": "Nicasio Benlloch - Amics dels Corpus", "status": "OPEN", "banking": false, "bonus": false, "last_update": "2025-05-03T02:49:05Z", "slots": 24, "has_ebikes": false}}, {"id": "7e1bbcd6093266a20ed504439cbe9cbf", "name": "033_GRAN_VIA_GERMANIAS_ESQ_CALLE_RUZAFA", "latitude": 39.4647860768762, "longitude": -0.37408108969372, "timestamp": "2025-05-03T02:57:56.613994+00:00Z", "free_bikes": 4, "empty_slots": 16, "extra": {"uid": 33, "address": "German\u00edas - Ruzafa", "status": "OPEN", "banking": false, "bonus": false, "last_update": "2025-05-03T02:47:46Z", "slots": 20, "has_ebikes": false}}, {"id": "7f43447ad282b6776002424dd87961c3", "name": "103_RUBEN DARIO", "latitude": 39.4784211298349, "longitude": -0.35246203223541, "timestamp": "2025-05-03T02:57:56.614487+00:00Z", "free_bikes": 15, "empty_slots": 0, "extra": {"uid": 103, "address": "Rub\u00e9n Dar\u00edo - Plaza Fray Luis Colomer", "status": "OPEN", "banking": false, "bonus": false, "last_update": "2025-05-03T02:48:07Z", "slots": 15, "has_ebikes": false}}, {"id": "7fae3fc679db720d24deaf1ff2358fa2", "name": "023_GRAN_VIA_FERNANDO_EL_CATOLICO", "latitude": 39.471596095916, "longitude": -0.3862691299059, "timestamp": "2025-05-03T02:57:56.614390+00:00Z", "free_bikes": 2, "empty_slots": 17, "extra": {"uid": 23, "address": "Fernando el Cat\u00f3lico - Erudito Orellana", "status": "OPEN", "banking": false, "bonus": false, "last_update": "2025-05-03T02:48:59Z", "slots": 19, "has_ebikes": false}}, {"id": "8091e257f470263884b6feb40b11c324", "name": "174_CALLE_MONDUBER", "latitude": 39.4894061558441, "longitude": -0.386738140863954, "timestamp": "2025-05-03T02:57:56.613790+00:00Z", "free_bikes": 5, "empty_slots": 14, "extra": {"uid": 174, "address": "Monduber - Peset Aleixandre", "status": "OPEN", "banking": false, "bonus": false, "last_update": "2025-05-03T02:49:52Z", "slots": 19, "has_ebikes": false}}, {"id": "80cd6adef1a549cb77cd23bd0f4ac0d8", "name": "128_C/ ALFAUIR", "latitude": 39.4887341597133, "longitude": -0.367635083238739, "timestamp": "2025-05-03T02:57:56.613599+00:00Z", "free_bikes": 15, "empty_slots": 10, "extra": {"uid": 128, "address": "Alfahuir - Pe\u00f1iscola", "status": "OPEN", "banking": false, "bonus": false, "last_update": "2025-05-03T02:52:07Z", "slots": 25, "has_ebikes": false}}, {"id": "831088476386c6cb0b4c0118d5fc4333", "name": "067_JUAN VERDEGUER", "latitude": 39.4588280688327, "longitude": -0.336888975014669, "timestamp": "2025-05-03T02:57:56.613551+00:00Z", "free_bikes": 14, "empty_slots": 0, "extra": {"uid": 67, "address": "Juan Verdeguer - Toneleros", "status": "OPEN", "banking": false, "bonus": false, "last_update": "2025-05-03T02:51:37Z", "slots": 14, "has_ebikes": false}}, {"id": "836ad9d260a0994250e2dba16b4bed13", "name": "105_AVDA. DE LOS NARANJOS", "latitude": 39.478319, "longitude": -0.344486, "timestamp": "2025-05-03T02:57:56.614556+00:00Z", "free_bikes": 8, "empty_slots": 22, "extra": {"uid": 105, "address": "Aularios Universidad de Valencia", "status": "OPEN", "banking": false, "bonus": false, "last_update": "2025-05-03T02:49:34Z", "slots": 30, "has_ebikes": false}}, {"id": "8686b148454b7ae191bd6461e8461029", "name": "41_AVDA. GRAL. URRUTIA", "latitude": 39.4588800599356, "longitude": -0.364867058884755, "timestamp": "2025-05-03T02:57:56.613306+00:00Z", "free_bikes": 18, "empty_slots": 2, "extra": {"uid": 41, "address": "General Urrutia - Granada", "status": "OPEN", "banking": false, "bonus": false, "last_update": "2025-05-03T02:55:10Z", "slots": 20, "has_ebikes": false}}, {"id": "8719ae090736f3bbb6d992677595947b", "name": "148_X\u00c0TIVA_PLAZA_DE_TOROS", "latitude": 39.467113, "longitude": -0.375469, "timestamp": "2025-05-03T02:57:56.614668+00:00Z", "free_bikes": 0, "empty_slots": 15, "extra": {"uid": 148, "address": "C/X\u00e0tiva 30-32", "status": "OPEN", "banking": false, "bonus": false, "last_update": "2025-05-03T02:52:56Z", "slots": 35, "has_ebikes": false}}, {"id": "873ab9afc1486604b418371201fc6cc0", "name": "204_AVDA_GENERAL_AVILES", "latitude": 39.4858111405269, "longitude": -0.396678168748875, "timestamp": "2025-05-03T02:57:56.613485+00:00Z", "free_bikes": 2, "empty_slots": 18, "extra": {"uid": 204, "address": "Corts Valencianes - General Avil\u00e9s", "status": "OPEN", "banking": false, "bonus": false, "last_update": "2025-05-03T02:48:05Z", "slots": 20, "has_ebikes": false}}, {"id": "88295ce1895e17057d69e865bcf86580", "name": "154_PESCADORES", "latitude": 39.4698441083049, "longitude": -0.329644959268791, "timestamp": "2025-05-03T02:57:56.614699+00:00Z", "free_bikes": 12, "empty_slots": 3, "extra": {"uid": 154, "address": "Pescadores - Progreso", "status": "OPEN", "banking": false, "bonus": false, "last_update": "2025-05-03T02:48:01Z", "slots": 15, "has_ebikes": false}}, {"id": "88a8982707470e257194d22ea6f71ee8", "name": "169_PAVIA 4", "latitude": 39.4787531399051, "longitude": -0.324735949373236, "timestamp": "2025-05-03T02:57:56.613453+00:00Z", "free_bikes": 6, "empty_slots": 12, "extra": {"uid": 169, "address": "Pav\u00eda (Instituto Isabel de Villena)", "status": "OPEN", "banking": false, "bonus": false, "last_update": "2025-05-03T02:55:14Z", "slots": 18, "has_ebikes": false}}, {"id": "897a0be326ec2df02c0d3e9bde8d841c", "name": "141_C/ GREGORIO GEA (PEATONAL)", "latitude": 39.4832361355125, "longitude": -0.385247133088568, "timestamp": "2025-05-03T02:57:56.613676+00:00Z", "free_bikes": 6, "empty_slots": 14, "extra": {"uid": 141, "address": "Gregorio Gea - Padre Ferris", "status": "OPEN", "banking": false, "bonus": false, "last_update": "2025-05-03T02:55:16Z", "slots": 20, "has_ebikes": false}}, {"id": "8c003adf0475a4f7255454aa3d955be2", "name": "45_AVDA. GRAL. URRUTIA", "latitude": 39.4537870437033, "longitude": -0.361946047377204, "timestamp": "2025-05-03T02:57:56.613905+00:00Z", "free_bikes": 7, "empty_slots": 8, "extra": {"uid": 45, "address": "Hermanos Maristas - General Urrutia", "status": "OPEN", "banking": false, "bonus": false, "last_update": "2025-05-03T02:49:01Z", "slots": 15, "has_ebikes": false}}, {"id": "8d96b72df1293feb4f92768d7c457ddc", "name": "218_CALLE_OLIMPIA AROZENA TORRES_ESQ_JUAN BAPTISTA", "latitude": 39.470708089307, "longitude": -0.397475163041212, "timestamp": "2025-05-03T02:57:56.614536+00:00Z", "free_bikes": 10, "empty_slots": 5, "extra": {"uid": 218, "address": "Olimpia Arozena Torres - Juan Bautista Vives", "status": "OPEN", "banking": false, "bonus": false, "last_update": "2025-05-03T02:52:02Z", "slots": 15, "has_ebikes": false}}, {"id": "8dd9dba94732492c376bd8b9c7c05f1d", "name": "167_PAVIA 3", "latitude": 39.4748761268572, "longitude": -0.324700947178956, "timestamp": "2025-05-03T02:57:56.613816+00:00Z", "free_bikes": 19, "empty_slots": 1, "extra": {"uid": 167, "address": "Pav\u00eda - Acequia de la Cadena", "status": "OPEN", "banking": false, "bonus": false, "last_update": "2025-05-03T02:50:59Z", "slots": 20, "has_ebikes": false}}, {"id": "8fd1c5aaa236dcd66ea59d12bee4a199", "name": "241_VALL_DE_ALBAIDA_PEATONAL", "latitude": 39.4929461628982, "longitude": -0.401981188470323, "timestamp": "2025-05-03T02:57:56.614745+00:00Z", "free_bikes": 0, "empty_slots": 15, "extra": {"uid": 241, "address": "La Vall d'Albaida - Corts Valencianes", "status": "OPEN", "banking": false, "bonus": false, "last_update": "2025-05-03T02:55:08Z", "slots": 15, "has_ebikes": false}}, {"id": "90186a47bd201e05f4f7d3e84f797e42", "name": "065_AVDA. DEL PUERTO III", "latitude": 39.4654840867199, "longitude": -0.350928020671138, "timestamp": "2025-05-03T02:57:56.613953+00:00Z", "free_bikes": 18, "empty_slots": 1, "extra": {"uid": 65, "address": "Av. Puerto - Doctor Manuel Candela", "status": "OPEN", "banking": false, "bonus": false, "last_update": "2025-05-03T02:49:01Z", "slots": 19, "has_ebikes": false}}, {"id": "90b634ac29019225c12ac5771612e881", "name": "010_CALLE_DEL_HOSPITAL_FRENTE_CALLE_HORNO_DEL_HOSP", "latitude": 39.4707840943272, "longitude": -0.382701118769287, "timestamp": "2025-05-03T02:57:56.614395+00:00Z", "free_bikes": 0, "empty_slots": 15, "extra": {"uid": 10, "address": "Hospital - Horno del Hospital", "status": "OPEN", "banking": false, "bonus": false, "last_update": "2025-05-03T02:54:09Z", "slots": 15, "has_ebikes": false}}, {"id": "9115618aa3c6cab02231b913fc5f2358", "name": "066_GUILLEN DE ANGLESOLA", "latitude": 39.4642390840045, "longitude": -0.346352006288128, "timestamp": "2025-05-03T02:57:56.614785+00:00Z", "free_bikes": 23, "empty_slots": 1, "extra": {"uid": 66, "address": "Guillem de Anglesola - Av. Puerto", "status": "OPEN", "banking": false, "bonus": false, "last_update": "2025-05-03T02:50:05Z", "slots": 25, "has_ebikes": false}}, {"id": "91424d7d735c801c3ab8c4cef5029c05", "name": "197_CALLE_FONTANARS_DELS_AFORINS", "latitude": 39.4581520485586, "longitude": -0.392424141132886, "timestamp": "2025-05-03T02:57:56.613968+00:00Z", "free_bikes": 6, "empty_slots": 9, "extra": {"uid": 197, "address": "Fontanars dels Aforins - Jacinto Labaila", "status": "OPEN", "banking": false, "bonus": false, "last_update": "2025-05-03T02:51:00Z", "slots": 15, "has_ebikes": false}}, {"id": "92c4a3f12135bd872c06adf8059dc1af", "name": "060_AVDA.BALEARES II", "latitude": 39.4621990753403, "longitude": -0.351867021712218, "timestamp": "2025-05-03T02:57:56.614400+00:00Z", "free_bikes": 7, "empty_slots": 12, "extra": {"uid": 60, "address": "Baleares - Leb\u00f3n", "status": "OPEN", "banking": false, "bonus": false, "last_update": "2025-05-03T02:54:16Z", "slots": 19, "has_ebikes": false}}, {"id": "93474df36a0a1353a2d78f2e2c88a285", "name": "021_JUAN_LLORENS_29", "latitude": 39.4723390971218, "longitude": -0.390305142409828, "timestamp": "2025-05-03T02:57:56.613257+00:00Z", "free_bikes": 7, "empty_slots": 9, "extra": {"uid": 21, "address": "Juan Llorens - Literato Gabriel Mir\u00f3", "status": "OPEN", "banking": false, "bonus": false, "last_update": "2025-05-03T02:55:37Z", "slots": 16, "has_ebikes": false}}, {"id": "94cedb3a02c9e2c15d88b79173642b85", "name": "166_PROGRESO", "latitude": 39.4733171202464, "longitude": -0.328901958917283, "timestamp": "2025-05-03T02:57:56.613869+00:00Z", "free_bikes": 4, "empty_slots": 11, "extra": {"uid": 166, "address": "Don Vicente Guillot - Progreso", "status": "OPEN", "banking": false, "bonus": false, "last_update": "2025-05-03T02:50:41Z", "slots": 15, "has_ebikes": false}}, {"id": "954624848140147cf210628ad9c94618", "name": "005_PINTOR_LOPEZ_PZA_POETA_LLORENTE", "latitude": 39.4768631185303, "longitude": -0.371231087646942, "timestamp": "2025-05-03T02:57:56.614725+00:00Z", "free_bikes": 3, "empty_slots": 12, "extra": {"uid": 5, "address": "Plaza Poeta Llorente", "status": "OPEN", "banking": false, "bonus": false, "last_update": "2025-05-03T02:49:05Z", "slots": 15, "has_ebikes": false}}, {"id": "955e9af23031c676cedda580f65070c4", "name": "022_JUAN_LLORENS_57", "latitude": 39.4697550890028, "longitude": -0.388444135439494, "timestamp": "2025-05-03T02:57:56.614100+00:00Z", "free_bikes": 13, "empty_slots": 2, "extra": {"uid": 22, "address": "Angel Guimer\u00e1 - Juan Llorens", "status": "OPEN", "banking": false, "bonus": false, "last_update": "2025-05-03T02:56:03Z", "slots": 15, "has_ebikes": false}}, {"id": "9610d7ce3c56428cdac32576cd3328cd", "name": "131_CALLE SANTA AMALIA  2", "latitude": 39.481385, "longitude": -0.373003, "timestamp": "2025-05-03T02:57:56.613369+00:00Z", "free_bikes": 2, "empty_slots": 18, "extra": {"uid": 131, "address": "CALLE SANTA AMALIA  2, esquina POETA BODRIA", "status": "OPEN", "banking": false, "bonus": false, "last_update": "2025-05-03T02:55:18Z", "slots": 20, "has_ebikes": false}}, {"id": "97152ea93fde93b22eb2001e1df612fe", "name": "026_CALLE_SAN_JOSE_DE_CALASANZ", "latitude": 39.466303, "longitude": -0.385955, "timestamp": "2025-05-03T02:57:56.613312+00:00Z", "free_bikes": 3, "empty_slots": 12, "extra": {"uid": 26, "address": "San Jos\u00e9 de Calasanz - Salas Quiroga", "status": "OPEN", "banking": false, "bonus": false, "last_update": "2025-05-03T02:50:05Z", "slots": 15, "has_ebikes": false}}, {"id": "9812b488b2442661ff775c3d64829810", "name": "108_ LUIS PEIXO", "latitude": 39.473794, "longitude": -0.334006, "timestamp": "2025-05-03T02:57:56.613546+00:00Z", "free_bikes": 15, "empty_slots": 0, "extra": {"uid": 108, "address": "Lu\u00eds Peix\u00f3 20", "status": "OPEN", "banking": false, "bonus": false, "last_update": "2025-05-03T02:52:05Z", "slots": 15, "has_ebikes": false}}, {"id": "9a3e4ae6cc43679bb06b62f250450aff", "name": "145_PLAZA_BADAJOZ", "latitude": 39.4815151254512, "longitude": -0.398486171871458, "timestamp": "2025-05-03T02:57:56.614571+00:00Z", "free_bikes": 11, "empty_slots": 4, "extra": {"uid": 145, "address": "Plaza Badajoz", "status": "OPEN", "banking": false, "bonus": false, "last_update": "2025-05-03T02:49:05Z", "slots": 15, "has_ebikes": false}}, {"id": "9d2c1e4b54855f098cb08db63999a8ed", "name": "86_AVDA_GASPAR_AGUILAR_ESQ_VICENTE_PARRA", "latitude": 39.45520803899, "longitude": -0.391284136125771, "timestamp": "2025-05-03T02:57:56.614714+00:00Z", "free_bikes": 5, "empty_slots": 15, "extra": {"uid": 86, "address": "Gaspar Aguilar - Vicente Parra", "status": "OPEN", "banking": false, "bonus": false, "last_update": "2025-05-03T02:50:05Z", "slots": 20, "has_ebikes": false}}, {"id": "a0b0a6d844e3f7f0faaea6959f4b4602", "name": "227_CALLE_SAN_CLEMENTE_ENTRA_HOSPITAL_ARNAU_VILANO", "latitude": 39.4902161533539, "longitude": -0.403022190134151, "timestamp": "2025-05-03T02:57:56.613443+00:00Z", "free_bikes": 0, "empty_slots": 20, "extra": {"uid": 227, "address": "San Clemente - Hospital Arnau de Vilanova", "status": "OPEN", "banking": false, "bonus": false, "last_update": "2025-05-03T02:52:08Z", "slots": 20, "has_ebikes": false}}, {"id": "a16b54358647768269a45a6bd99cc27c", "name": "183 - AVDA AUSIAS MARCH", "latitude": 39.452588036275, "longitude": -0.372375077997377, "timestamp": "2025-05-03T02:57:56.614730+00:00Z", "free_bikes": 18, "empty_slots": 0, "extra": {"uid": 183, "address": "Ausias March - Av. de la Plata", "status": "OPEN", "banking": false, "bonus": false, "last_update": "2025-05-03T02:47:04Z", "slots": 18, "has_ebikes": false}}, {"id": "a197739f69472ae8677b1c7b202785b1", "name": "036_PZA_LOS_FUEROS_CONDE_TRENOR", "latitude": 39.4790401244879, "longitude": -0.375527101694727, "timestamp": "2025-05-03T02:57:56.614842+00:00Z", "free_bikes": 3, "empty_slots": 22, "extra": {"uid": 36, "address": "Plaza de los Fueros - Conde Trenor", "status": "OPEN", "banking": false, "bonus": false, "last_update": "2025-05-03T02:50:01Z", "slots": 25, "has_ebikes": false}}, {"id": "a1fb851787b0b52595871778651625b5", "name": "027_CALLE_SAN_VICENTE_MARTIR_129", "latitude": 39.4633300694228, "longitude": -0.381942112481819, "timestamp": "2025-05-03T02:57:56.613671+00:00Z", "free_bikes": 3, "empty_slots": 17, "extra": {"uid": 27, "address": "San Vicente Martir - Doctor Vil\u00e1 Barber\u00e1", "status": "OPEN", "banking": false, "bonus": false, "last_update": "2025-05-03T02:51:02Z", "slots": 20, "has_ebikes": false}}, {"id": "a36387de9f74ed015adabb4155a34448", "name": "38_AVDA. PERIS Y VALERO", "latitude": 39.4593698286773, "longitude": -0.370340076012569, "timestamp": "2025-05-03T02:57:56.614435+00:00Z", "free_bikes": 12, "empty_slots": 3, "extra": {"uid": 38, "address": "Peris y Valero - Cabo Jubi", "status": "OPEN", "banking": false, "bonus": false, "last_update": "2025-05-03T02:53:58Z", "slots": 15, "has_ebikes": false}}, {"id": "a44639341e18fde5958b7ce2a0addd21", "name": "025_CALLE_DEL_ALBERIC", "latitude": 39.4676970819754, "longitude": -0.388701135103807, "timestamp": "2025-05-03T02:57:56.613570+00:00Z", "free_bikes": 5, "empty_slots": 18, "extra": {"uid": 25, "address": "Alberique, 18 (Abastos)", "status": "OPEN", "banking": false, "bonus": false, "last_update": "2025-05-03T02:56:45Z", "slots": 23, "has_ebikes": false}}, {"id": "a4bbb509726c37fa7d11bf0b719f4fbc", "name": "019_JUAN_LLORENS", "latitude": 39.4743371034203, "longitude": -0.391681147609965, "timestamp": "2025-05-03T02:57:56.613565+00:00Z", "free_bikes": 0, "empty_slots": 15, "extra": {"uid": 19, "address": "Juan Llorens - Quart", "status": "OPEN", "banking": false, "bonus": false, "last_update": "2025-05-03T02:53:06Z", "slots": 15, "has_ebikes": false}}, {"id": "a4c9df03310deeb31b1c28db97f48f47", "name": "180_AVENIDA_DOCTOR_WAKSMAN", "latitude": 39.455989048269, "longitude": -0.370774075033782, "timestamp": "2025-05-03T02:57:56.614683+00:00Z", "free_bikes": 5, "empty_slots": 14, "extra": {"uid": 180, "address": "Doctor Waksman - Nieves", "status": "OPEN", "banking": false, "bonus": false, "last_update": "2025-05-03T02:54:05Z", "slots": 20, "has_ebikes": false}}, {"id": "a564c6627f9677adbae33f159a038bcb", "name": "273_CALLE_MORAIRA_CALLE_DALT_DE_LA_MAR", "latitude": 39.4502730411407, "longitude": -0.33336295982062, "timestamp": "2025-05-03T02:57:56.613619+00:00Z", "free_bikes": 15, "empty_slots": 0, "extra": {"uid": 273, "address": "Moraira - Alta del Mar", "status": "OPEN", "banking": false, "bonus": false, "last_update": "2025-05-03T02:47:05Z", "slots": 15, "has_ebikes": false}}, {"id": "a69f586d7bc965c3b9c6cabe8410f7bb", "name": "52_C/ LUIS GARCIA BERLANGA", "latitude": 39.4560020562084, "longitude": -0.346431002074561, "timestamp": "2025-05-03T02:57:56.613522+00:00Z", "free_bikes": 11, "empty_slots": 14, "extra": {"uid": 52, "address": "Luis Garc\u00eda Berlanga Mart\u00ed - Menorca", "status": "OPEN", "banking": false, "bonus": false, "last_update": "2025-05-03T02:56:09Z", "slots": 25, "has_ebikes": false}}, {"id": "a6abbb4251382c8a66dbf4eb0df598e3", "name": "132_C/ RUAYA", "latitude": 39.485254146087, "longitude": -0.373525099027208, "timestamp": "2025-05-03T02:57:56.614014+00:00Z", "free_bikes": 12, "empty_slots": 3, "extra": {"uid": 132, "address": "Platero Su\u00e1rez - Milagrosa", "status": "OPEN", "banking": false, "bonus": false, "last_update": "2025-05-03T02:56:27Z", "slots": 15, "has_ebikes": false}}, {"id": "a804fda919dd5ff4ba19977884da8ae1", "name": "275_CAMINO_DE_LAS_MORERAS_ESQ_RONDA_DE_NAZARET", "latitude": 39.4522730472996, "longitude": -0.33515596627555, "timestamp": "2025-05-03T02:57:56.614576+00:00Z", "free_bikes": 16, "empty_slots": 4, "extra": {"uid": 275, "address": "Moreras - Rona de Nazaret", "status": "OPEN", "banking": false, "bonus": false, "last_update": "2025-05-03T02:49:04Z", "slots": 20, "has_ebikes": false}}, {"id": "a9d12a2a780366482ce8e1303634dc6f", "name": "156_C/ CUBA", "latitude": 39.4609320631125, "longitude": -0.376436094678165, "timestamp": "2025-05-03T02:57:56.613978+00:00Z", "free_bikes": 10, "empty_slots": 5, "extra": {"uid": 156, "address": "Puerto Rico - Cuba", "status": "OPEN", "banking": false, "bonus": false, "last_update": "2025-05-03T02:50:14Z", "slots": 15, "has_ebikes": false}}, {"id": "adadc6d5de584b49bc125a47e5ebc87b", "name": "233_SAN_JUAN_BOSCO_SANTIAGO_RUSI\u00d1OL", "latitude": 39.497128187401, "longitude": -0.369528093405798, "timestamp": "2025-05-03T02:57:56.613230+00:00Z", "free_bikes": 6, "empty_slots": 9, "extra": {"uid": 233, "address": "San Juan Bosco - Santiago Rusi\u00f1ol", "status": "OPEN", "banking": false, "bonus": false, "last_update": "2025-05-03T02:47:30Z", "slots": 15, "has_ebikes": false}}, {"id": "ae1f9ed7d3dd961d1a23c92f438ccc9c", "name": "073_JERONIMO MONSORIU", "latitude": 39.4662270918011, "longitude": -0.342969997228533, "timestamp": "2025-05-03T02:57:56.614709+00:00Z", "free_bikes": 20, "empty_slots": 0, "extra": {"uid": 73, "address": "Jer\u00f3nimo Monsoriu - Industria", "status": "OPEN", "banking": false, "bonus": false, "last_update": "2025-05-03T02:47:05Z", "slots": 20, "has_ebikes": false}}, {"id": "ae47bc8747087ce69068ce2bf02a9ef6", "name": "150_DR. MANUEL CANDELA", "latitude": 39.4676890942275, "longitude": -0.350700021177111, "timestamp": "2025-05-03T02:57:56.614658+00:00Z", "free_bikes": 20, "empty_slots": 5, "extra": {"uid": 150, "address": "Manuel Candela - Rodriguez de Cepeda", "status": "OPEN", "banking": false, "bonus": false, "last_update": "2025-05-03T02:54:08Z", "slots": 25, "has_ebikes": false}}, {"id": "af6c7675d6f1e67865fd1e51d155c243", "name": "085_AVDA_BLASCO IBA\u00d1EZ 1", "latitude": 39.4794321292633, "longitude": -0.364806069768998, "timestamp": "2025-05-03T02:57:56.614000+00:00Z", "free_bikes": 5, "empty_slots": 18, "extra": {"uid": 85, "address": "Blasco Iba\u00f1ez - Jaime Roig", "status": "OPEN", "banking": false, "bonus": false, "last_update": "2025-05-03T02:49:41Z", "slots": 23, "has_ebikes": false}}, {"id": "af8edd5e925d5c86428d87ddd7418677", "name": "176_CAMINO_DE_MONCADA_52", "latitude": 39.4919851670424, "longitude": -0.378944118876901, "timestamp": "2025-05-03T02:57:56.614386+00:00Z", "free_bikes": 9, "empty_slots": 11, "extra": {"uid": 176, "address": "Cno. Moncada - Pedro Patricio Mey", "status": "OPEN", "banking": false, "bonus": false, "last_update": "2025-05-03T02:50:04Z", "slots": 20, "has_ebikes": false}}, {"id": "b25801b7919eec3ac022b9a60277250e", "name": "247_AVDA_TRES_CRUCES_MUSICO_AYLLON", "latitude": 39.4673780754272, "longitude": -0.405664185821979, "timestamp": "2025-05-03T02:57:56.613279+00:00Z", "free_bikes": 2, "empty_slots": 13, "extra": {"uid": 247, "address": "Tres Cruces - M\u00fasico Ayll\u00f3n", "status": "OPEN", "banking": false, "bonus": false, "last_update": "2025-05-03T02:51:37Z", "slots": 15, "has_ebikes": false}}, {"id": "b268fd4c051c4595d167d1afe68a8ab0", "name": "93_AVADA_BLASCO_IBA\u00d1EZ_DESP_C_POETA_DURAN_TORTAJAD", "latitude": 39.4722501118008, "longitude": -0.34390000326249, "timestamp": "2025-05-03T02:57:56.614521+00:00Z", "free_bikes": 38, "empty_slots": 0, "extra": {"uid": 93, "address": "Blasco Iba\u00f1ez - Poeta Dur\u00e1n Tortajada", "status": "OPEN", "banking": false, "bonus": false, "last_update": "2025-05-03T02:47:00Z", "slots": 38, "has_ebikes": false}}, {"id": "b341aae6be0b23b909ff65b5ca7a89b2", "name": "153_C/ LLANO DE ZAIDA", "latitude": 39.483026, "longitude": -0.380682, "timestamp": "2025-05-03T02:57:56.614451+00:00Z", "free_bikes": 13, "empty_slots": 11, "extra": {"uid": 153, "address": "Llano de la Zaid\u00eda - Doctor Ol\u00f3riz", "status": "OPEN", "banking": false, "bonus": false, "last_update": "2025-05-03T02:56:06Z", "slots": 24, "has_ebikes": false}}, {"id": "b379c01fe79efd61620cad8ea2b7010f", "name": "097_AVDA. BLASCO IBA\u00d1EZ 7", "latitude": 39.4730361146687, "longitude": -0.343223001657882, "timestamp": "2025-05-03T02:57:56.613838+00:00Z", "free_bikes": 22, "empty_slots": 1, "extra": {"uid": 97, "address": "Blasco Iba\u00f1ez 121", "status": "OPEN", "banking": false, "bonus": false, "last_update": "2025-05-03T02:51:07Z", "slots": 23, "has_ebikes": false}}, {"id": "b623f38ca8a0c395d473420b0436df14", "name": "182_AVDA_AUSIAS_MARCH", "latitude": 39.455400044894, "longitude": -0.375056087555512, "timestamp": "2025-05-03T02:57:56.614511+00:00Z", "free_bikes": 16, "empty_slots": 5, "extra": {"uid": 182, "address": "Ausias March - Pianista Amparo Iturbi", "status": "OPEN", "banking": false, "bonus": false, "last_update": "2025-05-03T02:56:19Z", "slots": 21, "has_ebikes": false}}, {"id": "b6e8549f0ac02fdb1e3b047a74a54921", "name": "40_CALLE_BARCAS_FRENTE _TEATRO_PRINCIPAL", "latitude": 39.470434095659, "longitude": -0.374915095234885, "timestamp": "2025-05-03T02:57:56.614045+00:00Z", "free_bikes": 0, "empty_slots": 26, "extra": {"uid": 40, "address": "Barcas, 11", "status": "OPEN", "banking": false, "bonus": false, "last_update": "2025-05-03T02:55:59Z", "slots": 26, "has_ebikes": false}}, {"id": "b7f2c4cdd20fc4a04ebc107e82ded55f", "name": "157_AVENIDA_PEREZ_GALDOS", "latitude": 39.464020069969, "longitude": -0.387457129393968, "timestamp": "2025-05-03T02:57:56.613937+00:00Z", "free_bikes": 4, "empty_slots": 16, "extra": {"uid": 157, "address": "P\u00e9rez Gald\u00f3s - Marqu\u00e9s de Zenete", "status": "OPEN", "banking": false, "bonus": false, "last_update": "2025-05-03T02:51:01Z", "slots": 20, "has_ebikes": false}}, {"id": "b88b12b9267454c7cb33591e47198cf7", "name": "147_CALLE_PIE_DE_LA_CRUZ_CALLE_DE_LA_REJA", "latitude": 39.4731691031481, "longitude": -0.38029811284559, "timestamp": "2025-05-03T02:57:56.613630+00:00Z", "free_bikes": 0, "empty_slots": 14, "extra": {"uid": 147, "address": "Pie de la Cruz - Rejas", "status": "OPEN", "banking": false, "bonus": false, "last_update": "2025-05-03T02:51:07Z", "slots": 15, "has_ebikes": false}}, {"id": "b94a7494c2c30009d33d2cf9a05456fe", "name": "70_CALLE_COLON_ESQ_ALMIRANTE_ROGER_DE_LAURIA", "latitude": 39.469181, "longitude": -0.371737, "timestamp": "2025-05-03T02:57:56.613708+00:00Z", "free_bikes": 0, "empty_slots": 16, "extra": {"uid": 70, "address": "Col\u00f3n, 44", "status": "OPEN", "banking": false, "bonus": false, "last_update": "2025-05-03T02:53:59Z", "slots": 17, "has_ebikes": false}}, {"id": "b96f118d0c662365a60c559044feb71a", "name": "137_CALLE_ECONOMISTA_GAY", "latitude": 39.4890011566455, "longitude": -0.379987120406342, "timestamp": "2025-05-03T02:57:56.613768+00:00Z", "free_bikes": 5, "empty_slots": 15, "extra": {"uid": 137, "address": "Economista Gay - Luis Crumiere", "status": "OPEN", "banking": false, "bonus": false, "last_update": "2025-05-03T02:51:02Z", "slots": 20, "has_ebikes": false}}, {"id": "b9e9987ef161ec99bda4712cd5a8dac0", "name": "124_C/ AZAGADOR DE ALBORAYA", "latitude": 39.4884691606166, "longitude": -0.362046066347782, "timestamp": "2025-05-03T02:57:56.614631+00:00Z", "free_bikes": 10, "empty_slots": 15, "extra": {"uid": 124, "address": "Azagador de Alboraya - Dolores Marqu\u00e9s", "status": "OPEN", "banking": false, "bonus": false, "last_update": "2025-05-03T02:48:03Z", "slots": 25, "has_ebikes": false}}, {"id": "badf9bc5719d30e566c45d652174058e", "name": "240_CAMP_DEL_TURIA_AVDA_CORTES_VALENCIANAS", "latitude": 39.494972169843, "longitude": -0.401638188523523, "timestamp": "2025-05-03T02:57:56.614653+00:00Z", "free_bikes": 0, "empty_slots": 20, "extra": {"uid": 240, "address": "Camp del Turia - Corts Valencianes", "status": "OPEN", "banking": false, "bonus": false, "last_update": "2025-05-03T02:54:00Z", "slots": 20, "has_ebikes": false}}, {"id": "bc1d2217f2b851de40f462e251e424f0", "name": "225_CALLE_PADRE_BARRANCO_DESPUES_CALLE_BENIFAIRO", "latitude": 39.4880751467038, "longitude": -0.401233183623003, "timestamp": "2025-05-03T02:57:56.613983+00:00Z", "free_bikes": 6, "empty_slots": 14, "extra": {"uid": 225, "address": "Padre Barranco - Carlos Ruano Llopis (Pintor)", "status": "OPEN", "banking": false, "bonus": false, "last_update": "2025-05-03T02:49:02Z", "slots": 20, "has_ebikes": false}}, {"id": "be0cd8beb7a2b510a47b6b98ec9a0fab", "name": "260_DELS_FERRERS_ESQ_TRAGINERS", "latitude": 39.4595240483794, "longitude": -0.407308186532079, "timestamp": "2025-05-03T02:57:56.614585+00:00Z", "free_bikes": 9, "empty_slots": 11, "extra": {"uid": 260, "address": "Traginers - Pedrapiquers", "status": "OPEN", "banking": false, "bonus": false, "last_update": "2025-05-03T02:54:10Z", "slots": 20, "has_ebikes": false}}, {"id": "bedf8663dc8b3e6e71ca3066b2740b03", "name": "185_AVDA_AUSIAS_MARCH", "latitude": 39.450012028161, "longitude": -0.37059407126453, "timestamp": "2025-05-03T02:57:56.614780+00:00Z", "free_bikes": 15, "empty_slots": 0, "extra": {"uid": 185, "address": "Ebanista Caselles - Ausias March", "status": "OPEN", "banking": false, "bonus": false, "last_update": "2025-05-03T02:48:59Z", "slots": 15, "has_ebikes": false}}, {"id": "c048c320b3dbcc405aa895a0e56b547e", "name": "142_C/ GREGORIO GEA (PEATONAL)", "latitude": 39.4818881295177, "longitude": -0.389750145869399, "timestamp": "2025-05-03T02:57:56.614477+00:00Z", "free_bikes": 5, "empty_slots": 20, "extra": {"uid": 142, "address": "Gregorio Gea - Profesor Beltr\u00e1n B\u00e1guena", "status": "OPEN", "banking": false, "bonus": false, "last_update": "2025-05-03T02:56:04Z", "slots": 25, "has_ebikes": false}}, {"id": "c15cc07ed5986aaab8471acbbfde287c", "name": "259_CALLE_PIO_IX_POLIDEPORTIVO_RAMBLETA", "latitude": 39.445428005382, "longitude": -0.393106136312086, "timestamp": "2025-05-03T02:57:56.614704+00:00Z", "free_bikes": 4, "empty_slots": 16, "extra": {"uid": 259, "address": "Pio IX - M\u00fasico Cabanilles", "status": "OPEN", "banking": false, "bonus": false, "last_update": "2025-05-03T02:53:04Z", "slots": 20, "has_ebikes": false}}, {"id": "c4010e0627e94cf975a8ad922a0e0ec5", "name": "213_CALLE_ARCHIDUQUE_CARLOS_ESQ_CALLE_JOSE_MA_MOR", "latitude": 39.4631330638726, "longitude": -0.397063157732616, "timestamp": "2025-05-03T02:57:56.613738+00:00Z", "free_bikes": 6, "empty_slots": 9, "extra": {"uid": 213, "address": "Archiduque Carlos - Jos\u00e9 Mar\u00eda Mortes Lerma", "status": "OPEN", "banking": false, "bonus": false, "last_update": "2025-05-03T02:47:11Z", "slots": 15, "has_ebikes": false}}, {"id": "c52ed3a69d9dcd4c1b2c4edf0ac27a02", "name": "55_AVDA. DE FRANCIA", "latitude": 39.4593110666043, "longitude": -0.348777010892994, "timestamp": "2025-05-03T02:57:56.614105+00:00Z", "free_bikes": 25, "empty_slots": 0, "extra": {"uid": 55, "address": "Francia - Pintor Maella", "status": "OPEN", "banking": false, "bonus": false, "last_update": "2025-05-03T02:51:07Z", "slots": 25, "has_ebikes": false}}, {"id": "c54273df9f7f121822f1f7c56b7fecb2", "name": "003_PLAZA_MUSICO_LOPEZ_CHAVARRI", "latitude": 39.4768031153802, "longitude": -0.38037911504075, "timestamp": "2025-05-03T02:57:56.613222+00:00Z", "free_bikes": 0, "empty_slots": 20, "extra": {"uid": 3, "address": "Plaza del Musico L\u00f3pez Chavarri", "status": "OPEN", "banking": false, "bonus": false, "last_update": "2025-05-03T02:47:12Z", "slots": 20, "has_ebikes": false}}, {"id": "c6fdfe8c5fafa9d16e7a2f2943619f12", "name": "37_AVDA. PERIS Y VALERO", "latitude": 39.4609055823944, "longitude": -0.366531327258963, "timestamp": "2025-05-03T02:57:56.614626+00:00Z", "free_bikes": 13, "empty_slots": 7, "extra": {"uid": 37, "address": "Peris y Valero - Luis Sant\u00e1ngel", "status": "OPEN", "banking": false, "bonus": false, "last_update": "2025-05-03T02:51:01Z", "slots": 20, "has_ebikes": false}}, {"id": "c72f5c3bacb472a6ed57da40fc68dfd4", "name": "220_CALLE_CASTAN_TOBE\u00d1AS_ESQ_CALLE_DE_GOYA", "latitude": 39.4738230995181, "longitude": -0.398412167524643, "timestamp": "2025-05-03T02:57:56.614663+00:00Z", "free_bikes": 8, "empty_slots": 8, "extra": {"uid": 220, "address": "Cast\u00e1n Tobe\u00f1as - Patriques", "status": "OPEN", "banking": false, "bonus": false, "last_update": "2025-05-03T02:54:04Z", "slots": 16, "has_ebikes": false}}, {"id": "c7d1d08abc6cb0bd879523bf612f3e7d", "name": "149_AVDA. PERIS Y VALERO", "latitude": 39.4629020744664, "longitude": -0.361886052119026, "timestamp": "2025-05-03T02:57:56.614381+00:00Z", "free_bikes": 9, "empty_slots": 11, "extra": {"uid": 149, "address": "Peris y Valero - Salamanca", "status": "OPEN", "banking": false, "bonus": false, "last_update": "2025-05-03T02:53:04Z", "slots": 20, "has_ebikes": false}}, {"id": "c86c93b48fc2b3aa825327ea264d1aa9", "name": "211_CALLE_FRAY_JUN\u00cdPERO_SERRA_ESQ_CALLE_VALL_D'UIX", "latitude": 39.4586940486343, "longitude": -0.397848157697943, "timestamp": "2025-05-03T02:57:56.613235+00:00Z", "free_bikes": 12, "empty_slots": 3, "extra": {"uid": 211, "address": "Fray Jun\u00edpero Serra - Vall d'Uix\u00f3", "status": "OPEN", "banking": false, "bonus": false, "last_update": "2025-05-03T02:55:04Z", "slots": 15, "has_ebikes": false}}, {"id": "c896bc6c1db04cd91f903d9df69c989a", "name": "116_C/ DR. VICENTE ZARAGOZA", "latitude": 39.4832211443412, "longitude": -0.357652050365347, "timestamp": "2025-05-03T02:57:56.613252+00:00Z", "free_bikes": 11, "empty_slots": 4, "extra": {"uid": 116, "address": "Doctor Vicente Zaragoz\u00e1 - Ram\u00f3n Asensio", "status": "OPEN", "banking": false, "bonus": false, "last_update": "2025-05-03T02:50:10Z", "slots": 15, "has_ebikes": false}}, {"id": "c9ec709d72bc00b65812dec097838633", "name": "014_BAR\u00d3N CARCER", "latitude": 39.4689350890206, "longitude": -0.379815109120643, "timestamp": "2025-05-03T02:57:56.614110+00:00Z", "free_bikes": 1, "empty_slots": 19, "extra": {"uid": 14, "address": "Huesca - Bar\u00f3n de C\u00e1rcer", "status": "OPEN", "banking": false, "bonus": false, "last_update": "2025-05-03T02:48:00Z", "slots": 20, "has_ebikes": false}}, {"id": "cb4c4670ca56c6d2898f3ff8232d7422", "name": "009_PLAZA_TETUAN_4", "latitude": 39.4743231103546, "longitude": -0.370021082654504, "timestamp": "2025-05-03T02:57:56.614055+00:00Z", "free_bikes": 13, "empty_slots": 11, "extra": {"uid": 9, "address": "Plaza de Tetu\u00e1n", "status": "OPEN", "banking": false, "bonus": false, "last_update": "2025-05-03T02:53:10Z", "slots": 25, "has_ebikes": false}}, {"id": "ccc1de66ce81986f82a99ef0cd513c4d", "name": "058_PLAZA DE ESPA\u00d1A", "latitude": 39.4661860791448, "longitude": -0.381677113224894, "timestamp": "2025-05-03T02:57:56.613702+00:00Z", "free_bikes": 7, "empty_slots": 13, "extra": {"uid": 58, "address": "Plaza Espa\u00f1a", "status": "OPEN", "banking": false, "bonus": false, "last_update": "2025-05-03T02:52:10Z", "slots": 20, "has_ebikes": false}}, {"id": "cd4582b4269e048d04d8f3d2229a50db", "name": "274_MANUEL_ANDRES_CASTELL_DE_POLOP", "latitude": 39.4480380336336, "longitude": -0.333278958357397, "timestamp": "2025-05-03T02:57:56.613348+00:00Z", "free_bikes": 10, "empty_slots": 5, "extra": {"uid": 274, "address": "San Francisco de Paula - Castell de Pop", "status": "OPEN", "banking": false, "bonus": false, "last_update": "2025-05-03T02:48:06Z", "slots": 15, "has_ebikes": false}}, {"id": "cd674b152f7ab02056a8ee37b3fda689", "name": "276_EDIFICIO_VELES_E_VENTS", "latitude": 39.4619430835605, "longitude": -0.323855937664754, "timestamp": "2025-05-03T02:57:56.614616+00:00Z", "free_bikes": 4, "empty_slots": 14, "extra": {"uid": 276, "address": "Veles e Vents", "status": "OPEN", "banking": false, "bonus": false, "last_update": "2025-05-03T02:54:41Z", "slots": 20, "has_ebikes": false}}, {"id": "ce4ecb6f066f87a90b0a71e78361efd2", "name": "201_AVDA_PEREZ_GALDOS", "latitude": 39.471680093785, "longitude": -0.393759152416117, "timestamp": "2025-05-03T02:57:56.613784+00:00Z", "free_bikes": 4, "empty_slots": 16, "extra": {"uid": 201, "address": "Perez Gald\u00f3s - Nou Moles", "status": "OPEN", "banking": false, "bonus": false, "last_update": "2025-05-03T02:55:05Z", "slots": 20, "has_ebikes": false}}, {"id": "cfbf5ed4b45497c68c84918042ca6983", "name": "081_DOCTOR FORNOS", "latitude": 39.4750961158493, "longitude": -0.361069056238335, "timestamp": "2025-05-03T02:57:56.613359+00:00Z", "free_bikes": 18, "empty_slots": 2, "extra": {"uid": 81, "address": "Micer Masc\u00f3 - Rodriguez Fornos", "status": "OPEN", "banking": false, "bonus": false, "last_update": "2025-05-03T02:55:08Z", "slots": 20, "has_ebikes": false}}, {"id": "d0af088cdbd0ec67d34982a7cdad2f80", "name": "262_AVDA_TRES_FORQUES_COLONIA_ESPANOLA_DE_MEXICO", "latitude": 39.4634400609539, "longitude": -0.409316194664879, "timestamp": "2025-05-03T02:57:56.614816+00:00Z", "free_bikes": 8, "empty_slots": 12, "extra": {"uid": 262, "address": "Tres Forques - Colonia Espa\u00f1ola de Mexico", "status": "OPEN", "banking": false, "bonus": false, "last_update": "2025-05-03T02:56:10Z", "slots": 20, "has_ebikes": false}}, {"id": "d0fc5e6ab1ead7c7d5dd5350e0ce588c", "name": "029_PLAZA AMERICA", "latitude": 39.4700800975406, "longitude": -0.36539006649012, "timestamp": "2025-05-03T02:57:56.614430+00:00Z", "free_bikes": 11, "empty_slots": 9, "extra": {"uid": 29, "address": "Plaza Am\u00e9rica - Cirilo Amor\u00f3s - Sorn\u00ed", "status": "OPEN", "banking": false, "bonus": false, "last_update": "2025-05-03T02:53:31Z", "slots": 20, "has_ebikes": false}}, {"id": "d1683f921c1cf0aa553ec45494ec53db", "name": "188_HOSPITAL_NUEVA_FE", "latitude": 39.444589, "longitude": -0.375249, "timestamp": "2025-05-03T02:57:56.614596+00:00Z", "free_bikes": 2, "empty_slots": 38, "extra": {"uid": 188, "address": "Hospital Nueva Fe (consultas externas)", "status": "OPEN", "banking": false, "bonus": false, "last_update": "2025-05-03T02:53:06Z", "slots": 40, "has_ebikes": false}}, {"id": "d1f846809587f14bba436b8d46384962", "name": "002_CALLE_SALVADOR_GINER_CALLE_MUSEO", "latitude": 39.4798571258551, "longitude": -0.379839115061075, "timestamp": "2025-05-03T02:57:56.614507+00:00Z", "free_bikes": 0, "empty_slots": 15, "extra": {"uid": 2, "address": "Salvador Giner - C. Museo", "status": "OPEN", "banking": false, "bonus": false, "last_update": "2025-05-03T02:56:09Z", "slots": 15, "has_ebikes": false}}, {"id": "d2376cc770c49d94415e1def7df29151", "name": "181_CALLE_DEL_SALINAR", "latitude": 39.4579670557495, "longitude": -0.368282068629998, "timestamp": "2025-05-03T02:57:56.614146+00:00Z", "free_bikes": 12, "empty_slots": 3, "extra": {"uid": 181, "address": "Zapadores, 23", "status": "OPEN", "banking": false, "bonus": false, "last_update": "2025-05-03T02:55:26Z", "slots": 15, "has_ebikes": false}}, {"id": "d3988fd38b15df1685815ea02b6c5673", "name": "125_C/ MASQUEFA", "latitude": 39.4896611657071, "longitude": -0.358709056987903, "timestamp": "2025-05-03T02:57:56.613910+00:00Z", "free_bikes": 9, "empty_slots": 6, "extra": {"uid": 125, "address": "Masquefa, 42 - 44", "status": "OPEN", "banking": false, "bonus": false, "last_update": "2025-05-03T02:49:06Z", "slots": 15, "has_ebikes": false}}, {"id": "d5cbe22ee84d7a17a8062f7062280f5b", "name": "248_AVDA_TRES_CRUCES_JOSE_MARIA_MORTES_LERMA", "latitude": 39.4628080601935, "longitude": -0.40506018155276, "timestamp": "2025-05-03T02:57:56.613778+00:00Z", "free_bikes": 15, "empty_slots": 4, "extra": {"uid": 248, "address": "Tres Cruces - Jose Maria Mortes Lerma", "status": "OPEN", "banking": false, "bonus": false, "last_update": "2025-05-03T02:52:39Z", "slots": 20, "has_ebikes": false}}, {"id": "d6775ba2cc3e6fe135d83d0dd12a2219", "name": "187_AVDA_AUSIAS_MARCH", "latitude": 39.4479280216762, "longitude": -0.368909065084874, "timestamp": "2025-05-03T02:57:56.613943+00:00Z", "free_bikes": 9, "empty_slots": 6, "extra": {"uid": 187, "address": "\u00c1ngel Villena - Ausias March", "status": "OPEN", "banking": false, "bonus": false, "last_update": "2025-05-03T02:51:05Z", "slots": 15, "has_ebikes": false}}, {"id": "d6a612bd34571a87ff013f8188a72af1", "name": "221_AVDA_MANUEL_DE_FALLA_ESQ_CALLE_HERNANDEZ_LAZAR", "latitude": 39.4752381028348, "longitude": -0.40294418188015, "timestamp": "2025-05-03T02:57:56.613614+00:00Z", "free_bikes": 7, "empty_slots": 13, "extra": {"uid": 221, "address": "Manuel de Falla - Hern\u00e1ndez L\u00e1zaro", "status": "OPEN", "banking": false, "bonus": false, "last_update": "2025-05-03T02:55:07Z", "slots": 20, "has_ebikes": false}}, {"id": "d723490f4de117c440d86977b5fb86dd", "name": "119_C/ JAIME ROIG", "latitude": 39.482488140046, "longitude": -0.363317066947724, "timestamp": "2025-05-03T02:57:56.613645+00:00Z", "free_bikes": 11, "empty_slots": 8, "extra": {"uid": 119, "address": "Jaime Roig - Bachiller", "status": "OPEN", "banking": false, "bonus": false, "last_update": "2025-05-03T02:53:07Z", "slots": 20, "has_ebikes": false}}, {"id": "d75fb73452743ce890bcab5dc6d4874f", "name": "168_AVDA. MALVARROSA", "latitude": 39.4768391324101, "longitude": -0.327977958049006, "timestamp": "2025-05-03T02:57:56.613774+00:00Z", "free_bikes": 12, "empty_slots": 3, "extra": {"uid": 168, "address": "Malvarrosa - R\u00edo Tajo", "status": "OPEN", "banking": false, "bonus": false, "last_update": "2025-05-03T02:52:03Z", "slots": 15, "has_ebikes": false}}, {"id": "d81b770ca68f6b6b2c92c8e18fa7a914", "name": "008_PLAZA_DE_LA_REINA_ESQUINA_CALLE_DEL_MAR", "latitude": 39.473849, "longitude": -0.375389, "timestamp": "2025-05-03T02:57:56.613512+00:00Z", "free_bikes": 0, "empty_slots": 9, "extra": {"uid": 8, "address": "Plaza de la Reina - Mar", "status": "OPEN", "banking": false, "bonus": false, "last_update": "2025-05-03T02:52:05Z", "slots": 9, "has_ebikes": false}}, {"id": "d8e50ef2859c92541322975112b9777b", "name": "232_SAN_VICENTE_DE_PAUL_SANTIAGO_RUSI\u00d1OL", "latitude": 39.4946121801023, "longitude": -0.365844081019678, "timestamp": "2025-05-03T02:57:56.613448+00:00Z", "free_bikes": 8, "empty_slots": 7, "extra": {"uid": 232, "address": "San Vicente Paul - Santiago Rusi\u00f1ol", "status": "OPEN", "banking": false, "bonus": false, "last_update": "2025-05-03T02:56:15Z", "slots": 15, "has_ebikes": false}}, {"id": "d92f65dad4707e5cd85e88b283c9cc38", "name": "059_AVDA. DE BALEARES I", "latitude": 39.4630560773318, "longitude": -0.354640030484729, "timestamp": "2025-05-03T02:57:56.614060+00:00Z", "free_bikes": 6, "empty_slots": 8, "extra": {"uid": 59, "address": "Baleares - R\u00edo Escalona", "status": "OPEN", "banking": false, "bonus": false, "last_update": "2025-05-03T02:52:59Z", "slots": 15, "has_ebikes": false}}, {"id": "d9cdb636c2c4f6aa845b616a609ef326", "name": "013_PZA. ALFONSO MAGNANIMO_CON_CALLE_LA_NAVE", "latitude": 39.4720301023169, "longitude": -0.370965084251257, "timestamp": "2025-05-03T02:57:56.614010+00:00Z", "free_bikes": 8, "empty_slots": 15, "extra": {"uid": 13, "address": "Alfonso el Magn\u00e1nimo - Nave", "status": "OPEN", "banking": false, "bonus": false, "last_update": "2025-05-03T02:48:10Z", "slots": 24, "has_ebikes": false}}, {"id": "dba0c16a5e8c3256c68c588b84b6ec73", "name": "35_C/ DUQUE DE CALABRIA", "latitude": 39.4637170755328, "longitude": -0.367085068143159, "timestamp": "2025-05-03T02:57:56.614832+00:00Z", "free_bikes": 4, "empty_slots": 9, "extra": {"uid": 35, "address": "Regne de Valencia - Almirante Cadarso", "status": "OPEN", "banking": false, "bonus": false, "last_update": "2025-05-03T02:49:06Z", "slots": 20, "has_ebikes": false}}, {"id": "dbf4c86311a0d8677abf32b485122a4e", "name": "011_PZA_AYTO_CON_CALLE_COTANDA", "latitude": 39.471154097455, "longitude": -0.376875101498657, "timestamp": "2025-05-03T02:57:56.614492+00:00Z", "free_bikes": 1, "empty_slots": 26, "extra": {"uid": 11, "address": "Plaza Ayuntamiento - Cotanda", "status": "OPEN", "banking": false, "bonus": false, "last_update": "2025-05-03T02:55:48Z", "slots": 27, "has_ebikes": false}}, {"id": "dd9eb399d1fc7f07265e7abecc50352c", "name": "104_ALBALAT DELS TARONGERS", "latitude": 39.4783541312533, "longitude": -0.34736601693197, "timestamp": "2025-05-03T02:57:56.613827+00:00Z", "free_bikes": 19, "empty_slots": 0, "extra": {"uid": 104, "address": "Albalat dels Tarongers - Paseo Facultades", "status": "OPEN", "banking": false, "bonus": false, "last_update": "2025-05-03T02:48:02Z", "slots": 20, "has_ebikes": false}}, {"id": "de2aec76ec087436d1873369c48bef5a", "name": "196_AVDA_GASPAR_AGUILAR", "latitude": 39.4595430546337, "longitude": -0.388157129082296, "timestamp": "2025-05-03T02:57:56.613759+00:00Z", "free_bikes": 11, "empty_slots": 4, "extra": {"uid": 196, "address": "Jer\u00f3nimo Mu\u00f1oz - Gaspar Aguilar", "status": "OPEN", "banking": false, "bonus": false, "last_update": "2025-05-03T02:50:00Z", "slots": 15, "has_ebikes": false}}, {"id": "dff66f57217c1d26aa02a992f213a56b", "name": "198_CALLE_FONTANARS_DELS_AFORINS", "latitude": 39.4608480566945, "longitude": -0.3954071515343, "timestamp": "2025-05-03T02:57:56.613203+00:00Z", "free_bikes": 6, "empty_slots": 14, "extra": {"uid": 198, "address": "Fontanars dels Aforins - Vall d'Uix\u00f3", "status": "OPEN", "banking": false, "bonus": false, "last_update": "2025-05-03T02:51:59Z", "slots": 20, "has_ebikes": false}}, {"id": "e07bb11a39aa75ab731bd758db837197", "name": "266_PLANA_ALTA_ESQ_AVDA_MAESTRO_RODRIGO", "latitude": 39.4902571523898, "longitude": -0.406462200475517, "timestamp": "2025-05-03T02:57:56.614090+00:00Z", "free_bikes": 7, "empty_slots": 11, "extra": {"uid": 266, "address": "Canal de Navarr\u00e9s - Maestro Rodrigo", "status": "OPEN", "banking": false, "bonus": false, "last_update": "2025-05-03T02:50:01Z", "slots": 18, "has_ebikes": false}},