{"id": "vel-in", "name": "V\u00e9l'in", "location": {"latitude": 50.95, "longitude": 1.85, "city": "Calais", "country": "FR"}, "href": "/v2/networks/vel-in", "company": ["Veolia"], "system": "Veloway", "stations": [{"id": "02a39978078694f5fedf389e32d25717", "name": "39 :  Gare des Fontinettes", "latitude": 50.9406381545956, "longitude": 1.8501793127507, "timestamp": "2025-05-03T03:15:55.581427+00:00Z", "free_bikes": 0, "empty_slots": 9, "extra": {"uid": 44, "slots": 9, "slots_available": 9, "online": true}}, {"id": "05d4fbd7ed8b0b2e36a72f19c1cd2e7b", "name": "27 : Montr\u00e9al", "latitude": 50.9327339880248, "longitude": 1.85615309189984, "timestamp": "2025-05-03T03:15:55.581330+00:00Z", "free_bikes": 2, "empty_slots": 10, "extra": {"uid": 31, "slots": 12, "slots_available": 12, "online": true}}, {"id": "06eff4906d057c10b050e749432ef7b2", "name": "73 : Mairie de Saint-Tricat", "latitude": 50.8934422561243, "longitude": 1.83070108158598, "timestamp": "2025-05-03T03:15:55.581870+00:00Z", "free_bikes": 4, "empty_slots": 2, "extra": {"uid": 81, "slots": 6, "slots_available": 6, "online": true}}, {"id": "09b89de4fdd8f6a2cdb6af5c328220b5", "name": "75 : Eglise de Sangatte", "latitude": 50.944325887152, "longitude": 1.74683710382423, "timestamp": "2025-05-03T03:15:55.581897+00:00Z", "free_bikes": 0, "empty_slots": 0, "extra": {"uid": 84, "slots": 0, "slots_available": 0, "online": false}}, {"id": "0a61f542e892f6bddaf6edc3046224ac", "name": "08 : Milieu de Digue", "latitude": 50.9628729738197, "longitude": 1.83556111129514, "timestamp": "2025-05-03T03:15:55.581166+00:00Z", "free_bikes": 7, "empty_slots": 11, "extra": {"uid": 8, "slots": 18, "slots_available": 18, "online": true}}, {"id": "0e42b7f861797026dd1826b85bd24b70", "name": "77 : Le Fort Vert", "latitude": 50.9679260811066, "longitude": 1.93758464394891, "timestamp": "2025-05-03T03:15:55.581905+00:00Z", "free_bikes": 3, "empty_slots": 3, "extra": {"uid": 85, "slots": 6, "slots_available": 6, "online": true}}, {"id": "17a3bc026ae6d1a8437ed7f0d225ed4e", "name": "30 : Coulogne - Eglise", "latitude": 50.9254899962998, "longitude": 1.8871782035751, "timestamp": "2025-05-03T03:15:55.581356+00:00Z", "free_bikes": 7, "empty_slots": 5, "extra": {"uid": 34, "slots": 12, "slots_available": 12, "online": true}}, {"id": "18c2b72c61bbc73033d984cbd4fc76b7", "name": "35 : H\u00f4pital", "latitude": 50.93973702973, "longitude": 1.89368051026247, "timestamp": "2025-05-03T03:15:55.581395+00:00Z", "free_bikes": 3, "empty_slots": 3, "extra": {"uid": 39, "slots": 9, "slots_available": 6, "online": true}}, {"id": "18ce6a4e1fc97e03ca8b46c45dac7a4f", "name": "47 : D\u00e9troit", "latitude": 50.9391749469231, "longitude": 1.8746679497533, "timestamp": "2025-05-03T03:15:55.581518+00:00Z", "free_bikes": 4, "empty_slots": 14, "extra": {"uid": 51, "slots": 18, "slots_available": 18, "online": true}}, {"id": "1b3b9b04c56908269bf0f93df20f1345", "name": "15 : Universit\u00e9", "latitude": 50.9523598376241, "longitude": 1.87945222854614, "timestamp": "2025-05-03T03:15:55.581231+00:00Z", "free_bikes": 2, "empty_slots": 22, "extra": {"uid": 15, "slots": 24, "slots_available": 24, "online": true}}, {"id": "2035df637be1e0881ccd43656c5067d6", "name": "07 : Pluviose", "latitude": 50.9652289200567, "longitude": 1.84306496288627, "timestamp": "2025-05-03T03:15:55.581158+00:00Z", "free_bikes": 5, "empty_slots": 10, "extra": {"uid": 7, "slots": 15, "slots_available": 15, "online": true}}, {"id": "20aa0ab6b37a97250d9282779e5045be", "name": "60 : Mairie Les Attaques", "latitude": 50.9085056855888, "longitude": 1.93391487580794, "timestamp": "2025-05-03T03:15:55.581749+00:00Z", "free_bikes": 3, "empty_slots": 3, "extra": {"uid": 68, "slots": 9, "slots_available": 6, "online": true}}, {"id": "23bd7204223c67583fcd12b466b0690b", "name": "65 : Valmy", "latitude": 50.9465696292165, "longitude": 1.86175279102016, "timestamp": "2025-05-03T03:15:55.581797+00:00Z", "free_bikes": 0, "empty_slots": 9, "extra": {"uid": 73, "slots": 9, "slots_available": 9, "online": true}}, {"id": "2d56c372c89c927441fa9d51fd21ec95", "name": "24 : Nation", "latitude": 50.945401921718, "longitude": 1.86732449244687, "timestamp": "2025-05-03T03:15:55.581307+00:00Z", "free_bikes": 12, "empty_slots": 3, "extra": {"uid": 28, "slots": 15, "slots_available": 15, "online": true}}, {"id": "321498dfcf02798cae294f4d976c59de", "name": "80 : All\u00e9e des Lys", "latitude": 50.9121141594658, "longitude": 1.87926064722504, "timestamp": "2025-05-03T03:15:55.581929+00:00Z", "free_bikes": 3, "empty_slots": 3, "extra": {"uid": 88, "slots": 6, "slots_available": 6, "online": true}}, {"id": "33042c43fdbe63a974fa474935200f83", "name": "78 : Forum Gambetta", "latitude": 50.9472279899091, "longitude": 1.8506142331101, "timestamp": "2025-05-03T03:15:55.581913+00:00Z", "free_bikes": 0, "empty_slots": 0, "extra": {"uid": 86, "slots": 0, "slots_available": 0, "online": false}}, {"id": "37da2ded45352e7de81d29a301407127", "name": "28 : Coquelles - Charles de Gaulle", "latitude": 50.9348139969917, "longitude": 1.79933988165089, "timestamp": "2025-05-03T03:15:55.581339+00:00Z", "free_bikes": 5, "empty_slots": 4, "extra": {"uid": 32, "slots": 9, "slots_available": 9, "online": true}}, {"id": "39747158053ece35bc6f02acb59dacff", "name": "52 : 4 Vents", "latitude": 50.8653360130927, "longitude": 1.869189370252, "timestamp": "2025-05-03T03:15:55.581559+00:00Z", "free_bikes": 3, "empty_slots": 9, "extra": {"uid": 60, "slots": 12, "slots_available": 12, "online": true}}, {"id": "3a2b27dc831bd9b3c51816329fbc5a0b", "name": "57 : Sainte Marguerite", "latitude": 50.9084494422403, "longitude": 1.82474803794179, "timestamp": "2025-05-03T03:15:55.581598+00:00Z", "free_bikes": 2, "empty_slots": 4, "extra": {"uid": 65, "slots": 6, "slots_available": 6, "online": true}}, {"id": "40432af8317bdd9650dd6d5d7aa324c0", "name": "68 : Saint Pierre Halte", "latitude": 50.939290040966, "longitude": 1.87970949681654, "timestamp": "2025-05-03T03:15:55.581828+00:00Z", "free_bikes": 8, "empty_slots": 1, "extra": {"uid": 76, "slots": 9, "slots_available": 9, "online": true}}, {"id": "40fcbf0cc85b5e9984038749c98f5fae", "name": "46 : L\u00e9onard De Vinci", "latitude": 50.9543781154526, "longitude": 1.8910816828826, "timestamp": "2025-05-03T03:15:55.581490+00:00Z", "free_bikes": 2, "empty_slots": 13, "extra": {"uid": 49, "slots": 15, "slots_available": 15, "online": true}}, {"id": "4160a89f608044e674d8bfeb1040e490", "name": "40 : Camping de Calais", "latitude": 50.9591633311727, "longitude": 1.8324513360858, "timestamp": "2025-05-03T03:15:55.581439+00:00Z", "free_bikes": 5, "empty_slots": 4, "extra": {"uid": 45, "slots": 9, "slots_available": 9, "online": true}}, {"id": "52311c660c34a0126f10cd2666240423", "name": "29 : Sangatte - Mairie", "latitude": 50.9471729601747, "longitude": 1.7579708309097, "timestamp": "2025-05-03T03:15:55.581348+00:00Z", "free_bikes": 5, "empty_slots": 4, "extra": {"uid": 33, "slots": 9, "slots_available": 9, "online": true}}, {"id": "5a2567d019a85ca5828f8f49ca6da5bf", "name": "42 : Terminal Transmanche", "latitude": 50.9665196007155, "longitude": 1.86257956495888, "timestamp": "2025-05-03T03:15:55.581464+00:00Z", "free_bikes": 2, "empty_slots": 4, "extra": {"uid": 47, "slots": 6, "slots_available": 6, "online": true}}, {"id": "60f4d6754bff5e99a20c71e6b6e168a8", "name": "31 : Coulogne - Marronniers", "latitude": 50.9265328935458, "longitude": 1.86913984827697, "timestamp": "2025-05-03T03:15:55.581363+00:00Z", "free_bikes": 7, "empty_slots": 2, "extra": {"uid": 35, "slots": 9, "slots_available": 9, "online": true}}, {"id": "633d0d8716c3c593fb83d2b1300614f4", "name": "50 : Pont \u00e0 Vaches", "latitude": 50.8836023507373, "longitude": 1.90332148587345, "timestamp": "2025-05-03T03:15:55.581542+00:00Z", "free_bikes": 3, "empty_slots": 6, "extra": {"uid": 58, "slots": 9, "slots_available": 9, "online": true}}, {"id": "6442c2e38ff5ce956bb3334f733068d2", "name": "71 : Bitche", "latitude": 50.9598586856503, "longitude": 1.87439230139014, "timestamp": "2025-05-03T03:15:55.581854+00:00Z", "free_bikes": 5, "empty_slots": 4, "extra": {"uid": 79, "slots": 9, "slots_available": 9, "online": true}}, {"id": "68940ed4c130db4341c5ed855d01277f", "name": "54 : Terminal Ferry", "latitude": 50.974572973325, "longitude": 1.87844448708857, "timestamp": "2025-05-03T03:15:55.581575+00:00Z", "free_bikes": 2, "empty_slots": 4, "extra": {"uid": 62, "slots": 6, "slots_available": 6, "online": true}}, {"id": "690228976cdad4087c2a3efefb5347ca", "name": "20 : IUT", "latitude": 50.9505437554394, "longitude": 1.88234746456146, "timestamp": "2025-05-03T03:15:55.581276+00:00Z", "free_bikes": 10, "empty_slots": 5, "extra": {"uid": 23, "slots": 15, "slots_available": 15, "online": true}}, {"id": "797b6dc1f63b520a20c7eae79687f854", "name": "74 : Rue du Marais", "latitude": 50.9022339858169, "longitude": 1.84993764548306, "timestamp": "2025-05-03T03:15:55.581878+00:00Z", "free_bikes": 2, "empty_slots": 4, "extra": {"uid": 82, "slots": 6, "slots_available": 6, "online": true}}, {"id": "79ae2c701424c32e3ba0eeb188ee3130", "name": "51 : Jean Bosco", "latitude": 50.8701098699214, "longitude": 1.86920730972497, "timestamp": "2025-05-03T03:15:55.581552+00:00Z", "free_bikes": 2, "empty_slots": 10, "extra": {"uid": 59, "slots": 12, "slots_available": 12, "online": true}}, {"id": "7c9317ae1bbbcea621315b9b320b5b96", "name": "37 : Marcel Doret", "latitude": 50.9545407549204, "longitude": 1.91075038164854, "timestamp": "2025-05-03T03:15:55.581412+00:00Z", "free_bikes": 0, "empty_slots": 6, "extra": {"uid": 41, "slots": 6, "slots_available": 6, "online": true}}, {"id": "83687ac258034637ad3db854ea69c8a4", "name": "49 : Banc Valois", "latitude": 50.8910715553636, "longitude": 1.88117527116469, "timestamp": "2025-05-03T03:15:55.581533+00:00Z", "free_bikes": 3, "empty_slots": 6, "extra": {"uid": 57, "slots": 9, "slots_available": 9, "online": true}}, {"id": "874c60a9b25e34467bc5b18055625bbe", "name": "79 : All\u00e9e des Bleuets", "latitude": 50.9176201531889, "longitude": 1.87576725560378, "timestamp": "2025-05-03T03:15:55.581920+00:00Z", "free_bikes": 4, "empty_slots": 2, "extra": {"uid": 87, "slots": 6, "slots_available": 6, "online": true}}, {"id": "88c9154b35a7a6478db37284035f90ba", "name": "72 : Les Oyats", "latitude": 50.9614891625709, "longitude": 1.87812213832021, "timestamp": "2025-05-03T03:15:55.581862+00:00Z", "free_bikes": 3, "empty_slots": 3, "extra": {"uid": 80, "slots": 6, "slots_available": 6, "online": true}}, {"id": "8c1c6a3d31eba483cdaec9b7a89834cd", "name": "13 : P\u00f4le administratif", "latitude": 50.9522424870569, "longitude": 1.85908508300781, "timestamp": "2025-05-03T03:15:55.581212+00:00Z", "free_bikes": 1, "empty_slots": 8, "extra": {"uid": 13, "slots": 9, "slots_available": 9, "online": true}}, {"id": "8e28c3784940d2ad4cd63037aa95c521", "name": "41 : Quai de la Loire", "latitude": 50.9630246477014, "longitude": 1.86262754766244, "timestamp": "2025-05-03T03:15:55.581451+00:00Z", "free_bikes": 3, "empty_slots": 6, "extra": {"uid": 46, "slots": 9, "slots_available": 9, "online": true}}, {"id": "918e267f5a72e1213e089f3b2a964950", "name": "12 : CC La Fran\u00e7aise", "latitude": 50.9433964178014, "longitude": 1.80812895298004, "timestamp": "2025-05-03T03:15:55.581203+00:00Z", "free_bikes": 3, "empty_slots": 9, "extra": {"uid": 12, "slots": 12, "slots_available": 12, "online": true}}, {"id": "925ccfc01d2639f9d3c83e841dc291f2", "name": "23 : Condorcet", "latitude": 50.9496350646981, "longitude": 1.86348625134656, "timestamp": "2025-05-03T03:15:55.581299+00:00Z", "free_bikes": 1, "empty_slots": 14, "extra": {"uid": 27, "slots": 15, "slots_available": 15, "online": true}}, {"id": "932ca22b0411ba3d293ea1549f14edad", "name": "59 : Briqueterie", "latitude": 50.9036220299626, "longitude": 1.81601668274417, "timestamp": "2025-05-03T03:15:55.581613+00:00Z", "free_bikes": 3, "empty_slots": 6, "extra": {"uid": 67, "slots": 9, "slots_available": 9, "online": true}}, {"id": "96988b717871cb59046af9f0ee8df14b", "name": "22 : Diderot", "latitude": 50.9556917599038, "longitude": 1.86437272142598, "timestamp": "2025-05-03T03:15:55.581292+00:00Z", "free_bikes": 11, "empty_slots": 4, "extra": {"uid": 26, "slots": 15, "slots_available": 15, "online": true}}, {"id": "9723c2436cfc9652882bf1b7c7e182e7", "name": "04 : Gare SNCF", "latitude": 50.9533029460493, "longitude": 1.85127753019333, "timestamp": "2025-05-03T03:15:55.581130+00:00Z", "free_bikes": 1, "empty_slots": 26, "extra": {"uid": 4, "slots": 27, "slots_available": 27, "online": true}}, {"id": "990fb474b773299604dd919747990f14", "name": "43 : Gavet", "latitude": 50.9608768967839, "longitude": 1.84787910397336, "timestamp": "2025-05-03T03:15:55.581477+00:00Z", "free_bikes": 1, "empty_slots": 8, "extra": {"uid": 48, "slots": 9, "slots_available": 9, "online": true}}, {"id": "9d69090c97b0e7f48507d1b8e0aea385", "name": "45 : N. Niemen", "latitude": 50.9542196998674, "longitude": 1.90216401284113, "timestamp": "2025-05-03T03:15:55.581506+00:00Z", "free_bikes": 7, "empty_slots": 2, "extra": {"uid": 50, "slots": 9, "slots_available": 9, "online": true}}, {"id": "9ec39c5e024385d359025c6192f324e6", "name": "66 : M\u00e9diath\u00e8que", "latitude": 50.9496993616027, "longitude": 1.85696949511488, "timestamp": "2025-05-03T03:15:55.581806+00:00Z", "free_bikes": 2, "empty_slots": 7, "extra": {"uid": 74, "slots": 9, "slots_available": 9, "online": true}}, {"id": "9f1b2e94cbc6ea6cdb20e548ea28f31a", "name": "05 : Richelieu", "latitude": 50.9550294770367, "longitude": 1.8502995967865, "timestamp": "2025-05-03T03:15:55.581140+00:00Z", "free_bikes": 0, "empty_slots": 15, "extra": {"uid": 5, "slots": 15, "slots_available": 15, "online": true}}, {"id": "9f1be29948473c62c10ea9009120f071", "name": "10 : Camping de Bl\u00e9riot", "latitude": 50.9569432001999, "longitude": 1.81282911347807, "timestamp": "2025-05-03T03:15:55.581184+00:00Z", "free_bikes": 11, "empty_slots": 1, "extra": {"uid": 10, "slots": 12, "slots_available": 12, "online": true}}, {"id": "a45e64e2053c178b7116aa3f2454150a", "name": "11 : Base de voile", "latitude": 50.9551080489436, "longitude": 1.7996609210968, "timestamp": "2025-05-03T03:15:55.581194+00:00Z", "free_bikes": 3, "empty_slots": 6, "extra": {"uid": 11, "slots": 12, "slots_available": 9, "online": true}}, {"id": "a5e0f817b0e2a8bf9310e294d8a71e15", "name": "19 : Matelote", "latitude": 50.9623985290527, "longitude": 1.85080003738403, "timestamp": "2025-05-03T03:15:55.581268+00:00Z", "free_bikes": 5, "empty_slots": 7, "extra": {"uid": 22, "slots": 12, "slots_available": 12, "online": true}}, {"id": "a68d9f361bec6c1ff841c8b2ffeffaa3", "name": "56 : Mairie de Nielles", "latitude": 50.9078001672588, "longitude": 1.83734983554901, "timestamp": "2025-05-03T03:15:55.581590+00:00Z", "free_bikes": 3, "empty_slots": 3, "extra": {"uid": 64, "slots": 6, "slots_available": 6, "online": true}}, {"id": "a75dfb30a2a5e87b7ad50863923461ce", "name": "02 : Th\u00e9atre", "latitude": 50.9473774202641, "longitude": 1.85376906394959, "timestamp": "2025-05-03T03:15:55.581100+00:00Z", "free_bikes": 2, "empty_slots": 19, "extra": {"uid": 2, "slots": 21, "slots_available": 21, "online": true}}, {"id": "b07e75eba7cdf1376888cba4fcf2b2a0", "name": "16 : Lyc\u00e9e Berthelot", "latitude": 50.9466848356169, "longitude": 1.84154238445686, "timestamp": "2025-05-03T03:15:55.581241+00:00Z", "free_bikes": 8, "empty_slots": 13, "extra": {"uid": 16, "slots": 24, "slots_available": 21, "online": true}}, {"id": "be9891e8692d6f04ad5f69d414dbf440", "name": "70 : Greuze", "latitude": 50.9493475921992, "longitude": 1.89033738040405, "timestamp": "2025-05-03T03:15:55.581846+00:00Z", "free_bikes": 8, "empty_slots": 4, "extra": {"uid": 78, "slots": 12, "slots_available": 12, "online": true}}, {"id": "c0be5956bd35dc7d3078726233cd6482", "name": "58 : Eglise de Frethun", "latitude": 50.9171379802201, "longitude": 1.82425953982947, "timestamp": "2025-05-03T03:15:55.581605+00:00Z", "free_bikes": 3, "empty_slots": 6, "extra": {"uid": 66, "slots": 9, "slots_available": 9, "online": true}}, {"id": "c1f2ebdde01bc98bda500f3cc58f8e6d", "name": "34 : Marck - Schweitzer", "latitude": 50.9473503982859, "longitude": 1.93305470656583, "timestamp": "2025-05-03T03:15:55.581387+00:00Z", "free_bikes": 9, "empty_slots": 0, "extra": {"uid": 38, "slots": 9, "slots_available": 9, "online": true}}, {"id": "c6e13f41b221119ef0cbf991d0524b7e", "name": "36 : Conservatoire", "latitude": 50.9493393563634, "longitude": 1.84845882627997, "timestamp": "2025-05-03T03:15:55.581405+00:00Z", "free_bikes": 4, "empty_slots": 8, "extra": {"uid": 40, "slots": 12, "slots_available": 12, "online": true}}, {"id": "cb33dacad30230c56f961d22df427c99", "name": "09 : Eglise de Bl\u00e9riot", "latitude": 50.9583526562474, "longitude": 1.825364112854, "timestamp": "2025-05-03T03:15:55.581174+00:00Z", "free_bikes": 8, "empty_slots": 10, "extra": {"uid": 9, "slots": 18, "slots_available": 18, "online": true}}, {"id": "cbec7babdfe3168070e9dca39a336d65", "name": "62 : Bergenias", "latitude": 50.9095304349268, "longitude": 1.877007302389, "timestamp": "2025-05-03T03:15:55.581787+00:00Z", "free_bikes": 0, "empty_slots": 9, "extra": {"uid": 70, "slots": 9, "slots_available": 9, "online": true}}, {"id": "d0ba833839344b0ef67ebdbe7335df1c", "name": "32 : Marck - Mairie", "latitude": 50.9493547867323, "longitude": 1.95565135132266, "timestamp": "2025-05-03T03:15:55.581371+00:00Z", "free_bikes": 0, "empty_slots": 6, "extra": {"uid": 36, "slots": 6, "slots_available": 6, "online": true}}, {"id": "d8361e34a92bcfbef112a9de53b10aec", "name": "25 : Copernic", "latitude": 50.9393852948121, "longitude": 1.86540134858319, "timestamp": "2025-05-03T03:15:55.581315+00:00Z", "free_bikes": 9, "empty_slots": 6, "extra": {"uid": 29, "slots": 15, "slots_available": 15, "online": true}}, {"id": "db957c09b32adefad9c19798a6818962", "name": "06 : Place d'Armes", "latitude": 50.9588776267415, "longitude": 1.84921402937107, "timestamp": "2025-05-03T03:15:55.581149+00:00Z", "free_bikes": 2, "empty_slots": 13, "extra": {"uid": 6, "slots": 15, "slots_available": 15, "online": true}}, {"id": "dd9b1bd21da1a49cf19057fc544dca6b", "name": "69 : Vauban", "latitude": 50.947858435263, "longitude": 1.83431249953615, "timestamp": "2025-05-03T03:15:55.581837+00:00Z", "free_bikes": 0, "empty_slots": 0, "extra": {"uid": 77, "slots": 0, "slots_available": 0, "online": false}}, {"id": "df38f43581693c631beb8e5153c6b3b9", "name": "14 : Cit\u00e9 de la dentelle", "latitude": 50.9508639966294, "longitude": 1.85983991622925, "timestamp": "2025-05-03T03:15:55.581222+00:00Z", "free_bikes": 1, "empty_slots": 8, "extra": {"uid": 14, "slots": 9, "slots_available": 9, "online": true}}, {"id": "dfe3a22af5e3a29abc2f30e67e8e7bdb", "name": "03 : H\u00f4tel de ville", "latitude": 50.9520355054771, "longitude": 1.8536337018013, "timestamp": "2025-05-03T03:15:55.581117+00:00Z", "free_bikes": 1, "empty_slots": 14, "extra": {"uid": 3, "slots": 15, "slots_available": 15, "online": true}}, {"id": "e24868e1ee129b1b489074335a702fd1", "name": "61 : Chemin du Contre Halage", "latitude": 50.8946263853976, "longitude": 1.96506693229015, "timestamp": "2025-05-03T03:15:55.581774+00:00Z", "free_bikes": 2, "empty_slots": 7, "extra": {"uid": 69, "slots": 9, "slots_available": 9, "online": true}}, {"id": "e2a6cce5d2fd8bef1dc2bc286a4b92ca", "name": "18 : Piscine patinoire Ic\u00e9o", "latitude": 50.9567044570158, "longitude": 1.89690744876862, "timestamp": "2025-05-03T03:15:55.581258+00:00Z", "free_bikes": 1, "empty_slots": 14, "extra": {"uid": 18, "slots": 15, "slots_available": 15, "online": true}}, {"id": "e4c1694919dcecf427c03fb34d2d4c05", "name": "17 : Mogador", "latitude": 50.9452402344141, "longitude": 1.83069121837616, "timestamp": "2025-05-03T03:15:55.581250+00:00Z", "free_bikes": 5, "empty_slots": 7, "extra": {"uid": 17, "slots": 12, "slots_available": 12, "online": true}}, {"id": "e79f429f9a94ed8f405612995d30be89", "name": "67 : Jean Mac\u00e9", "latitude": 50.9571570580386, "longitude": 1.85349113390094, "timestamp": "2025-05-03T03:15:55.581818+00:00Z", "free_bikes": 3, "empty_slots": 6, "extra": {"uid": 75, "slots": 9, "slots_available": 9, "online": true}}, {"id": "eaae0a80aaa0b0d5d212fb0d7dd17613", "name": "33 : Marck - Stade", "latitude": 50.9531683032271, "longitude": 1.9350127191467, "timestamp": "2025-05-03T03:15:55.581379+00:00Z", "free_bikes": 3, "empty_slots": 9, "extra": {"uid": 37, "slots": 12, "slots_available": 12, "online": true}}, {"id": "ec410409bb07006933bd5c30ce3da8ee", "name": "26 : Joffre", "latitude": 50.9409605094533, "longitude": 1.84435941886136, "timestamp": "2025-05-03T03:15:55.581323+00:00Z", "free_bikes": 0, "empty_slots": 12, "extra": {"uid": 30, "slots": 12, "slots_available": 12, "online": true}}, {"id": "ecdef2c2da6582d4219a55dedcaa667f", "name": "55 : Eglise des Hemmes", "latitude": 50.9824278011226, "longitude": 1.96719002752833, "timestamp": "2025-05-03T03:15:55.581582+00:00Z", "free_bikes": 0, "empty_slots": 0, "extra": {"uid": 63, "slots": 6, "slots_available": 0, "online": true}}, {"id": "eedad53a6aa381806466d4365f2b711e", "name": "38 : Dryades", "latitude": 50.9555460692196, "longitude": 1.92862474825233, "timestamp": "2025-05-03T03:15:55.581420+00:00Z", "free_bikes": 3, "empty_slots": 6, "extra": {"uid": 42, "slots": 9, "slots_available": 9, "online": true}}, {"id": "f00e3a2f74330773055b1f175498f5a5", "name": "53 : Batelage", "latitude": 50.8726165096897, "longitude": 1.86981648511812, "timestamp": "2025-05-03T03:15:55.581567+00:00Z", "free_bikes": 2, "empty_slots": 10, "extra": {"uid": 61, "slots": 12, "slots_available": 12, "online": true}}, {"id": "f8f05a96b2a991fa46d55077546aa644", "name": "21 : Coubertin", "latitude": 50.9559561784671, "longitude": 1.83498778056332, "timestamp": "2025-05-03T03:15:55.581284+00:00Z", "free_bikes": 3, "empty_slots": 18, "extra": {"uid": 25, "slots": 24, "slots_available": 21, "online": true}}, {"id": "fcf7125fcd8cf0d3781d724b7ae68579", "name": "76 : Coll\u00e8ge de Bl\u00e9riot", "latitude": 50.9563441771291, "longitude": 1.81604004343008, "timestamp": "2025-05-03T03:15:55.581886+00:00Z", "free_bikes": 3, "empty_slots": 6, "extra": {"uid": 83, "slots": 9, "slots_available": 9, "online": true}}, {"id": "fedaa58e592a7e4156cf9f89e3f44560", "name": "01 : Lafayette", "latitude": 50.9466094970703, "longitude": 1.85830295085907, "timestamp": "2025-05-03T03:15:55.581066+00:00Z", "free_bikes": 8, "empty_slots": 7, "extra": {"uid": 1, "slots": 15, "slots_available": 15, "online": true}}]}