{"id": "velomodalis", "name": "V\u00e9lo Modalis", "location": {"latitude": 45.7, "longitude": -0.33, "city": "Ligne TER Royan - Angoul\u00eame", "country": "FR"}, "href": "/v2/networks/velomodalis", "company": ["Fifteen SAS"], "system": "Fifteen", "stations": [{"id": "1734b32c59cfed5e84f03006096e15f1", "name": "Saujon Richelieu", "latitude": 45.6761, "longitude": -0.9252, "timestamp": "2025-05-03T03:15:47.398048+00:00Z", "free_bikes": 2, "empty_slots": 0, "extra": {"uid": "cot306vsl9ld6qa0r8v0", "online": true}}, {"id": "1ed39cd842a467f5623a5ddd3ae04a2d", "name": "Royan March\u00e9", "latitude": 45.62793, "longitude": -1.03076, "timestamp": "2025-05-03T03:15:47.398014+00:00Z", "free_bikes": 1, "empty_slots": 0, "extra": {"uid": "ciaq8nok59geca2m88pg", "online": true}}, {"id": "260a85577bf47a1e7266d3ff5bbc91cc", "name": "Angoul\u00eame Hotel de Ville", "latitude": 45.64889, "longitude": 0.15585, "timestamp": "2025-05-03T03:15:47.397982+00:00Z", "free_bikes": 6, "empty_slots": 0, "extra": {"uid": "ciaq8e0k59geca2m8180", "online": true}}, {"id": "2869ae0e550774c4e700bdea290c6163", "name": "Gare SNCF Cognac", "latitude": 45.684779, "longitude": -0.325847, "timestamp": "2025-05-03T03:15:47.398027+00:00Z", "free_bikes": 17, "empty_slots": 0, "extra": {"uid": "ciaq8qgk59geca2m8am0", "online": true}}, {"id": "3715c22c7a16afcfc844c4fbc8aa7537", "name": "Angoul\u00eame Mulac", "latitude": 45.65716, "longitude": 0.14817, "timestamp": "2025-05-03T03:15:47.397986+00:00Z", "free_bikes": 4, "empty_slots": 0, "extra": {"uid": "ciaq8eok59geca2m828g", "online": true}}, {"id": "39f1a5e3cf95a8c6ed8f11ab83d23511", "name": "Cognac Tour Saint-Jacques", "latitude": 45.69871, "longitude": -0.32985, "timestamp": "2025-05-03T03:15:47.398032+00:00Z", "free_bikes": 8, "empty_slots": 0, "extra": {"uid": "ciaq8rgk59geca2m8b9g", "online": true}}, {"id": "3b8d2647bf071436016b83c73bd0245b", "name": "Royan Lyc\u00e9e Cordouan", "latitude": 45.62146974815542, "longitude": -1.0036040564204995, "timestamp": "2025-05-03T03:15:47.398020+00:00Z", "free_bikes": 5, "empty_slots": 0, "extra": {"uid": "ciaq8p0k59geca2m89jg", "online": true}}, {"id": "3ef5676a68c77b87480b5db3f11c3a5b", "name": "Gare SNCF Saintes", "latitude": 45.7488, "longitude": -0.61822, "timestamp": "2025-05-03T03:15:47.398002+00:00Z", "free_bikes": 6, "empty_slots": 0, "extra": {"uid": "ciaq8kgk59geca2m86qg", "online": true}}, {"id": "483f49785ca2a06fd0569cfc3465658c", "name": "Cognac Le Castel", "latitude": 45.67451, "longitude": -0.31143, "timestamp": "2025-05-03T03:15:47.398034+00:00Z", "free_bikes": 3, "empty_slots": 0, "extra": {"uid": "ciaq8s0k59geca2m8bog", "online": true}}, {"id": "4864237fb904f3339951cc857faed448", "name": "Saintes H\u00f4pital ", "latitude": 45.7463641, "longitude": -0.6567352, "timestamp": "2025-05-03T03:15:47.398058+00:00Z", "free_bikes": 6, "empty_slots": 0, "extra": {"uid": "cpt8u9dhulempedcgsog", "online": true}}, {"id": "5269d72f709477c47a0ddd9a4dc88feb", "name": "Cognac Borderies", "latitude": 45.68983, "longitude": -0.35108, "timestamp": "2025-05-03T03:15:47.398029+00:00Z", "free_bikes": 3, "empty_slots": 0, "extra": {"uid": "ciaq8r0k59geca2m8b00", "online": true}}, {"id": "57eff99b20a31319f279bcfe11e706c4", "name": "Gare SNCF Angoul\u00eame", "latitude": 45.6536, "longitude": 0.16549, "timestamp": "2025-05-03T03:15:47.397974+00:00Z", "free_bikes": 10, "empty_slots": 0, "extra": {"uid": "ciaq8dgk59geca2m80g0", "online": true}}, {"id": "5e8c0b4e44f491bde5373316c0c51a79", "name": "Gare SNCF Saujon", "latitude": 45.6665, "longitude": -0.92943, "timestamp": "2025-05-03T03:15:47.398004+00:00Z", "free_bikes": 4, "empty_slots": 0, "extra": {"uid": "ciaq8lok59geca2m87hg", "online": true}}, {"id": "611026b36196d4b05cbb2e84f0341368", "name": "Saintes Auberge de Jeunesse ", "latitude": 45.7436, "longitude": -0.6256, "timestamp": "2025-05-03T03:15:47.398050+00:00Z", "free_bikes": 2, "empty_slots": 0, "extra": {"uid": "cpt825thulempedcdurg", "online": true}}, {"id": "612b92ba8be9845101ba0b57f9271fc6", "name": "Gare SNCF Jarnac", "latitude": 45.6715, "longitude": -0.17791, "timestamp": "2025-05-03T03:15:47.398025+00:00Z", "free_bikes": 3, "empty_slots": 0, "extra": {"uid": "ciaq8q0k59geca2m8a90", "online": true}}, {"id": "761fa6d7bfbf6d7014235a65504db102", "name": "Royan Port de Royan", "latitude": 45.62202, "longitude": -1.02881, "timestamp": "2025-05-03T03:15:47.398012+00:00Z", "free_bikes": 5, "empty_slots": 0, "extra": {"uid": "ciaq8n8k59geca2m88i0", "online": true}}, {"id": "7f61156236e5b42de018474d70b12299", "name": "Gare SNCF Ch\u00e2teauneuf-sur-Charente", "latitude": 45.5997, "longitude": -0.05049, "timestamp": "2025-05-03T03:15:47.398022+00:00Z", "free_bikes": 1, "empty_slots": 0, "extra": {"uid": "ciaq8pgk59geca2m89tg", "online": true}}, {"id": "807aeb99587c22eb82d69f6b37fdac27", "name": "Saintes Perat", "latitude": 45.7466, "longitude": -0.6232, "timestamp": "2025-05-03T03:15:47.398068+00:00Z", "free_bikes": 5, "empty_slots": 0, "extra": {"uid": "cpt86peqljcl46l2jiqg", "online": true}}, {"id": "82ad3b664f2bc9ba8a91f503694fdb15", "name": "Saintes Lyc\u00e9e Bellevue", "latitude": 45.7385, "longitude": -0.6427, "timestamp": "2025-05-03T03:15:47.398053+00:00Z", "free_bikes": 2, "empty_slots": 0, "extra": {"uid": "cpt8kethulempedcfqdg", "online": true}}, {"id": "8386811622a98e4fb2d8778097172d05", "name": "Cognac X'eau", "latitude": 45.68884, "longitude": -0.3071, "timestamp": "2025-05-03T03:15:47.398036+00:00Z", "free_bikes": 8, "empty_slots": 0, "extra": {"uid": "ciaq8sok59geca2m8ce0", "online": true}}, {"id": "84fb5ecfd3d9f25c876a11e4285c08c3", "name": "Cognac P\u00f4le Gambetta", "latitude": 45.69224, "longitude": -0.3286, "timestamp": "2025-05-03T03:15:47.398038+00:00Z", "free_bikes": 5, "empty_slots": 0, "extra": {"uid": "ciaq8tok59geca2m8d10", "online": true}}, {"id": "a6e9f6f93fa1a35cab7bd6d7928ecc01", "name": "Angoul\u00eame Lisa", "latitude": 45.63282, "longitude": 0.15378, "timestamp": "2025-05-03T03:15:47.397989+00:00Z", "free_bikes": 2, "empty_slots": 0, "extra": {"uid": "ciaq8f8k59geca2m82r0", "online": true}}, {"id": "a9afd225ce8e7426bbef2ad3772a8d43", "name": "Saintes Office du Tourisme", "latitude": 45.7453, "longitude": -0.6289, "timestamp": "2025-05-03T03:15:47.398071+00:00Z", "free_bikes": 2, "empty_slots": 0, "extra": {"uid": "cpt8bblhulempedceqjg", "online": true}}, {"id": "ba1a1721e7952b0372bbdb0663cc8d7c", "name": "Angoul\u00eame Jean Monnet", "latitude": 45.643, "longitude": 0.1362, "timestamp": "2025-05-03T03:15:47.397991+00:00Z", "free_bikes": 3, "empty_slots": 0, "extra": {"uid": "ciaq8fok59geca2m83cg", "online": true}}, {"id": "bc8a5e785786fd99ef8b18af03952cc6", "name": "Saintes Gare Routi\u00e8re ", "latitude": 45.745868, "longitude": -0.638352, "timestamp": "2025-05-03T03:15:47.398066+00:00Z", "free_bikes": 7, "empty_slots": 0, "extra": {"uid": "cq2iqf8kafqphbb4gbig", "online": true}}, {"id": "bf46f092d2e604b9edcb27c015508a49", "name": "Saintes Bellevue", "latitude": 45.733, "longitude": -0.6434, "timestamp": "2025-05-03T03:15:47.398056+00:00Z", "free_bikes": 6, "empty_slots": 0, "extra": {"uid": "cpt8mpeqljcl46l2lao0", "online": true}}, {"id": "c63d69d7a0adc79cf2875801e9252021", "name": "Royan Lyc\u00e9e Atlantique", "latitude": 45.63364, "longitude": -1.01811, "timestamp": "2025-05-03T03:15:47.398017+00:00Z", "free_bikes": 3, "empty_slots": 0, "extra": {"uid": "ciaq8o8k59geca2m891g", "online": true}}, {"id": "cba3da46c79447ceaa2ff5129833687c", "name": "Angoul\u00eame H\u00f4pital de Girac", "latitude": 45.6355, "longitude": 0.1239, "timestamp": "2025-05-03T03:15:47.398063+00:00Z", "free_bikes": 2, "empty_slots": 0, "extra": {"uid": "cqguuge6mt99un0n7ii0", "online": true}}, {"id": "cdb552b372e6656178cb86daa8cd4c2f", "name": "Gare de Beillant ", "latitude": 45.7008, "longitude": -0.5263, "timestamp": "2025-05-03T03:15:47.398041+00:00Z", "free_bikes": 0, "empty_slots": 0, "extra": {"uid": "cmsakk9hlohfdn1ppa6g", "online": true}}, {"id": "e1b39162918643edce5fa7b809d979dc", "name": "Saintes Lyc\u00e9e Palissy", "latitude": 45.7365, "longitude": -0.6145, "timestamp": "2025-05-03T03:15:47.398060+00:00Z", "free_bikes": 4, "empty_slots": 0, "extra": {"uid": "cpt9p9eqljcl46l2peo0", "online": true}}, {"id": "e425255f6cd58f475f38786f561cc7ca", "name": "Gare SNCF Royan", "latitude": 45.62597, "longitude": -1.01802, "timestamp": "2025-05-03T03:15:47.398007+00:00Z", "free_bikes": 11, "empty_slots": 0, "extra": {"uid": "ciaq8mgk59geca2m881g", "online": true}}, {"id": "e4da78c14df1c5cd436f81ecea348661", "name": "Saintes Saint Pierre", "latitude": 45.744973, "longitude": -0.630484, "timestamp": "2025-05-03T03:15:47.398043+00:00Z", "free_bikes": 7, "empty_slots": 0, "extra": {"uid": "cnkth4b3t7rm29d8trg0", "online": true}}, {"id": "e5e70ecb89f35fd6d48badac590a559a", "name": "Angoul\u00eame Plan d'eau", "latitude": 45.68584, "longitude": 0.14717, "timestamp": "2025-05-03T03:15:47.397997+00:00Z", "free_bikes": 8, "empty_slots": 0, "extra": {"uid": "ciaq8i0k59geca2m85cg", "online": true}}, {"id": "f3937cb95c124320dd7b1fb171e0d914", "name": "Angoul\u00eame Parc Expo Carat", "latitude": 45.67037, "longitude": 0.20785, "timestamp": "2025-05-03T03:15:47.397994+00:00Z", "free_bikes": 9, "empty_slots": 0, "extra": {"uid": "ciaq8h0k59geca2m84l0", "online": true}}, {"id": "f6c7db4bcd3b11bc0b2039b25e653eb3", "name": "Gare SNCF La Couronne", "latitude": 45.60515453408655, "longitude": 0.10108310104067186, "timestamp": "2025-05-03T03:15:47.397999+00:00Z", "free_bikes": 6, "empty_slots": 0, "extra": {"uid": "ciaq8iok59geca2m8620", "online": true}}, {"id": "fa5198aa046a0a4b45d9eacb146aac5c", "name": "Cognac Ancien H\u00f4pital ", "latitude": 45.6792, "longitude": -0.3361, "timestamp": "2025-05-03T03:15:47.398045+00:00Z", "free_bikes": 1, "empty_slots": 0, "extra": {"uid": "coo9albqpgo2l1lc2ct0", "online": true}}, {"id": "fc0e2eadfe5b0d4b35197bd5527457e2", "name": "Royan Pontaillac", "latitude": 45.62799, "longitude": -1.0531, "timestamp": "2025-05-03T03:15:47.398009+00:00Z", "free_bikes": 9, "empty_slots": 0, "extra": {"uid": "ciaq8mok59geca2m88b0", "online": true}}]}