{"id": "velov", "name": "V\u00e9lo'V", "location": {"latitude": 45.764043, "longitude": 4.835659, "city": "Lyon", "country": "FR"}, "href": "/v2/networks/velov", "company": ["JCDecaux"], "system": "Cyclocity", "license": {"name": "Open Licence", "url": "https://developer.jcdecaux.com/#/opendata/licence"}, "source": "https://developer.jcdecaux.com", "stations": [{"id": "000cde1f44a2c8a35d4a6c915e970861", "name": "8058 - LONGEFER / KRUGER", "latitude": 45.738671, "longitude": 4.878117, "timestamp": "2025-05-03T03:15:57.004701+00:00Z", "free_bikes": 11, "empty_slots": 4, "extra": {"uid": 8058, "address": "10 RUE PDT P. KRUGER", "status": "OPEN", "banking": false, "bonus": false, "last_update": "2025-05-03T03:14:44Z", "slots": 16, "has_ebikes": true, "ebikes": 6, "normal_bikes": 5}}, {"id": "014c24087397e342c80002d212936a56", "name": "1012 - AMP\u00c8RE / BOURSE", "latitude": 45.765789, "longitude": 4.836906, "timestamp": "2025-05-03T03:15:57.006084+00:00Z", "free_bikes": 0, "empty_slots": 24, "extra": {"uid": 1012, "address": "Rue de la Bourse - Long du Coll\u00e8ge-Lyc\u00e9e Amp\u00e8re", "status": "OPEN", "banking": false, "bonus": false, "last_update": "2025-05-03T03:10:15Z", "slots": 26, "has_ebikes": true, "ebikes": 0, "normal_bikes": 0}}, {"id": "01944e3d3860748bcb3b09d73dfe0035", "name": "9011 - CONSERVATOIRE", "latitude": 45.769803, "longitude": 4.812681, "timestamp": "2025-05-03T03:15:57.004945+00:00Z", "free_bikes": 17, "empty_slots": 2, "extra": {"uid": 9011, "address": "Quai Chauveau / angle Pont Koenig", "status": "OPEN", "banking": true, "bonus": false, "last_update": "2025-05-03T03:11:32Z", "slots": 19, "has_ebikes": true, "ebikes": 7, "normal_bikes": 10}}, {"id": "025f7801fffbe71a3578ac52150fccce", "name": "1006- SUBSISTANCES", "latitude": 45.767912, "longitude": 4.819872, "timestamp": "2025-05-03T03:15:57.004752+00:00Z", "free_bikes": 2, "empty_slots": 20, "extra": {"uid": 1006, "address": "12 QUAI ST VINCENT", "status": "OPEN", "banking": false, "bonus": false, "last_update": "2025-05-03T03:13:33Z", "slots": 22, "has_ebikes": true, "ebikes": 1, "normal_bikes": 1}}, {"id": "04063e38571ad389f8c60039605011c7", "name": "6031 - LAFAYETTE / CORNEILLE", "latitude": 45.763717, "longitude": 4.843791, "timestamp": "2025-05-03T03:15:57.004517+00:00Z", "free_bikes": 0, "empty_slots": 13, "extra": {"uid": 6031, "address": "Angle cours Lafayette", "status": "OPEN", "banking": false, "bonus": false, "last_update": "2025-05-03T03:11:08Z", "slots": 13, "has_ebikes": true, "ebikes": 0, "normal_bikes": 0}}, {"id": "04eaa595562c7ed6d154426677e7238e", "name": "7020 - PARC DE GERLAND", "latitude": 45.724352, "longitude": 4.826821, "timestamp": "2025-05-03T03:15:57.005745+00:00Z", "free_bikes": 11, "empty_slots": 15, "extra": {"uid": 7020, "address": "All\u00e9e Pierre de Coubertin", "status": "OPEN", "banking": false, "bonus": false, "last_update": "2025-05-03T03:11:47Z", "slots": 26, "has_ebikes": true, "ebikes": 2, "normal_bikes": 9}}, {"id": "057888a751b49d2ba5334fa57c14e033", "name": "2003 - PLACE AMP\u00c8RE", "latitude": 45.753049, "longitude": 4.828297, "timestamp": "2025-05-03T03:15:57.004868+00:00Z", "free_bikes": 5, "empty_slots": 5, "extra": {"uid": 2003, "address": "Angle Henry IV", "status": "OPEN", "banking": false, "bonus": false, "last_update": "2025-05-03T03:10:48Z", "slots": 10, "has_ebikes": true, "ebikes": 0, "normal_bikes": 5}}, {"id": "0802bbd95105da1e7f67c0c663277970", "name": "5008 - SAINTE-IR\u00c9N\u00c9E", "latitude": 45.754978, "longitude": 4.812427, "timestamp": "2025-05-03T03:15:57.005916+00:00Z", "free_bikes": 3, "empty_slots": 16, "extra": {"uid": 5008, "address": "Place Sainte Ir\u00e9n\u00e9e", "status": "OPEN", "banking": false, "bonus": false, "last_update": "2025-05-03T03:08:31Z", "slots": 20, "has_ebikes": true, "ebikes": 3, "normal_bikes": 0}}, {"id": "0807f6092f9a6e29a0f0fee288911dc5", "name": "2004 - PERRACHE / CARNOT", "latitude": 45.750116, "longitude": 4.82801, "timestamp": "2025-05-03T03:15:57.004489+00:00Z", "free_bikes": 10, "empty_slots": 7, "extra": {"uid": 2004, "address": "16 PLACE CARNOT", "status": "OPEN", "banking": false, "bonus": false, "last_update": "2025-05-03T03:14:32Z", "slots": 18, "has_ebikes": true, "ebikes": 2, "normal_bikes": 8}}, {"id": "082005ba11f2d92a25c2307c03f02720", "name": "2002 - BELLECOUR / ST EXUP\u00c9RY", "latitude": 45.758149, "longitude": 4.830428, "timestamp": "2025-05-03T03:15:57.006180+00:00Z", "free_bikes": 7, "empty_slots": 30, "extra": {"uid": 2002, "address": "PLACE BELLECOUR C\u00f4t\u00e9 rue Lintier", "status": "OPEN", "banking": false, "bonus": false, "last_update": "2025-05-03T03:09:27Z", "slots": 40, "has_ebikes": true, "ebikes": 1, "normal_bikes": 6}}, {"id": "086a63b95c4675539cba2860dddd253a", "name": "10091 - CH\u00c2TEAU GAILLARD / FORT", "latitude": 45.774754, "longitude": 4.887977, "timestamp": "2025-05-03T03:15:57.004324+00:00Z", "free_bikes": 16, "empty_slots": 0, "extra": {"uid": 10091, "address": "28 RUE DU CH\u00c2TEAU GAILLARD (VILLEURBANNE)", "status": "OPEN", "banking": false, "bonus": false, "last_update": "2025-05-03T03:08:13Z", "slots": 16, "has_ebikes": true, "ebikes": 7, "normal_bikes": 9}}, {"id": "092eb56dca4226852067789eeae4f6dc", "name": "10074 - ZOLA / PASSAGE REY", "latitude": 45.770099, "longitude": 4.876728, "timestamp": "2025-05-03T03:15:57.005245+00:00Z", "free_bikes": 19, "empty_slots": 0, "extra": {"uid": 10074, "address": "Cours E. Zola / Angle passage Rey", "status": "OPEN", "banking": false, "bonus": false, "last_update": "2025-05-03T03:12:17Z", "slots": 19, "has_ebikes": true, "ebikes": 6, "normal_bikes": 13}}, {"id": "09b7a8ef4cc3da5e30320d89c16635c7", "name": "3008 - INSTITUT LUMIERE", "latitude": 45.745828, "longitude": 4.870631, "timestamp": "2025-05-03T03:15:57.004548+00:00Z", "free_bikes": 5, "empty_slots": 10, "extra": {"uid": 3008, "address": "105 COURS ALBERT THOMAS", "status": "OPEN", "banking": false, "bonus": false, "last_update": "2025-05-03T03:12:16Z", "slots": 18, "has_ebikes": true, "ebikes": 2, "normal_bikes": 3}}, {"id": "09bede1be571994d2aec17ee7bd5d2c6", "name": "17003 - ST FONS - THEATRE", "latitude": 45.708123, "longitude": 4.861905, "timestamp": "2025-05-03T03:15:57.005476+00:00Z", "free_bikes": 13, "empty_slots": 5, "extra": {"uid": 17003, "address": "", "status": "OPEN", "banking": false, "bonus": false, "last_update": "2025-05-03T03:12:11Z", "slots": 18, "has_ebikes": true, "ebikes": 11, "normal_bikes": 2}}, {"id": "0aa29c3842082cf852808ac4f9005c7a", "name": "1016 - P\u00caCHERIE", "latitude": 45.765944, "longitude": 4.831089, "timestamp": "2025-05-03T03:15:57.005223+00:00Z", "free_bikes": 0, "empty_slots": 17, "extra": {"uid": 1016, "address": "Rue de la Plati\u00e8re - Angle quai de la P\u00eacherie", "status": "OPEN", "banking": false, "bonus": false, "last_update": "2025-05-03T03:11:36Z", "slots": 17, "has_ebikes": true, "ebikes": 0, "normal_bikes": 0}}, {"id": "0aec1764e61e094304f006502e2a5373", "name": "2011 - SALA / RUE DU PLAT", "latitude": 45.756813, "longitude": 4.828342, "timestamp": "2025-05-03T03:15:57.005215+00:00Z", "free_bikes": 14, "empty_slots": 0, "extra": {"uid": 2011, "address": "Face \u00e0 la facult\u00e9 catholique", "status": "OPEN", "banking": false, "bonus": false, "last_update": "2025-05-02T13:07:08Z", "slots": 14, "has_ebikes": true, "ebikes": 1, "normal_bikes": 2}}, {"id": "0b489bf60028e46ae262d891be6cb8a7", "name": "2014 - JACOBINS", "latitude": 45.760762, "longitude": 4.834305, "timestamp": "2025-05-03T03:15:57.005137+00:00Z", "free_bikes": 2, "empty_slots": 23, "extra": {"uid": 2014, "address": "3 RUE JEAN DE TOURNES", "status": "OPEN", "banking": false, "bonus": false, "last_update": "2025-05-03T03:11:30Z", "slots": 26, "has_ebikes": true, "ebikes": 1, "normal_bikes": 1}}, {"id": "0b9705b35bede0ccbb8a0b7b6cdd181d", "name": "8053 - LUMIERE / TROUILHET", "latitude": 45.743569, "longitude": 4.870083, "timestamp": "2025-05-03T03:15:57.004666+00:00Z", "free_bikes": 3, "empty_slots": 13, "extra": {"uid": 8053, "address": "6 RUE ANTOINE LUMIERE", "status": "OPEN", "banking": false, "bonus": false, "last_update": "2025-05-03T03:10:32Z", "slots": 16, "has_ebikes": true, "ebikes": 0, "normal_bikes": 3}}, {"id": "0c8ff71aea7ce4908fcd9e18f09874fe", "name": "10120 - SALENGRO / DESCARTES", "latitude": 45.776239, "longitude": 4.871634, "timestamp": "2025-05-03T03:15:57.004251+00:00Z", "free_bikes": 14, "empty_slots": 1, "extra": {"uid": 10120, "address": "41 AV. ROGER SALENGRO (VILLEURBANNE)", "status": "OPEN", "banking": false, "bonus": false, "last_update": "2025-05-03T03:15:37Z", "slots": 15, "has_ebikes": true, "ebikes": 3, "normal_bikes": 11}}, {"id": "0da0c384434f167f94fd4f54744b99c4", "name": "7009 - JEAN JAUR\u00c8S", "latitude": 45.737503, "longitude": 4.837484, "timestamp": "2025-05-03T03:15:57.004497+00:00Z", "free_bikes": 14, "empty_slots": 2, "extra": {"uid": 7009, "address": "174\u2013180 Avenue Jean Jaur\u00e8s 69007 Lyon", "status": "OPEN", "banking": false, "bonus": false, "last_update": "2025-05-03T03:11:16Z", "slots": 16, "has_ebikes": true, "ebikes": 4, "normal_bikes": 10}}, {"id": "0ee53ae442d115f52bd4286c2e672dd0", "name": "3051 - PLACE HENRI", "latitude": 45.748193, "longitude": 4.880641, "timestamp": "2025-05-03T03:15:57.005164+00:00Z", "free_bikes": 8, "empty_slots": 4, "extra": {"uid": 3051, "address": "Angle rue Docteur Long/av. Lacassagne", "status": "OPEN", "banking": false, "bonus": false, "last_update": "2025-05-03T03:08:40Z", "slots": 13, "has_ebikes": true, "ebikes": 8, "normal_bikes": 0}}, {"id": "0f39562eb28a32bce6748c851fa2e7a9", "name": "10016 - PLACE DE LA PAIX", "latitude": 45.752074, "longitude": 4.91466, "timestamp": "2025-05-03T03:15:57.004600+00:00Z", "free_bikes": 6, "empty_slots": 10, "extra": {"uid": 10016, "address": "10 PLACE DE LA PAIX (VILLEURBANNE)", "status": "OPEN", "banking": false, "bonus": false, "last_update": "2025-05-03T03:14:02Z", "slots": 17, "has_ebikes": true, "ebikes": 3, "normal_bikes": 3}}, {"id": "1166803a7678971807dfe7b3fd1bbf60", "name": "5030 - CHARCOT / R\u00c9SIDENCE UNIVERSITAIRE", "latitude": 45.755054, "longitude": 4.807811, "timestamp": "2025-05-03T03:15:57.006166+00:00Z", "free_bikes": 2, "empty_slots": 28, "extra": {"uid": 5030, "address": "Angle rue du fort Ste Ir\u00e9n\u00e9e / Charcot", "status": "OPEN", "banking": false, "bonus": false, "last_update": "2025-05-03T03:13:30Z", "slots": 32, "has_ebikes": true, "ebikes": 2, "normal_bikes": 0}}, {"id": "119e51d3011b137971754f697620b35d", "name": "10092 - MONTGOLFIER / CHATEAU GAILLARD", "latitude": 45.771561, "longitude": 4.890378, "timestamp": "2025-05-03T03:15:57.004775+00:00Z", "free_bikes": 10, "empty_slots": 7, "extra": {"uid": 10092, "address": "3 RUE DU CHAMP DE L'ORME (VILLEURBANNE)", "status": "OPEN", "banking": false, "bonus": false, "last_update": "2025-05-03T03:15:27Z", "slots": 17, "has_ebikes": true, "ebikes": 5, "normal_bikes": 5}}, {"id": "119f4cc857bfcbfa3914ec66032ede78", "name": "3097 - AUGAGNEUR / FOSSE AUX OURS", "latitude": 45.7566535, "longitude": 4.8404787, "timestamp": "2025-05-03T03:15:57.004975+00:00Z", "free_bikes": 2, "empty_slots": 32, "extra": {"uid": 3097, "address": "28 QUAI VICTOR AUGAGNEUR", "status": "OPEN", "banking": true, "bonus": false, "last_update": "2025-05-03T03:12:23Z", "slots": 40, "has_ebikes": true, "ebikes": 0, "normal_bikes": 0}}, {"id": "11a9efb1c46f4eb1db4cf72c07f86a3b", "name": "9020 - BOURBONNAIS", "latitude": 45.773468, "longitude": 4.800286, "timestamp": "2025-05-03T03:15:57.004469+00:00Z", "free_bikes": 6, "empty_slots": 2, "extra": {"uid": 9020, "address": "Angle rue Horand / rue Masset", "status": "OPEN", "banking": false, "bonus": false, "last_update": "2025-05-03T03:15:23Z", "slots": 12, "has_ebikes": true, "ebikes": 3, "normal_bikes": 3}}, {"id": "12475ec534482ed34a25a02b3cc10ca3", "name": "3103 - PLACE DANTON", "latitude": 45.7548502313005, "longitude": 4.85748756866509, "timestamp": "2025-05-03T03:15:57.004512+00:00Z", "free_bikes": 6, "empty_slots": 12, "extra": {"uid": 3103, "address": "3 PLACE DANTON", "status": "OPEN", "banking": false, "bonus": false, "last_update": "2025-05-03T03:14:08Z", "slots": 18, "has_ebikes": true, "ebikes": 3, "normal_bikes": 3}}, {"id": "126c26583ffb39dc0825143db0dc3d53", "name": "7004 - MAIRIE DU 7E", "latitude": 45.74656, "longitude": 4.842265, "timestamp": "2025-05-03T03:15:57.006019+00:00Z", "free_bikes": 8, "empty_slots": 22, "extra": {"uid": 7004, "address": "Place Jean Mac\u00e9 - Face \u00e0 la mairie", "status": "OPEN", "banking": false, "bonus": false, "last_update": "2025-05-03T03:12:51Z", "slots": 30, "has_ebikes": true, "ebikes": 2, "normal_bikes": 6}}, {"id": "1284d84388f2e7f6e40b445cbfa39401", "name": "12005 - VAULX - VILLAGE", "latitude": 45.786262, "longitude": 4.926788, "timestamp": "2025-05-03T03:15:57.005900+00:00Z", "free_bikes": 19, "empty_slots": 1, "extra": {"uid": 12005, "address": "", "status": "OPEN", "banking": false, "bonus": false, "last_update": "2025-05-03T03:10:22Z", "slots": 20, "has_ebikes": true, "ebikes": 17, "normal_bikes": 2}}, {"id": "1325832ef4cadf4e4f21fb1cbfb524ad", "name": "10064 - 4 AO\u00dbT 1789", "latitude": 45.764812, "longitude": 4.884311, "timestamp": "2025-05-03T03:15:57.005673+00:00Z", "free_bikes": 12, "empty_slots": 2, "extra": {"uid": 10064, "address": "Angle Rue Rollet/Blanqui", "status": "OPEN", "banking": false, "bonus": false, "last_update": "2025-05-03T03:06:51Z", "slots": 15, "has_ebikes": true, "ebikes": 1, "normal_bikes": 11}}, {"id": "13b92b06dd6eca9c908c92347f2f7af3", "name": "10030 - GREUZE", "latitude": 45.773845, "longitude": 4.893851, "timestamp": "2025-05-03T03:15:57.005364+00:00Z", "free_bikes": 14, "empty_slots": 4, "extra": {"uid": 10030, "address": "126 RUE DU 8 MAI 1945 (VILLEURBANNE)", "status": "OPEN", "banking": false, "bonus": false, "last_update": "2025-05-03T03:13:11Z", "slots": 18, "has_ebikes": true, "ebikes": 5, "normal_bikes": 9}}, {"id": "13da9c5aa3d2d1b0d132f877100b945e", "name": "8004 - MAIRIE DU 8E", "latitude": 45.735158, "longitude": 4.872803, "timestamp": "2025-05-03T03:15:57.005952+00:00Z", "free_bikes": 7, "empty_slots": 14, "extra": {"uid": 8004, "address": "Devant la mairie du 8e", "status": "OPEN", "banking": false, "bonus": false, "last_update": "2025-05-03T03:12:22Z", "slots": 21, "has_ebikes": true, "ebikes": 4, "normal_bikes": 3}}, {"id": "13e33327e46df6c8f9cc5faeab1860d6", "name": "5040 - PLACE CR\u00c9PU", "latitude": 45.757847, "longitude": 4.826103, "timestamp": "2025-05-03T03:15:57.004353+00:00Z", "free_bikes": 7, "empty_slots": 11, "extra": {"uid": 5040, "address": "7 PLACE BENOIT CREPU", "status": "OPEN", "banking": false, "bonus": false, "last_update": "2025-05-03T03:11:47Z", "slots": 20, "has_ebikes": true, "ebikes": 1, "normal_bikes": 6}}, {"id": "14a4c74b96276525b2d1c5e97e7e594a", "name": "3089 - TRARIEUX / LACASSAGNE", "latitude": 45.745304, "longitude": 4.888964, "timestamp": "2025-05-03T03:15:57.005252+00:00Z", "free_bikes": 16, "empty_slots": 5, "extra": {"uid": 3089, "address": "221 AV. LACASSAGNE", "status": "OPEN", "banking": false, "bonus": false, "last_update": "2025-05-03T03:12:48Z", "slots": 24, "has_ebikes": true, "ebikes": 12, "normal_bikes": 4}}, {"id": "14af0229e83ac03b5e637a55cccff098", "name": "7026 - BALDASSINI / GERLAND", "latitude": 45.727691, "longitude": 4.837392, "timestamp": "2025-05-03T03:15:57.004891+00:00Z", "free_bikes": 2, "empty_slots": 18, "extra": {"uid": 7026, "address": "", "status": "OPEN", "banking": false, "bonus": false, "last_update": "2025-05-03T03:07:37Z", "slots": 20, "has_ebikes": true, "ebikes": 0, "normal_bikes": 2}}, {"id": "14b2d38bcc9ee34597833a28cadf3152", "name": "10005 - 11 NOVEMBRE", "latitude": 45.779702, "longitude": 4.860029, "timestamp": "2025-05-03T03:15:57.004281+00:00Z", "free_bikes": 0, "empty_slots": 35, "extra": {"uid": 10005, "address": "Face Entr\u00e9e du Parc de la T\u00eate d'Or**", "status": "OPEN", "banking": false, "bonus": false, "last_update": "2025-05-03T03:09:58Z", "slots": 35, "has_ebikes": true, "ebikes": 0, "normal_bikes": 0}}, {"id": "15a688c077fa730abaddd6686acbfc9e", "name": "5004 - SAINT-JEAN", "latitude": 45.760468, "longitude": 4.826548, "timestamp": "2025-05-03T03:15:57.005360+00:00Z", "free_bikes": 5, "empty_slots": 33, "extra": {"uid": 5004, "address": "Entre la cath\u00e9drale et le funiculaire", "status": "OPEN", "banking": true, "bonus": false, "last_update": "2025-05-03T03:11:31Z", "slots": 39, "has_ebikes": true, "ebikes": 0, "normal_bikes": 5}}, {"id": "15fe3ed7015d651dd44de21554916642", "name": "7010 - CENTRE BERTHELOT", "latitude": 45.747358, "longitude": 4.836009, "timestamp": "2025-05-03T03:15:57.005691+00:00Z", "free_bikes": 12, "empty_slots": 7, "extra": {"uid": 7010, "address": "Rue Pasteur - Angle avenue Berthelot", "status": "OPEN", "banking": false, "bonus": false, "last_update": "2025-05-03T03:07:42Z", "slots": 19, "has_ebikes": true, "ebikes": 4, "normal_bikes": 8}}, {"id": "176c1d8bf172c4c7afa1fe5f98725e6e", "name": "28001 - FONTAINES S/S - QUAI SIMON", "latitude": 45.832495, "longitude": 4.848795, "timestamp": "2025-05-03T03:15:57.004559+00:00Z", "free_bikes": 9, "empty_slots": 11, "extra": {"uid": 28001, "address": "", "status": "OPEN", "banking": false, "bonus": false, "last_update": "2025-05-03T03:13:42Z", "slots": 20, "has_ebikes": true, "ebikes": 9, "normal_bikes": 0}}, {"id": "182591b58d927f7d0966d932d3634c1a", "name": "10071 - LYC\u00c9E MARIE CURIE", "latitude": 45.761532, "longitude": 4.895763, "timestamp": "2025-05-03T03:15:57.005429+00:00Z", "free_bikes": 12, "empty_slots": 3, "extra": {"uid": 10071, "address": "64 BVD EUGENE REGUILLON (VILLEURBANNE)", "status": "OPEN", "banking": false, "bonus": false, "last_update": "2025-05-03T03:13:31Z", "slots": 15, "has_ebikes": true, "ebikes": 8, "normal_bikes": 4}}, {"id": "184e605c52f301190d6b0840a8328f69", "name": "10087 - BARATIN", "latitude": 45.760603, "longitude": 4.900702, "timestamp": "2025-05-03T03:15:57.005460+00:00Z", "free_bikes": 9, "empty_slots": 3, "extra": {"uid": 10087, "address": "Face au 115 rue Pierre Baratin", "status": "OPEN", "banking": false, "bonus": false, "last_update": "2025-05-03T03:11:45Z", "slots": 12, "has_ebikes": true, "ebikes": 9, "normal_bikes": 0}}, {"id": "188bb0510d0b76161d47f3ba4f87802f", "name": "3029 - PLACE ARISTIDE BRIAND", "latitude": 45.752967, "longitude": 4.850271, "timestamp": "2025-05-03T03:15:57.005527+00:00Z", "free_bikes": 10, "empty_slots": 26, "extra": {"uid": 3029, "address": "Angle Gambetta", "status": "OPEN", "banking": false, "bonus": false, "last_update": "2025-05-03T03:12:16Z", "slots": 38, "has_ebikes": true, "ebikes": 0, "normal_bikes": 10}}, {"id": "18d0b6bb7319fd55a43f44eefc16dd07", "name": "9043 - MARIETTON OUEST", "latitude": 45.776087, "longitude": 4.799725, "timestamp": "2025-05-03T03:15:57.005301+00:00Z", "free_bikes": 7, "empty_slots": 13, "extra": {"uid": 9043, "address": "", "status": "OPEN", "banking": false, "bonus": false, "last_update": "2025-05-03T03:12:19Z", "slots": 20, "has_ebikes": true, "ebikes": 3, "normal_bikes": 4}}, {"id": "18eaad200ac9e346d8acea9cad4148db", "name": "7023 - BERTHELOT / ROUTE DE VIENNE", "latitude": 45.742639, "longitude": 4.850538, "timestamp": "2025-05-03T03:15:57.004540+00:00Z", "free_bikes": 6, "empty_slots": 9, "extra": {"uid": 7023, "address": "Route de Vienne - Angle avenue Berthelot", "status": "OPEN", "banking": false, "bonus": false, "last_update": "2025-05-03T03:06:19Z", "slots": 15, "has_ebikes": true, "ebikes": 0, "normal_bikes": 6}}, {"id": "19215981930423e72a9f71f1913f7f63", "name": "2042 - JOFFRE / VAUBECOUR", "latitude": 45.751873, "longitude": 4.824763, "timestamp": "2025-05-03T03:15:57.005769+00:00Z", "free_bikes": 12, "empty_slots": 8, "extra": {"uid": 2042, "address": "43 RUE VAUBECOUR", "status": "OPEN", "banking": false, "bonus": false, "last_update": "2025-05-03T03:14:39Z", "slots": 20, "has_ebikes": true, "ebikes": 4, "normal_bikes": 8}}, {"id": "1ad6425417d35d222547201cac357390", "name": "2013 - C\u00c9LESTINS", "latitude": 45.759932, "longitude": 4.832111, "timestamp": "2025-05-03T03:15:57.004394+00:00Z", "free_bikes": 1, "empty_slots": 17, "extra": {"uid": 2013, "address": "C\u00f4t\u00e9 nord de la place, vers l'ascenseur", "status": "OPEN", "banking": false, "bonus": false, "last_update": "2025-05-03T03:10:42Z", "slots": 22, "has_ebikes": true, "ebikes": 0, "normal_bikes": 1}}, {"id": "1b7c0ef9b7b4e51facb67b4225ff77d2", "name": "9015 - SAINT-CYR", "latitude": 45.782855, "longitude": 4.807288, "timestamp": "2025-05-03T03:15:57.004952+00:00Z", "free_bikes": 4, "empty_slots": 25, "extra": {"uid": 9015, "address": "", "status": "OPEN", "banking": false, "bonus": false, "last_update": "2025-05-03T03:13:53Z", "slots": 30, "has_ebikes": true, "ebikes": 1, "normal_bikes": 3}}, {"id": "1bcb929d0779b5d434c70efcbf8312b0", "name": "4001 - CONSERVATOIRE BIS", "latitude": 45.770392, "longitude": 4.814254, "timestamp": "2025-05-03T03:15:57.005482+00:00Z", "free_bikes": 15, "empty_slots": 6, "extra": {"uid": 4001, "address": "", "status": "OPEN", "banking": false, "bonus": false, "last_update": "2025-05-03T03:08:35Z", "slots": 22, "has_ebikes": true, "ebikes": 2, "normal_bikes": 13}}, {"id": "1d793588539b83d6b9b1a7224dad2749", "name": "7051 - GUILLOTIERE / NICOLA\u00cf", "latitude": 45.747933, "longitude": 4.856358, "timestamp": "2025-05-03T03:15:57.005323+00:00Z", "free_bikes": 9, "empty_slots": 21, "extra": {"uid": 7051, "address": "", "status": "OPEN", "banking": false, "bonus": false, "last_update": "2025-05-03T03:15:27Z", "slots": 30, "has_ebikes": true, "ebikes": 5, "normal_bikes": 4}}, {"id": "1e4916d3d22089ee30d9486834167a07", "name": "11004 - CALUIRE - BRANLY / PASTEUR", "latitude": 45.79169, "longitude": 4.843452, "timestamp": "2025-05-03T03:15:57.004299+00:00Z", "free_bikes": 15, "empty_slots": 0, "extra": {"uid": 11004, "address": "", "status": "OPEN", "banking": false, "bonus": false, "last_update": "2025-05-03T03:14:45Z", "slots": 15, "has_ebikes": true, "ebikes": 15, "normal_bikes": 0}}, {"id": "1ec14cae286c761596b25d943b97c79d", "name": "7057 - JAURES / BOLLIER", "latitude": 45.734712, "longitude": 4.835486, "timestamp": "2025-05-03T03:15:57.006107+00:00Z", "free_bikes": 22, "empty_slots": 12, "extra": {"uid": 7057, "address": "217b\u2013221 Avenue Jean Jaur\u00e8s 69007 Lyon", "status": "OPEN", "banking": false, "bonus": false, "last_update": "2025-05-03T03:10:50Z", "slots": 34, "has_ebikes": true, "ebikes": 12, "normal_bikes": 10}}, {"id": "1f38f700c7d28adc27fe0b7c40fcbaae", "name": "8002- PLACE AMBROISE COURTOIS", "latitude": 45.745296, "longitude": 4.871604, "timestamp": "2025-05-03T03:15:57.006194+00:00Z", "free_bikes": 5, "empty_slots": 15, "extra": {"uid": 8002, "address": "Face au cours Albert Thomas", "status": "OPEN", "banking": false, "bonus": false, "last_update": "2025-05-03T03:11:09Z", "slots": 20, "has_ebikes": true, "ebikes": 4, "normal_bikes": 1}}, {"id": "2029608cb017bd47ae6fbe00b84a43b9", "name": "9044 - MASSET / SAINT-PIERRE DE VAISE", "latitude": 45.770508, "longitude": 4.800869, "timestamp": "2025-05-03T03:15:57.004555+00:00Z", "free_bikes": 10, "empty_slots": 6, "extra": {"uid": 9044, "address": "20 AV. JOANNES MASSET", "status": "OPEN", "banking": false, "bonus": false, "last_update": "2025-05-03T03:13:20Z", "slots": 16, "has_ebikes": true, "ebikes": 5, "normal_bikes": 5}}, {"id": "20515bd0f13c28e35e0630432de4c570", "name": "9004 - GARE DE VAISE", "latitude": 45.779786, "longitude": 4.804666, "timestamp": "2025-05-03T03:15:57.006190+00:00Z", "free_bikes": 15, "empty_slots": 5, "extra": {"uid": 9004, "address": "Face entr\u00e9e de la gare", "status": "OPEN", "banking": true, "bonus": false, "last_update": "2025-05-03T03:10:41Z", "slots": 22, "has_ebikes": true, "ebikes": 9, "normal_bikes": 6}}, {"id": "20f0aec2a3f66863f731427616bfb5de", "name": "7017 - BEAUVOIR / MAROT", "latitude": 45.73674, "longitude": 4.834106, "timestamp": "2025-05-03T03:15:57.004872+00:00Z", "free_bikes": 15, "empty_slots": 5, "extra": {"uid": 7017, "address": "", "status": "OPEN", "banking": false, "bonus": false, "last_update": "2025-05-03T03:13:41Z", "slots": 20, "has_ebikes": true, "ebikes": 7, "normal_bikes": 8}}, {"id": "21135455cf9de5e63a8e4bc76c6e77e2", "name": "34002 - NEUVILLE - STADE", "latitude": 45.870877, "longitude": 4.839595, "timestamp": "2025-05-03T03:15:57.005927+00:00Z", "free_bikes": 9, "empty_slots": 6, "extra": {"uid": 34002, "address": "", "status": "OPEN", "banking": false, "bonus": false, "last_update": "2025-05-03T03:10:47Z", "slots": 15, "has_ebikes": true, "ebikes": 4, "normal_bikes": 5}}, {"id": "21eaf0414698b1a2fedf959c304782fe", "name": "6012 - PLACE PUVIS DE CHAVANNES", "latitude": 45.771794, "longitude": 4.84459, "timestamp": "2025-05-03T03:15:57.004955+00:00Z", "free_bikes": 7, "empty_slots": 2, "extra": {"uid": 6012, "address": "Angle rue Vend\u00f4me", "status": "OPEN", "banking": false, "bonus": false, "last_update": "2025-05-03T03:14:55Z", "slots": 10, "has_ebikes": true, "ebikes": 2, "normal_bikes": 5}}, {"id": "238584909a540aeffcf3a815e4cd0cc2", "name": "3080 - PART-DIEU / VILLETTE", "latitude": 45.760042, "longitude": 4.861734, "timestamp": "2025-05-03T03:15:57.004482+00:00Z", "free_bikes": 1, "empty_slots": 29, "extra": {"uid": 3080, "address": "55 RUE DE LA VILLETTE", "status": "OPEN", "banking": true, "bonus": false, "last_update": "2025-05-03T03:15:34Z", "slots": 30, "has_ebikes": true, "ebikes": 1, "normal_bikes": 0}}, {"id": "239bf79a980f3f2e8e5782f663b28d92", "name": "10061 - R\u00c9PUBLIQUE", "latitude": 45.7708541, "longitude": 4.8726116, "timestamp": "2025-05-03T03:15:57.005531+00:00Z", "free_bikes": 16, "empty_slots": 0, "extra": {"uid": 10061, "address": "Cours Emile Zola/Angle cours de la R\u00e9publique", "status": "OPEN", "banking": false, "bonus": false, "last_update": "2025-05-03T03:14:46Z", "slots": 17, "has_ebikes": true, "ebikes": 8, "normal_bikes": 8}}, {"id": "23c32c01ceae169fe218865b62a4a345", "name": "4022 - PLACE DE LA CROIX-ROUSSE", "latitude": 45.77608, "longitude": 4.832543, "timestamp": "2025-05-03T03:15:57.004832+00:00Z", "free_bikes": 0, "empty_slots": 19, "extra": {"uid": 4022, "address": "Prox. Grande rue de la Croix-Rousse", "status": "OPEN", "banking": false, "bonus": false, "last_update": "2025-05-03T03:07:26Z", "slots": 21, "has_ebikes": true, "ebikes": 0, "normal_bikes": 0}}, {"id": "23d3d6956d5ea3acda045c480a1415a9", "name": "3094 - VILLETTE", "latitude": 45.757808, "longitude": 4.861512, "timestamp": "2025-05-03T03:15:57.004929+00:00Z", "free_bikes": 34, "empty_slots": 3, "extra": {"uid": 3094, "address": "74 RUE DE LA VILLETTE", "status": "OPEN", "banking": false, "bonus": false, "last_update": "2025-05-03T03:13:37Z", "slots": 38, "has_ebikes": true, "ebikes": 3, "normal_bikes": 31}}, {"id": "24335323a0212495d0603ce3af88ec67", "name": "11002 - CALUIRE - SAINT-CLAIR", "latitude": 45.785465, "longitude": 4.847838, "timestamp": "2025-05-03T03:15:57.005788+00:00Z", "free_bikes": 19, "empty_slots": 1, "extra": {"uid": 11002, "address": "49 COURS ARISTIDE BRIAND (CALUIRE)", "status": "OPEN", "banking": false, "bonus": false, "last_update": "2025-05-03T03:13:15Z", "slots": 20, "has_ebikes": true, "ebikes": 7, "normal_bikes": 12}}, {"id": "244a88d175588ee0ef19cbb18c693b35", "name": "3016 - LIBERT\u00c9 / PART-DIEU", "latitude": 45.759361, "longitude": 4.842308, "timestamp": "2025-05-03T03:15:57.004863+00:00Z", "free_bikes": 0, "empty_slots": 16, "extra": {"uid": 3016, "address": "Angle rue de la Part-Dieu", "status": "OPEN", "banking": false, "bonus": false, "last_update": "2025-05-03T03:15:30Z", "slots": 18, "has_ebikes": true, "ebikes": 0, "normal_bikes": 0}}, {"id": "27192f1eaadb78f1d6876b18150a77ba", "name": "19001 - ST GENIS L. - M\u00c9DIATH\u00c8QUE", "latitude": 45.697863, "longitude": 4.794658, "timestamp": "2025-05-03T03:15:57.004876+00:00Z", "free_bikes": 8, "empty_slots": 4, "extra": {"uid": 19001, "address": "", "status": "OPEN", "banking": false, "bonus": false, "last_update": "2025-05-03T03:11:30Z", "slots": 12, "has_ebikes": true, "ebikes": 7, "normal_bikes": 1}}, {"id": "272b557d9f11d26c68080ffec0275e17", "name": "9042 - VAISE DOCKS", "latitude": 45.786533, "longitude": 4.811446, "timestamp": "2025-05-03T03:15:57.005091+00:00Z", "free_bikes": 2, "empty_slots": 15, "extra": {"uid": 9042, "address": "39 rue des Docks Lyon 9", "status": "OPEN", "banking": false, "bonus": false, "last_update": "2025-05-03T03:11:26Z", "slots": 19, "has_ebikes": true, "ebikes": 1, "normal_bikes": 1}}, {"id": "27dc8b0a493e33c55426b17df898f4ae", "name": "8008 - BEAUVISAGE / PRESSENS\u00c9", "latitude": 45.727881, "longitude": 4.86355, "timestamp": "2025-05-03T03:15:57.004620+00:00Z", "free_bikes": 16, "empty_slots": 1, "extra": {"uid": 8008, "address": "Rue du Professeur Beauvisage", "status": "OPEN", "banking": false, "bonus": false, "last_update": "2025-05-03T03:15:34Z", "slots": 17, "has_ebikes": true, "ebikes": 5, "normal_bikes": 11}}, {"id": "290c8f63b9816127c5b39e6ef55e10f8", "name": "1013 - MARTINI\u00c8RE", "latitude": 45.768223, "longitude": 4.827533, "timestamp": "2025-05-03T03:15:57.004640+00:00Z", "free_bikes": 2, "empty_slots": 9, "extra": {"uid": 1013, "address": "Rue de la Martini\u00e8re", "status": "OPEN", "banking": false, "bonus": false, "last_update": "2025-05-03T03:12:06Z", "slots": 11, "has_ebikes": true, "ebikes": 0, "normal_bikes": 2}}, {"id": "2a2592517fa907c57c53cc8eb5dcfb78", "name": "8051 - H\u00d4PITAL SAINT-JEAN DE DIEU", "latitude": 45.724172, "longitude": 4.854165, "timestamp": "2025-05-03T03:15:57.006102+00:00Z", "free_bikes": 3, "empty_slots": 17, "extra": {"uid": 8051, "address": "303 ROUTE DE VIENNE (VENISSIEUX)", "status": "OPEN", "banking": false, "bonus": false, "last_update": "2025-05-03T03:05:53Z", "slots": 20, "has_ebikes": true, "ebikes": 0, "normal_bikes": 3}}, {"id": "2a39538d332f8c6516ec996eed486f2b", "name": "10118 - VOYANT / CHAMBFORT", "latitude": 45.767194, "longitude": 4.900597, "timestamp": "2025-05-03T03:15:57.005368+00:00Z", "free_bikes": 13, "empty_slots": 9, "extra": {"uid": 10118, "address": "99 RUE PIERRE VOYANT (VILLEURBANNE)", "status": "OPEN", "banking": false, "bonus": false, "last_update": "2025-05-03T03:14:34Z", "slots": 22, "has_ebikes": true, "ebikes": 8, "normal_bikes": 5}}, {"id": "2ae87a783ec9cc00dccd7849f80e376d", "name": "10075 - GABRIEL P\u00c9RI", "latitude": 45.772277, "longitude": 4.865774, "timestamp": "2025-05-03T03:15:57.004564+00:00Z", "free_bikes": 4, "empty_slots": 7, "extra": {"uid": 10075, "address": "Angle cours Andr\u00e9 Philip", "status": "OPEN", "banking": false, "bonus": false, "last_update": "2025-05-03T03:12:37Z", "slots": 12, "has_ebikes": true, "ebikes": 0, "normal_bikes": 4}}, {"id": "2af4eeaec4185f3d37b37c799ea34047", "name": "8025 - DUMONT / JOUVET", "latitude": 45.744447, "longitude": 4.860889, "timestamp": "2025-05-03T03:15:57.004402+00:00Z", "free_bikes": 15, "empty_slots": 2, "extra": {"uid": 8025, "address": "12 RUE SANTOS DUMONT", "status": "OPEN", "banking": false, "bonus": false, "last_update": "2025-05-03T03:09:35Z", "slots": 17, "has_ebikes": true, "ebikes": 3, "normal_bikes": 12}}, {"id": "2b084456d7c77678a029686f77df1bbb", "name": "5053 - SAINT-JUST", "latitude": 45.75597, "longitude": 4.818904, "timestamp": "2025-05-03T03:15:57.004697+00:00Z", "free_bikes": 11, "empty_slots": 5, "extra": {"uid": 5053, "address": "1 PLACE DE L'ABBE LARUE", "status": "OPEN", "banking": false, "bonus": false, "last_update": "2025-05-03T03:12:36Z", "slots": 18, "has_ebikes": true, "ebikes": 11, "normal_bikes": 0}}, {"id": "2b1011f37dc695dca63c672b316bb61e", "name": "5005 - SAINT-PAUL", "latitude": 45.766278, "longitude": 4.827425, "timestamp": "2025-05-03T03:15:57.005313+00:00Z", "free_bikes": 2, "empty_slots": 20, "extra": {"uid": 5005, "address": "Pr\u00e8s de la gare de St Paul", "status": "OPEN", "banking": false, "bonus": false, "last_update": "2025-05-03T03:14:08Z", "slots": 23, "has_ebikes": true, "ebikes": 0, "normal_bikes": 2}}, {"id": "2c09cd407aa81c9d4974435b542725e9", "name": "10038 - CONDORCET", "latitude": 45.779062, "longitude": 4.866874, "timestamp": "2025-05-03T03:15:57.005434+00:00Z", "free_bikes": 2, "empty_slots": 21, "extra": {"uid": 10038, "address": "Bvd 11 Nov./prox. arret tram Condorcet", "status": "OPEN", "banking": false, "bonus": false, "last_update": "2025-05-03T03:12:29Z", "slots": 23, "has_ebikes": true, "ebikes": 2, "normal_bikes": 0}}, {"id": "2c3535308ff83d6b1f32495bd33f289b", "name": "3031 - CORNEILLE / SERVIENT", "latitude": 45.759906, "longitude": 4.844511, "timestamp": "2025-05-03T03:15:57.005382+00:00Z", "free_bikes": 3, "empty_slots": 9, "extra": {"uid": 3031, "address": "Angle rue Servient", "status": "OPEN", "banking": false, "bonus": false, "last_update": "2025-05-03T03:11:16Z", "slots": 13, "has_ebikes": true, "ebikes": 0, "normal_bikes": 3}}, {"id": "2c40da662e019fb95f6d9ae00d6ce0e5", "name": "1031 - PLACE DE LA PAIX", "latitude": 45.768023, "longitude": 4.831733, "timestamp": "2025-05-03T03:15:57.004436+00:00Z", "free_bikes": 0, "empty_slots": 18, "extra": {"uid": 1031, "address": "Place de la Paix - En face de La Poste", "status": "OPEN", "banking": false, "bonus": false, "last_update": "2025-05-03T03:09:13Z", "slots": 20, "has_ebikes": true, "ebikes": 0, "normal_bikes": 0}}, {"id": "2c78366a231dea740a6057828cbd810f", "name": "7035 - MARSEILLE / UNIVERSIT\u00c9", "latitude": 45.750945, "longitude": 4.83927, "timestamp": "2025-05-03T03:15:57.004246+00:00Z", "free_bikes": 22, "empty_slots": 17, "extra": {"uid": 7035, "address": "Angle rue de Marseille", "status": "OPEN", "banking": false, "bonus": false, "last_update": "2025-05-03T03:12:29Z", "slots": 40, "has_ebikes": true, "ebikes": 0, "normal_bikes": 22}}, {"id": "2cf9e1daa2c7e2c0d73c9038a0166820", "name": "2026 - R\u00c9PUBLIQUE / PAUFIQUE", "latitude": 45.759379, "longitude": 4.835414, "timestamp": "2025-05-03T03:15:57.004713+00:00Z", "free_bikes": 2, "empty_slots": 26, "extra": {"uid": 2026, "address": "Angle rue de la R\u00e9publique", "status": "OPEN", "banking": false, "bonus": false, "last_update": "2025-05-03T03:08:25Z", "slots": 28, "has_ebikes": true, "ebikes": 0, "normal_bikes": 2}}, {"id": "2e36b340db6563a5581da813127db81c", "name": "9033 - GORGE DE LOUP", "latitude": 45.767484, "longitude": 4.805626, "timestamp": "2025-05-03T03:15:57.006203+00:00Z", "free_bikes": 6, "empty_slots": 32, "extra": {"uid": 9033, "address": "49 RUE SGT BERTHET", "status": "OPEN", "banking": false, "bonus": false, "last_update": "2025-05-03T03:10:08Z", "slots": 40, "has_ebikes": true, "ebikes": 5, "normal_bikes": 1}}, {"id": "2f4d20dd846df0e050834fecae7fbcb2", "name": "3099 - PLACE SAINTE ANNE", "latitude": 45.757042, "longitude": 4.86532, "timestamp": "2025-05-03T03:15:57.005033+00:00Z", "free_bikes": 16, "empty_slots": 1, "extra": {"uid": 3099, "address": "10 PLACE SAINTE ANNE", "status": "OPEN", "banking": false, "bonus": false, "last_update": "2025-05-03T03:14:09Z", "slots": 18, "has_ebikes": true, "ebikes": 11, "normal_bikes": 5}}, {"id": "2fabe6cc449c6c4487897a32db701150", "name": "10031 - CROIX LUIZET", "latitude": 45.780679, "longitude": 4.88356, "timestamp": "2025-05-03T03:15:57.005749+00:00Z", "free_bikes": 20, "empty_slots": 1, "extra": {"uid": 10031, "address": "sur la place Croix Luizet", "status": "OPEN", "banking": false, "bonus": false, "last_update": "2025-05-03T03:13:00Z", "slots": 22, "has_ebikes": true, "ebikes": 10, "normal_bikes": 10}}, {"id": "300c361b9e2407631efb90a562719b49", "name": "10039 - BOUVIER", "latitude": 45.779487, "longitude": 4.891692, "timestamp": "2025-05-03T03:15:57.005887+00:00Z", "free_bikes": 16, "empty_slots": 0, "extra": {"uid": 10039, "address": "Rue Professeur Bouvier/Angle rue du 8 mai 1945", "status": "OPEN", "banking": false, "bonus": false, "last_update": "2025-05-03T03:15:22Z", "slots": 16, "has_ebikes": true, "ebikes": 14, "normal_bikes": 2}}, {"id": "3036a5f2b8b6a9339b790c28078885b5", "name": "23001 - TASSIN - TUILERIES", "latitude": 45.763244, "longitude": 4.778641, "timestamp": "2025-05-03T03:15:57.004806+00:00Z", "free_bikes": 11, "empty_slots": 1, "extra": {"uid": 23001, "address": "", "status": "OPEN", "banking": false, "bonus": false, "last_update": "2025-05-03T03:15:24Z", "slots": 12, "has_ebikes": true, "ebikes": 11, "normal_bikes": 0}}, {"id": "312f6cbc9245230298d222d5748b8716", "name": "12004 - VAULX - H\u00d4TEL DE VILLE", "latitude": 45.778178, "longitude": 4.920544, "timestamp": "2025-05-03T03:15:57.005931+00:00Z", "free_bikes": 18, "empty_slots": 12, "extra": {"uid": 12004, "address": "", "status": "OPEN", "banking": false, "bonus": false, "last_update": "2025-05-03T03:14:44Z", "slots": 30, "has_ebikes": true, "ebikes": 10, "normal_bikes": 8}}, {"id": "3291cad45a86d841a543e16fbc4603cc", "name": "9040 - PLACE RHODIACETA", "latitude": 45.770991, "longitude": 4.807578, "timestamp": "2025-05-03T03:15:57.005344+00:00Z", "free_bikes": 3, "empty_slots": 9, "extra": {"uid": 9040, "address": "1 PLACE DE LA RHODIACETA", "status": "OPEN", "banking": false, "bonus": false, "last_update": "2025-05-03T03:13:43Z", "slots": 12, "has_ebikes": true, "ebikes": 2, "normal_bikes": 1}}, {"id": "329646994bf26906bbb13b15a73bb1e5", "name": "5032 - M\u00c9NIVAL / EISENHOWER", "latitude": 45.756757, "longitude": 4.783206, "timestamp": "2025-05-03T03:15:57.005237+00:00Z", "free_bikes": 8, "empty_slots": 4, "extra": {"uid": 5032, "address": "", "status": "OPEN", "banking": false, "bonus": false, "last_update": "2025-05-03T03:15:08Z", "slots": 12, "has_ebikes": true, "ebikes": 6, "normal_bikes": 2}}, {"id": "32d15bfe42a56d84cbce4c4f058af107", "name": "7031 - JAUR\u00c8S / GERLAND", "latitude": 45.739827, "longitude": 4.840308, "timestamp": "2025-05-03T03:15:57.005450+00:00Z", "free_bikes": 20, "empty_slots": 0, "extra": {"uid": 7031, "address": "42 Rue de Gerland 69007 Lyon", "status": "OPEN", "banking": false, "bonus": false, "last_update": "2025-05-03T03:11:14Z", "slots": 20, "has_ebikes": true, "ebikes": 4, "normal_bikes": 16}}, {"id": "32f29c5136f1a726a7f9597b18442bb6", "name": "2024 - HERRIOT / MAUPIN", "latitude": 45.7590315857425, "longitude": 4.83390624960752, "timestamp": "2025-05-03T03:15:57.005127+00:00Z", "free_bikes": 4, "empty_slots": 20, "extra": {"uid": 2024, "address": "Entre Herriot et R\u00e9publique", "status": "OPEN", "banking": false, "bonus": false, "last_update": "2025-05-03T03:06:16Z", "slots": 24, "has_ebikes": true, "ebikes": 0, "normal_bikes": 4}}, {"id": "3387e4c474a119d883e4c06ad11f0a8c", "name": "14001 - BRON - CENTRE NAUTIQUE", "latitude": 45.742932, "longitude": 4.90863, "timestamp": "2025-05-03T03:15:57.004493+00:00Z", "free_bikes": 3, "empty_slots": 7, "extra": {"uid": 14001, "address": "", "status": "OPEN", "banking": false, "bonus": false, "last_update": "2025-05-03T03:12:05Z", "slots": 13, "has_ebikes": true, "ebikes": 2, "normal_bikes": 1}}, {"id": "338d4c0d8c2baacf5185e42b8fcb22de", "name": "4006 - PHILIPPE DE LASSALLE", "latitude": 45.773358, "longitude": 4.821234, "timestamp": "2025-05-03T03:15:57.004568+00:00Z", "free_bikes": 13, "empty_slots": 10, "extra": {"uid": 4006, "address": "Angle rue Anselme, face \u00e0 l'IUFM", "status": "OPEN", "banking": false, "bonus": false, "last_update": "2025-05-03T03:13:35Z", "slots": 23, "has_ebikes": true, "ebikes": 13, "normal_bikes": 0}}, {"id": "33f32de166a8db9fdf6cbd2fcce4e07b", "name": "3082 - SAXE / MONCEY", "latitude": 45.757578, "longitude": 4.846117, "timestamp": "2025-05-03T03:15:57.005551+00:00Z", "free_bikes": 19, "empty_slots": 8, "extra": {"uid": 3082, "address": "33 RUE MONCEY", "status": "OPEN", "banking": false, "bonus": false, "last_update": "2025-05-03T03:15:33Z", "slots": 28, "has_ebikes": true, "ebikes": 1, "normal_bikes": 18}}, {"id": "34878cc68ce81fd4446076c3d30c7557", "name": "8040 - AMBROISE PAR\u00c9", "latitude": 45.736289, "longitude": 4.883667, "timestamp": "2025-05-03T03:15:57.005340+00:00Z", "free_bikes": 0, "empty_slots": 0, "extra": {"uid": 8040, "address": "Face au 54 Boulevard Ambroise Par\u00e9", "status": "OPEN", "banking": false, "bonus": false, "last_update": "2025-05-03T03:09:11Z", "slots": 24, "has_ebikes": true, "ebikes": 0, "normal_bikes": 0}}, {"id": "34992d2f0f44231d70e826d8c01b9a74", "name": "3083 - LES HALLES", "latitude": 45.761595, "longitude": 4.850477, "timestamp": "2025-05-03T03:15:57.004795+00:00Z", "free_bikes": 3, "empty_slots": 14, "extra": {"uid": 3083, "address": "118 RUE MONCEY", "status": "OPEN", "banking": false, "bonus": false, "last_update": "2025-05-03T03:06:28Z", "slots": 18, "has_ebikes": true, "ebikes": 0, "normal_bikes": 3}}, {"id": "352c2692669bfced4fd168d911a17373", "name": "10112 - PLACE DE LA RECONNAISSANCE", "latitude": 45.754415, "longitude": 4.885249, "timestamp": "2025-05-03T03:15:57.004987+00:00Z", "free_bikes": 31, "empty_slots": 0, "extra": {"uid": 10112, "address": "105 ROUTE DE GENAS (VILLEURBANNE)", "status": "OPEN", "banking": false, "bonus": false, "last_update": "2025-05-03T03:15:37Z", "slots": 32, "has_ebikes": true, "ebikes": 24, "normal_bikes": 7}}, {"id": "354bf1c66a929a76b996f69b6f8f6010", "name": "10021 - GRANDCL\u00c9MENT", "latitude": 45.759743, "longitude": 4.889938, "timestamp": "2025-05-03T03:15:57.004537+00:00Z", "free_bikes": 19, "empty_slots": 0, "extra": {"uid": 10021, "address": "Angle cours Tolsto\u00ef", "status": "OPEN", "banking": false, "bonus": false, "last_update": "2025-05-03T03:13:53Z", "slots": 19, "has_ebikes": true, "ebikes": 12, "normal_bikes": 7}}, {"id": "35639c0f6a4143cdcd170a9e4ceb4b98", "name": "8054 - MARTINI\u00c8RE / MONPLAISIR", "latitude": 45.740865, "longitude": 4.868244, "timestamp": "2025-05-03T03:15:57.004729+00:00Z", "free_bikes": 7, "empty_slots": 12, "extra": {"uid": 8054, "address": "34 RUE ANTOINE LUMIERE", "status": "OPEN", "banking": false, "bonus": false, "last_update": "2025-05-03T03:12:46Z", "slots": 20, "has_ebikes": true, "ebikes": 4, "normal_bikes": 3}}, {"id": "356b98c8fbaa61e40822a74821dd8727", "name": "1024 - ROUVILLE", "latitude": 45.769684, "longitude": 4.824607, "timestamp": "2025-05-03T03:15:57.005305+00:00Z", "free_bikes": 14, "empty_slots": 3, "extra": {"uid": 1024, "address": "PLACE ROUVILLE", "status": "OPEN", "banking": false, "bonus": false, "last_update": "2025-05-03T03:15:17Z", "slots": 17, "has_ebikes": true, "ebikes": 14, "normal_bikes": 0}}, {"id": "357baf5f4be1431ea58eace4be71a0bf", "name": "10055 - CONDORCET / GALLINE", "latitude": 45.776428, "longitude": 4.866976, "timestamp": "2025-05-03T03:15:57.004922+00:00Z", "free_bikes": 11, "empty_slots": 4, "extra": {"uid": 10055, "address": "Avenue Galline/angle av. de Condorcet", "status": "OPEN", "banking": false, "bonus": false, "last_update": "2025-05-03T03:11:20Z", "slots": 15, "has_ebikes": true, "ebikes": 6, "normal_bikes": 5}}, {"id": "36441d3e53679f40cd350d7f90b64a27", "name": "5026 - RUE DE LA BALEINE", "latitude": 45.763383, "longitude": 4.829024, "timestamp": "2025-05-03T03:15:57.005991+00:00Z", "free_bikes": 0, "empty_slots": 14, "extra": {"uid": 5026, "address": "Angle quai Romain Rolland", "status": "OPEN", "banking": false, "bonus": false, "last_update": "2025-05-03T03:09:26Z", "slots": 14, "has_ebikes": true, "ebikes": 0, "normal_bikes": 0}}, {"id": "3784c8451a78014aa0c9868ddb44ed47", "name": "3018 - CR\u00c9QUI / VOLTAIRE", "latitude": 45.756596, "longitude": 4.848442, "timestamp": "2025-05-03T03:15:57.006213+00:00Z", "free_bikes": 13, "empty_slots": 17, "extra": {"uid": 3018, "address": "Angle rue Paul Bert", "status": "OPEN", "banking": false, "bonus": false, "last_update": "2025-05-03T03:09:51Z", "slots": 30, "has_ebikes": true, "ebikes": 3, "normal_bikes": 10}}, {"id": "389f83f300298ce171e3b2d333414130", "name": "3006 - VILLETTE / SAINT-ANTOINE", "latitude": 45.762876, "longitude": 4.862249, "timestamp": "2025-05-03T03:15:57.005624+00:00Z", "free_bikes": 14, "empty_slots": 7, "extra": {"uid": 3006, "address": "", "status": "OPEN", "banking": false, "bonus": false, "last_update": "2025-05-03T03:12:41Z", "slots": 23, "has_ebikes": true, "ebikes": 1, "normal_bikes": 13}}, {"id": "38a68529941eb4d2c28dea15315bf334", "name": "6042 - CIT\u00c9 INTERNATIONALE / R\u00c9SIDENCE H\u00d4TELI\u00c8RE", "latitude": 45.784812, "longitude": 4.856432, "timestamp": "2025-05-03T03:15:57.004390+00:00Z", "free_bikes": 1, "empty_slots": 27, "extra": {"uid": 6042, "address": "devant la r\u00e9sidence h\u00f4teli\u00e8re \u00e0 l'ouest de la place publique", "status": "OPEN", "banking": false, "bonus": false, "last_update": "2025-05-03T03:08:29Z", "slots": 28, "has_ebikes": true, "ebikes": 0, "normal_bikes": 1}}, {"id": "38dc27d852724c71148f7b3fb99fa20f", "name": "13001 - DECINES - CENTRE", "latitude": 45.771902, "longitude": 4.955721, "timestamp": "2025-05-03T03:15:57.004452+00:00Z", "free_bikes": 16, "empty_slots": 4, "extra": {"uid": 13001, "address": "", "status": "OPEN", "banking": false, "bonus": false, "last_update": "2025-05-03T03:12:40Z", "slots": 20, "has_ebikes": true, "ebikes": 10, "normal_bikes": 6}}, {"id": "39251cf99a14730f80a9231ec34df74b", "name": "10053 - ROSSELINI / 11 NOVEMBRE", "latitude": 45.77939, "longitude": 4.863068, "timestamp": "2025-05-03T03:15:57.004681+00:00Z", "free_bikes": 4, "empty_slots": 26, "extra": {"uid": 10053, "address": "Bd du 11 novembre angle av. Claude Bernard", "status": "OPEN", "banking": false, "bonus": false, "last_update": "2025-05-03T03:12:35Z", "slots": 30, "has_ebikes": true, "ebikes": 1, "normal_bikes": 3}}, {"id": "39d716be07eeb3fa5b1dd27b998d6418", "name": "1021 - TERREAUX / BEAUX ARTS", "latitude": 45.767062, "longitude": 4.834294, "timestamp": "2025-05-03T03:15:57.005942+00:00Z", "free_bikes": 0, "empty_slots": 11, "extra": {"uid": 1021, "address": "Rue Herriot - Devant Mus\u00e9e des Beaux Arts", "status": "OPEN", "banking": false, "bonus": false, "last_update": "2025-05-03T03:15:05Z", "slots": 11, "has_ebikes": true, "ebikes": 0, "normal_bikes": 0}}, {"id": "3ba39fe908b69d216d09017beae8427c", "name": "3053 - GAMBETTA / JUSSERAND", "latitude": 45.751123, "longitude": 4.855604, "timestamp": "2025-05-03T03:15:57.005115+00:00Z", "free_bikes": 9, "empty_slots": 2, "extra": {"uid": 3053, "address": "Angle cours Gambetta", "status": "OPEN", "banking": false, "bonus": false, "last_update": "2025-05-03T03:14:34Z", "slots": 13, "has_ebikes": true, "ebikes": 8, "normal_bikes": 1}}, {"id": "3d9f0150b13b10370cdf67b1701e2c6b", "name": "10122 - VERDUN / DESGRAND", "latitude": 45.784023, "longitude": 4.897102, "timestamp": "2025-05-03T03:15:57.004315+00:00Z", "free_bikes": 8, "empty_slots": 13, "extra": {"uid": 10122, "address": "17 RUE DE VERDUN (VILLEURBANNE)", "status": "OPEN", "banking": false, "bonus": false, "last_update": "2025-05-03T03:08:39Z", "slots": 21, "has_ebikes": true, "ebikes": 7, "normal_bikes": 1}}, {"id": "3f06a127b1e8fda3ca3ff3199d741acb", "name": "10012 - ZOLA / FRANCE", "latitude": 45.767957, "longitude": 4.887232, "timestamp": "2025-05-03T03:15:57.004821+00:00Z", "free_bikes": 14, "empty_slots": 2, "extra": {"uid": 10012, "address": "Rue de France/Angle Cours Emile Zola", "status": "OPEN", "banking": false, "bonus": false, "last_update": "2025-05-03T03:15:24Z", "slots": 16, "has_ebikes": true, "ebikes": 6, "normal_bikes": 8}}, {"id": "3f316a493ef99b7db30a6fbf260d33c5", "name": "3004 - BOURSE DU TRAVAIL", "latitude": 45.759648, "longitude": 4.848139, "timestamp": "2025-05-03T03:15:57.004859+00:00Z", "free_bikes": 17, "empty_slots": 9, "extra": {"uid": 3004, "address": "Angle rue Moncey / Part-Dieu", "status": "OPEN", "banking": false, "bonus": false, "last_update": "2025-05-03T03:08:22Z", "slots": 27, "has_ebikes": true, "ebikes": 2, "normal_bikes": 15}}, {"id": "403a90affa4a196192983276a8c42b25", "name": "2016 - PLACE REGAUD", "latitude": 45.763065, "longitude": 4.83425, "timestamp": "2025-05-03T03:15:57.004477+00:00Z", "free_bikes": 0, "empty_slots": 12, "extra": {"uid": 2016, "address": "Angle rue Tupin / rue Herriot", "status": "OPEN", "banking": true, "bonus": false, "last_update": "2025-05-03T03:13:30Z", "slots": 12, "has_ebikes": true, "ebikes": 0, "normal_bikes": 0}}, {"id": "412a896968f67b361df2f0bb53fc8b37", "name": "5055 - BUYER / APOLLINAIRE", "latitude": 45.762013, "longitude": 4.802751, "timestamp": "2025-05-03T03:15:57.005256+00:00Z", "free_bikes": 2, "empty_slots": 20, "extra": {"uid": 5055, "address": "101 AV. BARTHELEMY BUYER", "status": "OPEN", "banking": false, "bonus": false, "last_update": "2025-05-03T03:09:23Z", "slots": 22, "has_ebikes": true, "ebikes": 2, "normal_bikes": 0}}, {"id": "42848c548e5157386c24ba266a246b99", "name": "3138 - VIVIER MERLE / PAUL BERT OUEST", "latitude": 45.757484, "longitude": 4.858386, "timestamp": "2025-05-03T03:15:57.004983+00:00Z", "free_bikes": 12, "empty_slots": 7, "extra": {"uid": 3138, "address": "Devant l'h\u00f4tel IBIS", "status": "OPEN", "banking": false, "bonus": false, "last_update": "2025-05-03T03:07:14Z", "slots": 19, "has_ebikes": true, "ebikes": 0, "normal_bikes": 12}}, {"id": "4288145c8610c12b9e55b46df524a483", "name": "10010 - BAUDIN / ZOLA", "latitude": 45.7651045967603, "longitude": 4.90512854660767, "timestamp": "2025-05-03T03:15:57.005871+00:00Z", "free_bikes": 6, "empty_slots": 10, "extra": {"uid": 10010, "address": "12 rue baudin\nVilleurbanne", "status": "OPEN", "banking": false, "bonus": false, "last_update": "2025-05-03T03:13:07Z", "slots": 16, "has_ebikes": true, "ebikes": 5, "normal_bikes": 1}}, {"id": "43d947806c6ceeafe2c4cd2188284a98", "name": "8034 - BERTHELOT / VILLON", "latitude": 45.738301, "longitude": 4.862727, "timestamp": "2025-05-03T03:15:57.005980+00:00Z", "free_bikes": 10, "empty_slots": 2, "extra": {"uid": 8034, "address": "Angle avenue Berthelot", "status": "OPEN", "banking": false, "bonus": false, "last_update": "2025-05-03T03:13:21Z", "slots": 13, "has_ebikes": true, "ebikes": 3, "normal_bikes": 7}}, {"id": "43fa6db9e3193bd90153b6c863f129f5", "name": "1020 - TERREAUX / CHENAVARD", "latitude": 45.766763, "longitude": 4.832942, "timestamp": "2025-05-03T03:15:57.005670+00:00Z", "free_bikes": 0, "empty_slots": 18, "extra": {"uid": 1020, "address": "Rue Chenavard - C\u00f4t\u00e9 place des Terreaux", "status": "OPEN", "banking": false, "bonus": false, "last_update": "2025-05-03T03:12:35Z", "slots": 18, "has_ebikes": true, "ebikes": 0, "normal_bikes": 0}}, {"id": "44b07c48659a3ff7465b8e214616f772", "name": "3043 - PLACE ROUGET DE L'ISLE", "latitude": 45.753975, "longitude": 4.867336, "timestamp": "2025-05-03T03:15:57.005394+00:00Z", "free_bikes": 13, "empty_slots": 0, "extra": {"uid": 3043, "address": "Avenue Lacassagne", "status": "OPEN", "banking": false, "bonus": false, "last_update": "2025-05-03T03:06:54Z", "slots": 16, "has_ebikes": true, "ebikes": 5, "normal_bikes": 8}}, {"id": "4535a7e8f93c97f7dbb24658b639d13c", "name": "10045 - ALSACE ANATOLE FRANCE", "latitude": 45.766921, "longitude": 4.870087, "timestamp": "2025-05-03T03:15:57.005271+00:00Z", "free_bikes": 12, "empty_slots": 8, "extra": {"uid": 10045, "address": "", "status": "OPEN", "banking": false, "bonus": false, "last_update": "2025-05-03T03:08:26Z", "slots": 20, "has_ebikes": true, "ebikes": 4, "normal_bikes": 8}}, {"id": "46388cfbed6b2c7fca13d5a225aaa702", "name": "9051 - ANDREI SAKHAROV", "latitude": 45.786546, "longitude": 4.797107, "timestamp": "2025-05-03T03:15:57.005641+00:00Z", "free_bikes": 0, "empty_slots": 0, "extra": {"uid": 9051, "address": "373 AV. ANDREI SAKHAROV", "status": "CLOSED", "banking": false, "bonus": false, "last_update": "2025-05-03T03:12:20Z", "slots": 12, "has_ebikes": true, "ebikes": 0, "normal_bikes": 0}}, {"id": "466e91bbc5702a815bd7217d30669056", "name": "10059 - ANATOLE FRANCE / ZOLA", "latitude": 45.76884, "longitude": 4.884276, "timestamp": "2025-05-03T03:15:57.005336+00:00Z", "free_bikes": 4, "empty_slots": 8, "extra": {"uid": 10059, "address": "Rue Anatole France", "status": "OPEN", "banking": false, "bonus": false, "last_update": "2025-05-03T03:14:28Z", "slots": 13, "has_ebikes": true, "ebikes": 2, "normal_bikes": 2}}, {"id": "46c8dcad54f3f0435af9dcfba190b82f", "name": "10034 - DOCTEUR DAMIDOT", "latitude": 45.761825, "longitude": 4.886156, "timestamp": "2025-05-03T03:15:57.004651+00:00Z", "free_bikes": 12, "empty_slots": 5, "extra": {"uid": 10034, "address": "Devant la MJC", "status": "OPEN", "banking": false, "bonus": false, "last_update": "2025-05-03T03:09:34Z", "slots": 18, "has_ebikes": true, "ebikes": 5, "normal_bikes": 7}}, {"id": "47e42c887d8dc5b8687525432258acee", "name": "7013 - HALLE TONY GARNIER", "latitude": 45.730786, "longitude": 4.823733, "timestamp": "2025-05-03T03:15:57.005095+00:00Z", "free_bikes": 0, "empty_slots": 20, "extra": {"uid": 7013, "address": "93\u2013131 Avenue Tony Garnier 69007 Lyon", "status": "OPEN", "banking": false, "bonus": false, "last_update": "2025-05-03T03:11:33Z", "slots": 20, "has_ebikes": true, "ebikes": 0, "normal_bikes": 0}}, {"id": "48e6875bff76891446cda3493a9dbe4b", "name": "10124 - SALENGRO / YVONNE", "latitude": 45.7772936957677, "longitude": 4.87675865740856, "timestamp": "2025-05-03T03:15:57.004825+00:00Z", "free_bikes": 20, "empty_slots": 1, "extra": {"uid": 10124, "address": "1 rue Georges Courteline\n69100 Villeurbanne", "status": "OPEN", "banking": false, "bonus": false, "last_update": "2025-05-03T03:10:34Z", "slots": 24, "has_ebikes": true, "ebikes": 7, "normal_bikes": 13}}, {"id": "49a1cffd61aeff6735f6a519e2383fbc", "name": "1037 - CHAZETTE LASSAGNE", "latitude": 45.77291, "longitude": 4.837315, "timestamp": "2025-05-03T03:15:57.005632+00:00Z", "free_bikes": 14, "empty_slots": 6, "extra": {"uid": 1037, "address": "", "status": "OPEN", "banking": false, "bonus": false, "last_update": "2025-05-03T03:14:57Z", "slots": 20, "has_ebikes": true, "ebikes": 5, "normal_bikes": 9}}, {"id": "4bc288d8f9368c8d05091828b4af4d28", "name": "10018 - TOLSTO\u00cf / FLORIAN", "latitude": 45.7618786774588, "longitude": 4.88106205566506, "timestamp": "2025-05-03T03:15:57.004521+00:00Z", "free_bikes": 0, "empty_slots": 0, "extra": {"uid": 10018, "address": "118 COURS TOLSTOI\n69100 VILLEURBANNE", "status": "OPEN", "banking": false, "bonus": false, "last_update": "2023-08-10T06:10:59Z", "slots": 21, "has_ebikes": true, "ebikes": 0, "normal_bikes": 0}}, {"id": "4e451cab8e421f2ac1fd8fa79014f96f", "name": "11003 - CALUIRE - LA ROCHETTE", "latitude": 45.791748, "longitude": 4.823595, "timestamp": "2025-05-03T03:15:57.005107+00:00Z", "free_bikes": 10, "empty_slots": 10, "extra": {"uid": 11003, "address": "Quai Gillet au  niveau de la place de la Rochette. Caluire et Cuire.", "status": "OPEN", "banking": false, "bonus": false, "last_update": "2025-05-03T03:15:30Z", "slots": 20, "has_ebikes": true, "ebikes": 7, "normal_bikes": 3}}, {"id": "4eaa4d2e7cc4ef96886b6dc6c8e55915", "name": "7041 - DOMER / CHEVREUL", "latitude": 45.746681, "longitude": 4.844455, "timestamp": "2025-05-03T03:15:57.004605+00:00Z", "free_bikes": 1, "empty_slots": 11, "extra": {"uid": 7041, "address": "Rue Domer/angle rue Chevreul", "status": "OPEN", "banking": false, "bonus": false, "last_update": "2025-05-03T03:13:21Z", "slots": 12, "has_ebikes": true, "ebikes": 0, "normal_bikes": 1}}, {"id": "503f966568047bc05d8eab44b969096c", "name": "1002 - OP\u00c9RA", "latitude": 45.767611, "longitude": 4.836619, "timestamp": "2025-05-03T03:15:57.005765+00:00Z", "free_bikes": 2, "empty_slots": 39, "extra": {"uid": 1002, "address": "Angle rue Serlin - Angle place de la com\u00e9die", "status": "OPEN", "banking": false, "bonus": false, "last_update": "2025-05-03T03:10:50Z", "slots": 41, "has_ebikes": true, "ebikes": 1, "normal_bikes": 1}}, {"id": "50da3b04a9fd78b54bcb067d7b20cb9d", "name": "3015 - SERVIENT / GARIBALDI", "latitude": 45.760779, "longitude": 4.85276, "timestamp": "2025-05-03T03:15:57.005493+00:00Z", "free_bikes": 0, "empty_slots": 31, "extra": {"uid": 3015, "address": "Angle rue Garibaldi", "status": "OPEN", "banking": false, "bonus": false, "last_update": "2025-05-03T03:13:27Z", "slots": 32, "has_ebikes": true, "ebikes": 0, "normal_bikes": 0}}, {"id": "5109a0d0364475b12996b83a18e53a9d", "name": "2001 - BELLECOUR / R\u00c9PUBLIQUE", "latitude": 45.758, "longitude": 4.834594, "timestamp": "2025-05-03T03:15:57.005187+00:00Z", "free_bikes": 3, "empty_slots": 13, "extra": {"uid": 2001, "address": "Angle R\u00e9publique / rue de la Barre", "status": "OPEN", "banking": false, "bonus": false, "last_update": "2025-05-03T03:13:29Z", "slots": 18, "has_ebikes": true, "ebikes": 1, "normal_bikes": 2}}, {"id": "51da2d8306dc0676676e2e0dbed8c6fc", "name": "8039 - PIERRE DELORE", "latitude": 45.738617, "longitude": 4.852412, "timestamp": "2025-05-03T03:15:57.006171+00:00Z", "free_bikes": 11, "empty_slots": 9, "extra": {"uid": 8039, "address": "97 ROUTE DE VIENNE", "status": "OPEN", "banking": false, "bonus": false, "last_update": "2025-05-03T03:07:31Z", "slots": 20, "has_ebikes": true, "ebikes": 2, "normal_bikes": 8}}, {"id": "537e4d51be4d415ed3863eed360a40b7", "name": "15002 - ST PRIEST - CITE BERLIET", "latitude": 45.70597, "longitude": 4.900886, "timestamp": "2025-05-03T03:15:57.004277+00:00Z", "free_bikes": 8, "empty_slots": 12, "extra": {"uid": 15002, "address": "", "status": "OPEN", "banking": false, "bonus": false, "last_update": "2025-05-03T03:12:38Z", "slots": 20, "has_ebikes": true, "ebikes": 3, "normal_bikes": 5}}, {"id": "5404bff81dcfa0a3337ba9966a593594", "name": "7049 - CIT\u00c9 SCOLAIRE INTERNATIONALE", "latitude": 45.727951, "longitude": 4.823563, "timestamp": "2025-05-03T03:15:57.005649+00:00Z", "free_bikes": 1, "empty_slots": 23, "extra": {"uid": 7049, "address": "27\u201333 Rue Alexander Fleming 69007 Lyon", "status": "OPEN", "banking": false, "bonus": false, "last_update": "2025-05-03T03:14:37Z", "slots": 25, "has_ebikes": true, "ebikes": 0, "normal_bikes": 1}}, {"id": "5490bf757ee0ceee1171798ff9b39795", "name": "27001 - COLLONGES - GARE", "latitude": 45.830874, "longitude": 4.846988, "timestamp": "2025-05-03T03:15:57.005921+00:00Z", "free_bikes": 18, "empty_slots": 5, "extra": {"uid": 27001, "address": "", "status": "OPEN", "banking": false, "bonus": false, "last_update": "2025-05-03T03:13:16Z", "slots": 24, "has_ebikes": true, "ebikes": 18, "normal_bikes": 0}}, {"id": "55225429663ee0f22500cb1912d0ae2b", "name": "34001 - NEUVILLE - QUAI PASTEUR", "latitude": 45.876622, "longitude": 4.838578, "timestamp": "2025-05-03T03:15:57.005547+00:00Z", "free_bikes": 20, "empty_slots": 0, "extra": {"uid": 34001, "address": "", "status": "OPEN", "banking": false, "bonus": false, "last_update": "2025-05-03T03:10:29Z", "slots": 20, "has_ebikes": true, "ebikes": 14, "normal_bikes": 6}}, {"id": "559aedaae41cad2fb95c11d7b95bcdc0", "name": "7012 - MERIEUX / PAVILLONS", "latitude": 45.7291359373026, "longitude": 4.8301170098658, "timestamp": "2025-05-03T03:15:57.005645+00:00Z", "free_bikes": 9, "empty_slots": 7, "extra": {"uid": 7012, "address": "246 RUE MARCEL MERIEUX", "status": "OPEN", "banking": false, "bonus": false, "last_update": "2025-05-03T03:14:03Z", "slots": 16, "has_ebikes": true, "ebikes": 6, "normal_bikes": 3}}, {"id": "55bde4c82041593ad7674f4204eed015", "name": "16001 - VENISSIEUX - PLACE ROMAND", "latitude": 45.725891, "longitude": 4.858428, "timestamp": "2025-05-03T03:15:57.004320+00:00Z", "free_bikes": 6, "empty_slots": 14, "extra": {"uid": 16001, "address": "", "status": "OPEN", "banking": false, "bonus": false, "last_update": "2025-05-03T03:13:33Z", "slots": 20, "has_ebikes": true, "ebikes": 3, "normal_bikes": 3}}, {"id": "56b81b6acb3824a0de9ad79d73058889", "name": "9022 - MASARYK / SAINT-CYR", "latitude": 45.778639, "longitude": 4.8071, "timestamp": "2025-05-03T03:15:57.004979+00:00Z", "free_bikes": 11, "empty_slots": 0, "extra": {"uid": 9022, "address": "Angle rue Chinard/rue St Cyr", "status": "OPEN", "banking": false, "bonus": false, "last_update": "2025-05-03T03:15:29Z", "slots": 13, "has_ebikes": true, "ebikes": 3, "normal_bikes": 8}}, {"id": "5750bc72262955ce54e0257bc5e34e9d", "name": "10073 - INSTITUT D'ART CONTEMPORAIN", "latitude": 45.761468, "longitude": 4.872466, "timestamp": "2025-05-03T03:15:57.004964+00:00Z", "free_bikes": 25, "empty_slots": 0, "extra": {"uid": 10073, "address": "Rue Docteur Dolard / Angle rue 4 Septembre", "status": "OPEN", "banking": false, "bonus": false, "last_update": "2025-05-03T03:12:57Z", "slots": 25, "has_ebikes": true, "ebikes": 12, "normal_bikes": 13}}, {"id": "589e860769dc315ae4bb8fc4dd84c21a", "name": "2006 - PLACE DE L'HIPPODROME", "latitude": 45.745528, "longitude": 4.82359, "timestamp": "2025-05-03T03:15:57.005195+00:00Z", "free_bikes": 24, "empty_slots": 0, "extra": {"uid": 2006, "address": "Angle cours Charlemagne", "status": "OPEN", "banking": false, "bonus": false, "last_update": "2025-05-03T03:13:44Z", "slots": 24, "has_ebikes": true, "ebikes": 1, "normal_bikes": 23}}, {"id": "5968c7d5135facc4bb715955e992c6e4", "name": "9049 - SERGENT BERTHET / GORGE DE LOUP", "latitude": 45.770136, "longitude": 4.80516, "timestamp": "2025-05-03T03:15:57.004525+00:00Z", "free_bikes": 7, "empty_slots": 9, "extra": {"uid": 9049, "address": "23 RUE GORGE DE LOUP", "status": "OPEN", "banking": false, "bonus": false, "last_update": "2025-05-03T03:11:51Z", "slots": 16, "has_ebikes": true, "ebikes": 4, "normal_bikes": 3}}, {"id": "5984c4ee03a6bdfc65d15234532dc953", "name": "10019 - 4 AOUT / RACINE", "latitude": 45.764489, "longitude": 4.877894, "timestamp": "2025-05-03T03:15:57.005969+00:00Z", "free_bikes": 25, "empty_slots": 3, "extra": {"uid": 10019, "address": "", "status": "OPEN", "banking": false, "bonus": false, "last_update": "2025-05-03T03:15:28Z", "slots": 30, "has_ebikes": true, "ebikes": 5, "normal_bikes": 20}}, {"id": "5a59f3e45976eba38aacdf4be0da80c2", "name": "6017 - LAFAYETTE / INKERMANN", "latitude": 45.764062, "longitude": 4.865802, "timestamp": "2025-05-03T03:15:57.004572+00:00Z", "free_bikes": 23, "empty_slots": 7, "extra": {"uid": 6017, "address": "", "status": "OPEN", "banking": false, "bonus": false, "last_update": "2025-05-03T03:14:33Z", "slots": 30, "has_ebikes": true, "ebikes": 3, "normal_bikes": 20}}, {"id": "5a7edbd932699581460074a502172973", "name": "7062 - GARIBALDI / DOMER", "latitude": 45.747735, "longitude": 4.85162, "timestamp": "2025-05-03T03:15:57.006176+00:00Z", "free_bikes": 3, "empty_slots": 16, "extra": {"uid": 7062, "address": "51 RUE DOMER", "status": "OPEN", "banking": false, "bonus": false, "last_update": "2025-05-03T03:12:33Z", "slots": 19, "has_ebikes": true, "ebikes": 0, "normal_bikes": 3}}, {"id": "5b5408cdbf64dd45a8b3623ba3800733", "name": "7033 - SAINT-LUC / SAINT-JOSEPH", "latitude": 45.749431, "longitude": 4.834816, "timestamp": "2025-05-03T03:15:57.004595+00:00Z", "free_bikes": 6, "empty_slots": 27, "extra": {"uid": 7033, "address": "Sur le quai haut", "status": "OPEN", "banking": false, "bonus": false, "last_update": "2025-05-03T03:14:08Z", "slots": 33, "has_ebikes": true, "ebikes": 0, "normal_bikes": 6}}, {"id": "5c19a6d7419c06fba366f5ebe1913231", "name": "3066 - KIMMERLING / FAURE", "latitude": 45.754296, "longitude": 4.86359, "timestamp": "2025-05-03T03:15:57.004345+00:00Z", "free_bikes": 19, "empty_slots": 0, "extra": {"uid": 3066, "address": "139 AV. FELIX FAURE", "status": "OPEN", "banking": false, "bonus": false, "last_update": "2025-05-03T03:11:39Z", "slots": 19, "has_ebikes": true, "ebikes": 6, "normal_bikes": 13}}, {"id": "5ca352497a3e62cf20e82d81a5344d9c", "name": "16004 - VENISSIEUX PARILLY", "latitude": 45.719746, "longitude": 4.888457, "timestamp": "2025-05-03T03:15:57.005735+00:00Z", "free_bikes": 15, "empty_slots": 9, "extra": {"uid": 16004, "address": "", "status": "OPEN", "banking": false, "bonus": false, "last_update": "2025-05-03T03:11:44Z", "slots": 25, "has_ebikes": true, "ebikes": 12, "normal_bikes": 3}}, {"id": "5d1e05b69a25d212bfaf1e08a835c31d", "name": "12003 - VAULX - BIBLIOTHEQUE", "latitude": 45.757092, "longitude": 4.92731, "timestamp": "2025-05-03T03:15:57.006029+00:00Z", "free_bikes": 6, "empty_slots": 8, "extra": {"uid": 12003, "address": "", "status": "OPEN", "banking": false, "bonus": false, "last_update": "2025-05-03T03:14:02Z", "slots": 15, "has_ebikes": true, "ebikes": 6, "normal_bikes": 0}}, {"id": "5e08a7642ae353563451fb2d83e11e14", "name": "1023 - CROIX ROUSSE / PERFETTI", "latitude": 45.772229, "longitude": 4.819389, "timestamp": "2025-05-03T03:15:57.004378+00:00Z", "free_bikes": 10, "empty_slots": 6, "extra": {"uid": 1023, "address": "16 BVD DE LA CROIX-ROUSSE", "status": "OPEN", "banking": false, "bonus": false, "last_update": "2025-05-03T03:06:22Z", "slots": 20, "has_ebikes": true, "ebikes": 10, "normal_bikes": 0}}, {"id": "5e2bde653282d80e90c470aa7caf0bce", "name": "3009 - MUSEE AFRICAIN", "latitude": 45.750251, "longitude": 4.857919, "timestamp": "2025-05-03T03:15:57.004311+00:00Z", "free_bikes": 9, "empty_slots": 13, "extra": {"uid": 3009, "address": "133 COURS GAMBETTA", "status": "OPEN", "banking": false, "bonus": false, "last_update": "2025-05-03T03:14:10Z", "slots": 22, "has_ebikes": true, "ebikes": 4, "normal_bikes": 5}}, {"id": "5e63d8f7856e4f0ff351bd04500908ea", "name": "10004 - TONKIN", "latitude": 45.776217, "longitude": 4.862636, "timestamp": "2025-05-03T03:15:57.004636+00:00Z", "free_bikes": 3, "empty_slots": 6, "extra": {"uid": 10004, "address": "Rue Salvador Allende / Angle promenade du Lys", "status": "OPEN", "banking": false, "bonus": false, "last_update": "2025-05-03T03:15:38Z", "slots": 10, "has_ebikes": true, "ebikes": 2, "normal_bikes": 1}}, {"id": "5e80cdecab7fe0ad2d1bff86488e3076", "name": "6023 - QUAI SARRAIL", "latitude": 45.766821, "longitude": 4.841095, "timestamp": "2025-05-03T03:15:57.005662+00:00Z", "free_bikes": 1, "empty_slots": 12, "extra": {"uid": 6023, "address": "Niveau rue de S\u00e8ze", "status": "OPEN", "banking": false, "bonus": false, "last_update": "2025-05-03T03:10:51Z", "slots": 14, "has_ebikes": true, "ebikes": 0, "normal_bikes": 1}}, {"id": "5ebb159eeb9f653764b7fd35a60d505f", "name": "10083 - CHATEAU GAILLARD / BIENVENUS", "latitude": 45.777873, "longitude": 4.884238, "timestamp": "2025-05-03T03:15:57.005147+00:00Z", "free_bikes": 15, "empty_slots": 0, "extra": {"uid": 10083, "address": "2 RUE DES BIENVENUS", "status": "OPEN", "banking": false, "bonus": false, "last_update": "2025-05-03T03:11:31Z", "slots": 15, "has_ebikes": true, "ebikes": 6, "normal_bikes": 9}}, {"id": "5fc218ba75f0c1058de1bcfde9e5a9a2", "name": "6035 - CIT\u00c9 INTERNATIONALE", "latitude": 45.785456, "longitude": 4.854085, "timestamp": "2025-05-03T03:15:57.004456+00:00Z", "free_bikes": 1, "empty_slots": 20, "extra": {"uid": 6035, "address": "Face parvis du palais des congr\u00e8s", "status": "OPEN", "banking": false, "bonus": false, "last_update": "2025-05-03T03:12:44Z", "slots": 21, "has_ebikes": true, "ebikes": 0, "normal_bikes": 1}}, {"id": "608dc6915bf3599cacc99019cdf356e6", "name": "3037 - PAUL BERT / GARIBALDI", "latitude": 45.757112, "longitude": 4.853405, "timestamp": "2025-05-03T03:15:57.004440+00:00Z", "free_bikes": 8, "empty_slots": 13, "extra": {"uid": 3037, "address": "Rue Paul Bert", "status": "OPEN", "banking": false, "bonus": false, "last_update": "2025-05-03T03:13:22Z", "slots": 21, "has_ebikes": true, "ebikes": 3, "normal_bikes": 5}}, {"id": "60f37637a6bd4d37e902b7672c8c3cad", "name": "4042 - GREGORY COUPET", "latitude": 45.781699, "longitude": 4.820596, "timestamp": "2025-05-03T03:15:57.004677+00:00Z", "free_bikes": 6, "empty_slots": 10, "extra": {"uid": 4042, "address": "94 RUE PHILIPPE DE LASALLE", "status": "OPEN", "banking": false, "bonus": false, "last_update": "2025-05-03T03:14:00Z", "slots": 16, "has_ebikes": true, "ebikes": 2, "normal_bikes": 4}}, {"id": "61cbffac1bfcbd68f2b69f0d6d1e23c0", "name": "6002 - PORTE DES ENFANTS DU RH\u00d4NE", "latitude": 45.777521, "longitude": 4.844922, "timestamp": "2025-05-03T03:15:57.004580+00:00Z", "free_bikes": 0, "empty_slots": 36, "extra": {"uid": 6002, "address": "Le long des grilles, c\u00f4t\u00e9 ouest de la porte", "status": "OPEN", "banking": true, "bonus": false, "last_update": "2025-05-03T03:11:39Z", "slots": 40, "has_ebikes": true, "ebikes": 0, "normal_bikes": 0}}, {"id": "62028aefd8287521525cf5ed6c29da84", "name": "7024 - BANCEL / CHEVREUL", "latitude": 45.748504, "longitude": 4.840505, "timestamp": "2025-05-03T03:15:57.004361+00:00Z", "free_bikes": 11, "empty_slots": 1, "extra": {"uid": 7024, "address": "6 RUE BANCEL", "status": "OPEN", "banking": false, "bonus": false, "last_update": "2025-05-03T03:15:33Z", "slots": 21, "has_ebikes": true, "ebikes": 4, "normal_bikes": 7}}, {"id": "6292b7f14d6040ea8a7cba31d6f31049", "name": "10088 - 4 AO\u00dbT 1789 / PRESSENS\u00c9", "latitude": 45.76611, "longitude": 4.898539, "timestamp": "2025-05-03T03:15:57.005741+00:00Z", "free_bikes": 18, "empty_slots": 0, "extra": {"uid": 10088, "address": "COURS EMILE ZOLA (VILLEURBANNE)", "status": "OPEN", "banking": false, "bonus": false, "last_update": "2025-05-03T03:15:09Z", "slots": 19, "has_ebikes": true, "ebikes": 5, "normal_bikes": 13}}, {"id": "629aeee1a2bcfaa5278e4b5f53f9ba28", "name": "3069 - DAUPHIN\u00c9 / SAINT-MAXIMIN", "latitude": 45.750002, "longitude": 4.864587, "timestamp": "2025-05-03T03:15:57.004937+00:00Z", "free_bikes": 23, "empty_slots": 2, "extra": {"uid": 3069, "address": "", "status": "OPEN", "banking": false, "bonus": false, "last_update": "2025-05-03T03:09:37Z", "slots": 30, "has_ebikes": true, "ebikes": 14, "normal_bikes": 9}}, {"id": "63164661af85e80ee10992b1cb09028a", "name": "6001 - GARE DES BROTTEAUX", "latitude": 45.766893, "longitude": 4.858922, "timestamp": "2025-05-03T03:15:57.005403+00:00Z", "free_bikes": 0, "empty_slots": 16, "extra": {"uid": 6001, "address": "Place Jules Ferry angle rue G\u00e9n\u00e9ral Brosset face \u00e0 la gare des Brotteaux", "status": "OPEN", "banking": false, "bonus": false, "last_update": "2025-05-03T03:12:10Z", "slots": 16, "has_ebikes": true, "ebikes": 0, "normal_bikes": 0}}, {"id": "6349927b8a68e69171f8dd1d2bf1ab7a", "name": "2009 - CONFLUENCE / DOCKS", "latitude": 45.739652, "longitude": 4.814984, "timestamp": "2025-05-03T03:15:57.005211+00:00Z", "free_bikes": 0, "empty_slots": 0, "extra": {"uid": 2009, "address": "Sur l'esplanade entre la rue Hrant Dink et le 40 quai Rambaud", "status": "CLOSED", "banking": false, "bonus": false, "last_update": "2025-04-30T07:08:35Z", "slots": 26, "has_ebikes": true, "ebikes": 0, "normal_bikes": 0}}, {"id": "638637be2df59fa7bd7655e4ce657f15", "name": "3014 - PART-DIEU/POMPIDOU", "latitude": 45.758925382147, "longitude": 4.86009777897893, "timestamp": "2025-05-03T03:15:57.005160+00:00Z", "free_bikes": 9, "empty_slots": 30, "extra": {"uid": 3014, "address": "Sous le pont rail avenue Pompidou", "status": "OPEN", "banking": false, "bonus": false, "last_update": "2025-05-03T03:11:22Z", "slots": 40, "has_ebikes": true, "ebikes": 0, "normal_bikes": 9}}, {"id": "63e040f654050af33dee07aed1c18847", "name": "7064 - CROUS", "latitude": 45.74541, "longitude": 4.847843, "timestamp": "2025-05-03T03:15:57.005540+00:00Z", "free_bikes": 16, "empty_slots": 1, "extra": {"uid": 7064, "address": "96 RUE CHEVREUL", "status": "OPEN", "banking": false, "bonus": false, "last_update": "2025-05-03T03:13:32Z", "slots": 17, "has_ebikes": true, "ebikes": 7, "normal_bikes": 9}}, {"id": "64e9891e30daf3c06928fce92d5d8fa6", "name": "8059 - LAENNEC / PINEL", "latitude": 45.735375, "longitude": 4.88954, "timestamp": "2025-05-03T03:15:57.005202+00:00Z", "free_bikes": 2, "empty_slots": 13, "extra": {"uid": 8059, "address": "173 BVD PINEL (BRON)", "status": "OPEN", "banking": false, "bonus": false, "last_update": "2025-05-03T03:15:34Z", "slots": 15, "has_ebikes": true, "ebikes": 2, "normal_bikes": 0}}, {"id": "6506c2e7a78a23d79e7434a135c10ad1", "name": "6005 - PLACE EDGAR QUINET", "latitude": 45.765811, "longitude": 4.844767, "timestamp": "2025-05-03T03:15:57.005653+00:00Z", "free_bikes": 5, "empty_slots": 15, "extra": {"uid": 6005, "address": "Devant le lyc\u00e9e", "status": "OPEN", "banking": false, "bonus": false, "last_update": "2025-05-03T03:12:59Z", "slots": 20, "has_ebikes": true, "ebikes": 0, "normal_bikes": 5}}, {"id": "650a96f5123072a9a9bd4d04ead89d46", "name": "7011 - BERTHELOT / GARIBALDI", "latitude": 45.743756, "longitude": 4.847406, "timestamp": "2025-05-03T03:15:57.005290+00:00Z", "free_bikes": 12, "empty_slots": 3, "extra": {"uid": 7011, "address": "Rue Garibaldi - Angle avenue Berthelot", "status": "OPEN", "banking": false, "bonus": false, "last_update": "2025-05-03T03:13:17Z", "slots": 15, "has_ebikes": true, "ebikes": 0, "normal_bikes": 12}}, {"id": "6534a523c338bf851199649cbd7a7e95", "name": "7034 - PISCINE DU RH\u00d4NE", "latitude": 45.753705, "longitude": 4.838283, "timestamp": "2025-05-03T03:15:57.005666+00:00Z", "free_bikes": 0, "empty_slots": 30, "extra": {"uid": 7034, "address": "Sur le quai devant l'entr\u00e9e de la piscine", "status": "OPEN", "banking": false, "bonus": false, "last_update": "2025-05-03T03:13:47Z", "slots": 31, "has_ebikes": true, "ebikes": 0, "normal_bikes": 0}}, {"id": "662da9cbb2f9417b75ced455c35dec80", "name": "3087 - PART-DIEU / GARIBALDI", "latitude": 45.762768, "longitude": 4.852563, "timestamp": "2025-05-03T03:15:57.006185+00:00Z", "free_bikes": 0, "empty_slots": 19, "extra": {"uid": 3087, "address": "4 BVD EUGENE DERUELLE", "status": "OPEN", "banking": false, "bonus": false, "last_update": "2025-05-03T03:12:26Z", "slots": 20, "has_ebikes": true, "ebikes": 0, "normal_bikes": 0}}, {"id": "66328d3e36b1682a9ca44d681df43686", "name": "6044 - CHARMETTES / BELLECOMBE", "latitude": 45.766372, "longitude": 4.865058, "timestamp": "2025-05-03T03:15:57.004544+00:00Z", "free_bikes": 0, "empty_slots": 0, "extra": {"uid": 6044, "address": "23 RUE DE LA VIABERT", "status": "CLOSED", "banking": false, "bonus": false, "last_update": "2025-04-04T06:52:40Z", "slots": 16, "has_ebikes": true, "ebikes": 0, "normal_bikes": 0}}, {"id": "677b63e31e09221fe375dcacff0c74aa", "name": "3034 - GARIBALDI / PENSIONNAT", "latitude": 45.754727, "longitude": 4.85346, "timestamp": "2025-05-03T03:15:57.006047+00:00Z", "free_bikes": 20, "empty_slots": 10, "extra": {"uid": 3034, "address": "", "status": "OPEN", "banking": false, "bonus": false, "last_update": "2025-05-03T03:14:16Z", "slots": 30, "has_ebikes": true, "ebikes": 5, "normal_bikes": 15}}, {"id": "67c1cf0a31ee2e3ee34673a516763c92", "name": "5006 - QUAI ROMAIN ROLLAND", "latitude": 45.7620452080746, "longitude": 4.82872732991442, "timestamp": "2025-05-03T03:15:57.004628+00:00Z", "free_bikes": 0, "empty_slots": 16, "extra": {"uid": 5006, "address": "Face ancien Palais de Justice", "status": "OPEN", "banking": true, "bonus": false, "last_update": "2025-05-03T03:13:31Z", "slots": 17, "has_ebikes": true, "ebikes": 0, "normal_bikes": 0}}, {"id": "697e3ae30ca74fd92089f9f346034f92", "name": "10103 - DOUA / RUE DES SPORTS", "latitude": 45.784526, "longitude": 4.877482, "timestamp": "2025-05-03T03:15:57.005230+00:00Z", "free_bikes": 14, "empty_slots": 14, "extra": {"uid": 10103, "address": "103 ave des Arts / rue des Sports", "status": "OPEN", "banking": false, "bonus": false, "last_update": "2025-05-03T03:10:34Z", "slots": 30, "has_ebikes": true, "ebikes": 7, "normal_bikes": 7}}, {"id": "69a5746cf951708985047fdf9dbffa49", "name": "2007 - PATINOIRE CHARLEMAGNE", "latitude": 45.742617, "longitude": 4.820464, "timestamp": "2025-05-03T03:15:57.005947+00:00Z", "free_bikes": 18, "empty_slots": 16, "extra": {"uid": 2007, "address": "Angle rue Casimir P\u00e9rier", "status": "OPEN", "banking": false, "bonus": false, "last_update": "2025-05-03T03:14:53Z", "slots": 37, "has_ebikes": true, "ebikes": 1, "normal_bikes": 17}}, {"id": "69a6df77b3224cc4da305c9e79850196", "name": "7015 - TECHSUD", "latitude": 45.7228, "longitude": 4.842706, "timestamp": "2025-05-03T03:15:57.004883+00:00Z", "free_bikes": 2, "empty_slots": 10, "extra": {"uid": 7015, "address": "Rue professeur Jean Bernard angle Boulevard Chambaud de la Bruy\u00e8re Lyon 7", "status": "OPEN", "banking": false, "bonus": false, "last_update": "2025-05-03T03:11:24Z", "slots": 12, "has_ebikes": true, "ebikes": 1, "normal_bikes": 1}}, {"id": "69d249af028778164880a28db06050d1", "name": "5031- M\u00c9NIVAL / JOLIOT CURIE", "latitude": 45.754654, "longitude": 4.78821, "timestamp": "2025-05-03T03:15:57.006024+00:00Z", "free_bikes": 6, "empty_slots": 13, "extra": {"uid": 5031, "address": "49 RUE JOLIOT CURIE", "status": "OPEN", "banking": false, "bonus": false, "last_update": "2025-05-03T03:14:23Z", "slots": 20, "has_ebikes": true, "ebikes": 6, "normal_bikes": 0}}, {"id": "6aafad860414b63087a47f616d4a3d3f", "name": "10117 - LA PERRALI\u00c8RE", "latitude": 45.764567, "longitude": 4.892349, "timestamp": "2025-05-03T03:15:57.005293+00:00Z", "free_bikes": 15, "empty_slots": 6, "extra": {"uid": 10117, "address": "166 RUE DU QUATRE AOUT (VILLEURBANNE)", "status": "OPEN", "banking": false, "bonus": false, "last_update": "2025-05-03T03:13:53Z", "slots": 22, "has_ebikes": true, "ebikes": 8, "normal_bikes": 7}}, {"id": "6bc13cd1b76ff880a89b0bb03765fc12", "name": "8009 - JEAN XXIII / MERMOZ", "latitude": 45.73648, "longitude": 4.869789, "timestamp": "2025-05-03T03:15:57.004960+00:00Z", "free_bikes": 19, "empty_slots": 0, "extra": {"uid": 8009, "address": "Boulevard Jean XXIII - Angle de la rue Mermoz", "status": "OPEN", "banking": false, "bonus": false, "last_update": "2025-05-03T03:11:04Z", "slots": 20, "has_ebikes": true, "ebikes": 4, "normal_bikes": 15}}, {"id": "6cf690c621a6e4ab3046015c364f969e", "name": "10063 - PERRIN / JEAN JAUR\u00c8S", "latitude": 45.7579236990649, "longitude": 4.88526502910926, "timestamp": "2025-05-03T03:15:57.005267+00:00Z", "free_bikes": 23, "empty_slots": 8, "extra": {"uid": 10063, "address": "Face au 24 rue Antonin Perrin (Villeurbanne)", "status": "OPEN", "banking": false, "bonus": false, "last_update": "2025-05-03T03:15:03Z", "slots": 34, "has_ebikes": true, "ebikes": 16, "normal_bikes": 7}}, {"id": "6dea3a5f7975f9b758cbc684be5a1175", "name": "4025 - CHAZI\u00c8RE", "latitude": 45.775425, "longitude": 4.817888, "timestamp": "2025-05-03T03:15:57.004332+00:00Z", "free_bikes": 5, "empty_slots": 15, "extra": {"uid": 4025, "address": "29 RUE CHAZIERE", "status": "OPEN", "banking": false, "bonus": false, "last_update": "2025-05-03T03:15:03Z", "slots": 20, "has_ebikes": true, "ebikes": 5, "normal_bikes": 0}}, {"id": "6dffd1fbfb8afa084ca96d949dd4b382", "name": "2041 - SALA / CHARIT\u00c9", "latitude": 45.754468, "longitude": 4.833041, "timestamp": "2025-05-03T03:15:57.005282+00:00Z", "free_bikes": 5, "empty_slots": 16, "extra": {"uid": 2041, "address": "44 RUE SALA", "status": "OPEN", "banking": false, "bonus": false, "last_update": "2025-05-03T03:14:52Z", "slots": 21, "has_ebikes": true, "ebikes": 0, "normal_bikes": 5}}, {"id": "6e7ec24bc75e95d3933a866d1545b96c", "name": "5041 - L'HOMME DE LA ROCHE", "latitude": 45.766576, "longitude": 4.820214, "timestamp": "2025-05-03T03:15:57.006038+00:00Z", "free_bikes": 9, "empty_slots": 11, "extra": {"uid": 5041, "address": "55 QUAI PIERRE SCIZE", "status": "OPEN", "banking": false, "bonus": false, "last_update": "2025-05-03T03:12:42Z", "slots": 21, "has_ebikes": true, "ebikes": 9, "normal_bikes": 0}}, {"id": "6f6b1ec83e1dfef4c38ccf5b7731dd3b", "name": "9014 - QUAI DU COMMERCE", "latitude": 45.7820006188352, "longitude": 4.81043960203213, "timestamp": "2025-05-03T03:15:57.004971+00:00Z", "free_bikes": 6, "empty_slots": 19, "extra": {"uid": 9014, "address": "Angle rue Emile Duport", "status": "OPEN", "banking": false, "bonus": false, "last_update": "2025-05-03T03:15:22Z", "slots": 30, "has_ebikes": true, "ebikes": 0, "normal_bikes": 6}}, {"id": "704c449362f41ea14f0056396221c075", "name": "4026 - BIRMINGHAM", "latitude": 45.774632, "longitude": 4.813425, "timestamp": "2025-05-03T03:15:57.005465+00:00Z", "free_bikes": 13, "empty_slots": 6, "extra": {"uid": 4026, "address": "Avenue Birmingham, sortie tunnel mode doux c\u00f4t\u00e9 Sa\u00f6ne - 69000 Lyon", "status": "OPEN", "banking": false, "bonus": false, "last_update": "2025-05-03T03:11:21Z", "slots": 20, "has_ebikes": true, "ebikes": 2, "normal_bikes": 11}}, {"id": "709e3484fc95102d103ccb7709b71f2a", "name": "4002 - MAIRIE DU 4E", "latitude": 45.774193, "longitude": 4.827743, "timestamp": "2025-05-03T03:15:57.004756+00:00Z", "free_bikes": 0, "empty_slots": 20, "extra": {"uid": 4002, "address": "Devant la mairie du 4\u00b0", "status": "OPEN", "banking": true, "bonus": false, "last_update": "2025-05-03T03:09:18Z", "slots": 20, "has_ebikes": true, "ebikes": 0, "normal_bikes": 0}}, {"id": "711205c78d765fc546a853c98442f03a", "name": "6006 - BOULEVARD DES BELGES", "latitude": 45.773304, "longitude": 4.852001, "timestamp": "2025-05-03T03:15:57.005893+00:00Z", "free_bikes": 3, "empty_slots": 12, "extra": {"uid": 6006, "address": "Boulevard des Belges - Angle rue Duquesne", "status": "OPEN", "banking": true, "bonus": false, "last_update": "2025-05-03T03:10:22Z", "slots": 15, "has_ebikes": true, "ebikes": 0, "normal_bikes": 3}}, {"id": "716038b2fe3fa463e14ac3d2b6bf9312", "name": "16005 - VENISSIEUX - GARE", "latitude": 45.708509, "longitude": 4.886939, "timestamp": "2025-05-03T03:15:57.005964+00:00Z", "free_bikes": 20, "empty_slots": 2, "extra": {"uid": 16005, "address": "", "status": "OPEN", "banking": false, "bonus": false, "last_update": "2025-05-03T03:13:22Z", "slots": 25, "has_ebikes": true, "ebikes": 14, "normal_bikes": 6}}, {"id": "722d443cfce1e15e80dc4c5c57f563ed", "name": "3019 - PART-DIEU / DERUELLE", "latitude": 45.76326, "longitude": 4.85749, "timestamp": "2025-05-03T03:15:57.006005+00:00Z", "free_bikes": 2, "empty_slots": 36, "extra": {"uid": 3019, "address": "Intersection Bd Vivier Merle - Rue Eug\u00e8ne Deruelle Lyon 3", "status": "OPEN", "banking": false, "bonus": false, "last_update": "2025-05-03T03:09:09Z", "slots": 39, "has_ebikes": true, "ebikes": 0, "normal_bikes": 2}}, {"id": "726a8480c2e8590d487221c0d228b8ab", "name": "8037 - CAZENEUVE", "latitude": 45.734027, "longitude": 4.862906, "timestamp": "2025-05-03T03:15:57.005499+00:00Z", "free_bikes": 7, "empty_slots": 12, "extra": {"uid": 8037, "address": "Rue Paul Cazeneuve - Angle du boulevard des Etats-Unis", "status": "OPEN", "banking": false, "bonus": false, "last_update": "2025-05-03T03:15:38Z", "slots": 19, "has_ebikes": true, "ebikes": 4, "normal_bikes": 3}}, {"id": "7277adb63b40b16e1ef8007fb6a33d46", "name": "6020 - MUS\u00c9E GUIMET", "latitude": 45.774526, "longitude": 4.848443, "timestamp": "2025-05-03T03:15:57.004914+00:00Z", "free_bikes": 3, "empty_slots": 12, "extra": {"uid": 6020, "address": "Angle rue Morellet", "status": "OPEN", "banking": false, "bonus": false, "last_update": "2025-05-03T03:15:13Z", "slots": 15, "has_ebikes": true, "ebikes": 2, "normal_bikes": 1}}, {"id": "728c37402e477fd819e5271c54f0fba5", "name": "8060 - SANTY / BEAUVISAGE", "latitude": 45.731708, "longitude": 4.874205, "timestamp": "2025-05-03T03:15:57.005371+00:00Z", "free_bikes": 15, "empty_slots": 2, "extra": {"uid": 8060, "address": "", "status": "OPEN", "banking": false, "bonus": false, "last_update": "2025-05-03T03:14:48Z", "slots": 17, "has_ebikes": true, "ebikes": 11, "normal_bikes": 4}}, {"id": "72da283b74de6815dfe9a776aa41bc9b", "name": "10089 - COLIN / PERRONCEL", "latitude": 45.774581, "longitude": 4.87406, "timestamp": "2025-05-03T03:15:57.004432+00:00Z", "free_bikes": 11, "empty_slots": 4, "extra": {"uid": 10089, "address": "Rue Colin - Angle rue Alexis Perroncel", "status": "OPEN", "banking": false, "bonus": false, "last_update": "2025-05-03T03:15:35Z", "slots": 15, "has_ebikes": true, "ebikes": 3, "normal_bikes": 8}}, {"id": "731294275a094dbfe6fd91cbf564385a", "name": "14003 - BRON - PLACE CURIAL", "latitude": 45.736633, "longitude": 4.917009, "timestamp": "2025-05-03T03:15:57.005099+00:00Z", "free_bikes": 10, "empty_slots": 15, "extra": {"uid": 14003, "address": "", "status": "OPEN", "banking": false, "bonus": false, "last_update": "2025-05-03T03:14:00Z", "slots": 25, "has_ebikes": true, "ebikes": 8, "normal_bikes": 2}}, {"id": "736fdf865951ad2c0a1e22b688ceb05a", "name": "6028 - R\u00c9CAMIER / T\u00caTE D'OR", "latitude": 45.764345, "longitude": 4.853492, "timestamp": "2025-05-03T03:15:57.004648+00:00Z", "free_bikes": 0, "empty_slots": 14, "extra": {"uid": 6028, "address": "Angle rue T\u00eate d'Or", "status": "OPEN", "banking": false, "bonus": false, "last_update": "2025-05-03T03:13:33Z", "slots": 16, "has_ebikes": true, "ebikes": 0, "normal_bikes": 0}}, {"id": "73700f49538e28ac8b50a6440da11861", "name": "10060 - SAINT EXUP\u00c9RY", "latitude": 45.758874, "longitude": 4.878683, "timestamp": "2025-05-03T03:15:57.005439+00:00Z", "free_bikes": 13, "empty_slots": 0, "extra": {"uid": 10060, "address": "Avenue Antoine Saint Exupery", "status": "OPEN", "banking": false, "bonus": false, "last_update": "2025-05-03T03:14:34Z", "slots": 15, "has_ebikes": true, "ebikes": 6, "normal_bikes": 7}}, {"id": "73e1b91ac871fb4714f483aa5a7ce22f", "name": "1035 - QUAI LASSAGNE", "latitude": 45.772191, "longitude": 4.837917, "timestamp": "2025-05-03T03:15:57.005132+00:00Z", "free_bikes": 7, "empty_slots": 8, "extra": {"uid": 1035, "address": "3 QUAI ANDRE LASSAGNE", "status": "OPEN", "banking": false, "bonus": false, "last_update": "2025-05-03T03:11:50Z", "slots": 16, "has_ebikes": true, "ebikes": 1, "normal_bikes": 6}}, {"id": "749d790cb222b75a08e2fcca373929f4", "name": "10101 - EINSTEIN / 11 NOVEMBRE 1918", "latitude": 45.779429, "longitude": 4.873992, "timestamp": "2025-05-03T03:15:57.005714+00:00Z", "free_bikes": 14, "empty_slots": 19, "extra": {"uid": 10101, "address": "43 BVD DU 11 NOVEMBRE 1918 (VILLEURBANNE)", "status": "OPEN", "banking": false, "bonus": false, "last_update": "2025-05-03T03:14:27Z", "slots": 34, "has_ebikes": true, "ebikes": 6, "normal_bikes": 8}}, {"id": "77621ac5fea32a00bf00266839d1443a", "name": "7053 - JAUR\u00c8S / THIBAUDI\u00c8RE", "latitude": 45.750344, "longitude": 4.845048, "timestamp": "2025-05-03T03:15:57.004419+00:00Z", "free_bikes": 3, "empty_slots": 23, "extra": {"uid": 7053, "address": "26 RUE DE LA THIBAUDIERE", "status": "OPEN", "banking": false, "bonus": false, "last_update": "2025-05-03T03:09:54Z", "slots": 28, "has_ebikes": true, "ebikes": 1, "normal_bikes": 2}}, {"id": "7b23cab50e329334148884c20bff9ee3", "name": "10027 - MAIRIE DE VILLEURBANNE", "latitude": 45.766861, "longitude": 4.880059, "timestamp": "2025-05-03T03:15:57.006079+00:00Z", "free_bikes": 21, "empty_slots": 0, "extra": {"uid": 10027, "address": "Avenue Aristide Briand, en face de la mairie", "status": "OPEN", "banking": false, "bonus": false, "last_update": "2025-05-03T03:14:20Z", "slots": 26, "has_ebikes": true, "ebikes": 4, "normal_bikes": 17}}, {"id": "7b2a08ef163b6f79451a4ba8e5613741", "name": "8024 - MERMOZ / MICHELET", "latitude": 45.733317, "longitude": 4.878607, "timestamp": "2025-05-03T03:15:57.004887+00:00Z", "free_bikes": 7, "empty_slots": 4, "extra": {"uid": 8024, "address": "Angle av Michelet", "status": "OPEN", "banking": false, "bonus": false, "last_update": "2025-05-03T03:13:45Z", "slots": 12, "has_ebikes": true, "ebikes": 6, "normal_bikes": 1}}, {"id": "7c6634382ccb9613aeb3e75e56c00b23", "name": "10032 - PRIMAT / DECORPS", "latitude": 45.757173, "longitude": 4.89998, "timestamp": "2025-05-03T03:15:57.005179+00:00Z", "free_bikes": 3, "empty_slots": 10, "extra": {"uid": 10032, "address": "Rue Antoine Primat/Angle rue Decorps", "status": "OPEN", "banking": false, "bonus": false, "last_update": "2025-05-03T03:13:24Z", "slots": 13, "has_ebikes": true, "ebikes": 2, "normal_bikes": 1}}, {"id": "7c68b4562358ab6796a10ce4243e829b", "name": "10013 - CUSSET", "latitude": 45.764961, "longitude": 4.901018, "timestamp": "2025-05-03T03:15:57.006151+00:00Z", "free_bikes": 16, "empty_slots": 4, "extra": {"uid": 10013, "address": "103 RUE PIERRE VOYANT (VILLEURBANNE)", "status": "OPEN", "banking": false, "bonus": false, "last_update": "2025-05-03T03:09:49Z", "slots": 20, "has_ebikes": true, "ebikes": 1, "normal_bikes": 15}}, {"id": "7e083bab14ada35e20bd1954720fb702", "name": "10028 - ECOLE DE MUSIQUE", "latitude": 45.767467, "longitude": 4.874032, "timestamp": "2025-05-03T03:15:57.004267+00:00Z", "free_bikes": 20, "empty_slots": 4, "extra": {"uid": 10028, "address": "Cours de la R\u00e9publique/Angle Anatole France", "status": "OPEN", "banking": false, "bonus": false, "last_update": "2025-05-03T03:14:18Z", "slots": 24, "has_ebikes": true, "ebikes": 10, "normal_bikes": 10}}, {"id": "7e332e78d7bea489b1965f5383c72f5f", "name": "10113 - GARE DE VILLEURBANNE", "latitude": 45.755768, "longitude": 4.891542, "timestamp": "2025-05-03T03:15:57.004336+00:00Z", "free_bikes": 0, "empty_slots": 0, "extra": {"uid": 10113, "address": "49 AV. GENERAL LECLERC (VILLEURBANNE)", "status": "CLOSED", "banking": false, "bonus": false, "last_update": "2025-05-03T03:10:04Z", "slots": 22, "has_ebikes": true, "ebikes": 0, "normal_bikes": 0}}, {"id": "7eb193b3476624e8fd4e512630cc4fd5", "name": "5001 - PLACE VARILLON (FUNICULAIRE ST JUST)", "latitude": 45.757319, "longitude": 4.815064, "timestamp": "2025-05-03T03:15:57.006208+00:00Z", "free_bikes": 3, "empty_slots": 20, "extra": {"uid": 5001, "address": "Devant le n\u00b063 rue de Trion", "status": "OPEN", "banking": true, "bonus": false, "last_update": "2025-05-03T03:09:35Z", "slots": 23, "has_ebikes": true, "ebikes": 3, "normal_bikes": 0}}, {"id": "7f67bfeb613e8b53b7a009ecf671783a", "name": "5015 - FULCHIRON", "latitude": 45.75197, "longitude": 4.821662, "timestamp": "2025-05-03T03:15:57.004228+00:00Z", "free_bikes": 0, "empty_slots": 19, "extra": {"uid": 5015, "address": "Devant le n\u00b041 rue de la Quarantaine", "status": "OPEN", "banking": false, "bonus": false, "last_update": "2025-05-03T03:08:36Z", "slots": 19, "has_ebikes": true, "ebikes": 0, "normal_bikes": 0}}, {"id": "802d3b9e474fcea23a3ffbebb9a75be7", "name": "2025 - MERCI\u00c8RE / FERRANDI\u00c8RE", "latitude": 45.762054, "longitude": 4.833194, "timestamp": "2025-05-03T03:15:57.006015+00:00Z", "free_bikes": 0, "empty_slots": 0, "extra": {"uid": 2025, "address": "Entre rue de Brest et rue Merci\u00e8re", "status": "CLOSED", "banking": false, "bonus": false, "last_update": "2025-04-01T08:10:35Z", "slots": 10, "has_ebikes": true, "ebikes": 0, "normal_bikes": 0}}, {"id": "813a6313f946f9c24eec1df06b1cf07a", "name": "8021 - PAUL SANTY", "latitude": 45.728542, "longitude": 4.877279, "timestamp": "2025-05-03T03:15:57.005183+00:00Z", "free_bikes": 16, "empty_slots": 0, "extra": {"uid": 8021, "address": "Place G\u00e9n\u00e9ral Andr\u00e9 - Face au 126 avenue Paul Santy", "status": "OPEN", "banking": false, "bonus": false, "last_update": "2025-05-03T03:11:32Z", "slots": 16, "has_ebikes": true, "ebikes": 7, "normal_bikes": 9}}, {"id": "81ae5cb29c3ef56d74c0c3bacdf18b0f", "name": "6037 - CIT\u00c9 INTERNATIONALE / INTERPOL", "latitude": 45.782287, "longitude": 4.849378, "timestamp": "2025-05-03T03:15:57.005142+00:00Z", "free_bikes": 3, "empty_slots": 23, "extra": {"uid": 6037, "address": "All\u00e9e A. Lignon", "status": "OPEN", "banking": false, "bonus": false, "last_update": "2025-05-03T03:15:19Z", "slots": 27, "has_ebikes": true, "ebikes": 1, "normal_bikes": 2}}, {"id": "8297e533e7229435b1048fe6054d863d", "name": "14004 - BRON - MAIRIE", "latitude": 45.73403, "longitude": 4.908777, "timestamp": "2025-05-03T03:15:57.004709+00:00Z", "free_bikes": 14, "empty_slots": 9, "extra": {"uid": 14004, "address": "", "status": "OPEN", "banking": false, "bonus": false, "last_update": "2025-05-03T03:15:12Z", "slots": 23, "has_ebikes": true, "ebikes": 14, "normal_bikes": 0}}, {"id": "82e1a3e20f61c397dc9e6307f10b1ae6", "name": "9013 - QUAI PAUL S\u00c9DALLIAN", "latitude": 45.787522, "longitude": 4.814418, "timestamp": "2025-05-03T03:15:57.004261+00:00Z", "free_bikes": 1, "empty_slots": 18, "extra": {"uid": 9013, "address": "Angle rue de la Navigation", "status": "OPEN", "banking": false, "bonus": false, "last_update": "2025-05-03T03:11:40Z", "slots": 20, "has_ebikes": true, "ebikes": 0, "normal_bikes": 1}}, {"id": "837aeffe8f8d20b6649eff825fbc26bd", "name": "10086 - ANATOLE FRANCE", "latitude": 45.769837, "longitude": 4.889629, "timestamp": "2025-05-03T03:15:57.005286+00:00Z", "free_bikes": 5, "empty_slots": 5, "extra": {"uid": 10086, "address": "Angle Rue de Pr\u00e9ssens\u00e9 / Flachet", "status": "OPEN", "banking": false, "bonus": false, "last_update": "2025-05-03T03:14:04Z", "slots": 10, "has_ebikes": true, "ebikes": 4, "normal_bikes": 1}}, {"id": "838a35fd145f6a622e8139b4f5cefec6", "name": "5054 - CHAMPVERT", "latitude": 45.763906, "longitude": 4.792643, "timestamp": "2025-05-03T03:15:57.005753+00:00Z", "free_bikes": 9, "empty_slots": 9, "extra": {"uid": 5054, "address": "192 AV. BARTHELEMY BUYER", "status": "OPEN", "banking": false, "bonus": false, "last_update": "2025-05-03T03:09:53Z", "slots": 18, "has_ebikes": true, "ebikes": 9, "normal_bikes": 0}}, {"id": "83a561a1f9412361b6dc85149b6bce5c", "name": "2037 - PLACE DES ARCHIVES", "latitude": 45.747956, "longitude": 4.824898, "timestamp": "2025-05-03T03:15:57.004705+00:00Z", "free_bikes": 26, "empty_slots": 14, "extra": {"uid": 2037, "address": "12 COURS CHARLEMAGNE", "status": "OPEN", "banking": false, "bonus": false, "last_update": "2025-05-03T03:12:22Z", "slots": 40, "has_ebikes": true, "ebikes": 9, "normal_bikes": 17}}, {"id": "83d2bbb7015fd9f23f6f54beb40a27fc", "name": "10036 - STALINGRAD", "latitude": 45.77435, "longitude": 4.859157, "timestamp": "2025-05-03T03:15:57.006088+00:00Z", "free_bikes": 9, "empty_slots": 11, "extra": {"uid": 10036, "address": "Boulevard Stalingrad/angle rue Charlie Chaplin", "status": "OPEN", "banking": false, "bonus": false, "last_update": "2025-05-03T03:13:11Z", "slots": 21, "has_ebikes": true, "ebikes": 1, "normal_bikes": 8}}, {"id": "841e6f7ad68e81c2123e1989528b72bd", "name": "8050 - BATAILLE / KR\u00dcGER", "latitude": 45.736219, "longitude": 4.879855, "timestamp": "2025-05-03T03:15:57.005679+00:00Z", "free_bikes": 7, "empty_slots": 10, "extra": {"uid": 8050, "address": "", "status": "OPEN", "banking": false, "bonus": false, "last_update": "2025-05-03T03:11:21Z", "slots": 18, "has_ebikes": true, "ebikes": 3, "normal_bikes": 4}}, {"id": "84e4e460c967125fc1e1ad3f1e39e209", "name": "8041 - ETATS-UNIS / VIVIANI", "latitude": 45.724775, "longitude": 4.870745, "timestamp": "2025-05-03T03:15:57.004998+00:00Z", "free_bikes": 11, "empty_slots": 9, "extra": {"uid": 8041, "address": "170 Boulevard des Etats-Unis, Angle Avenue Viviani, direction Venissieux", "status": "OPEN", "banking": false, "bonus": false, "last_update": "2025-05-03T03:15:16Z", "slots": 20, "has_ebikes": true, "ebikes": 6, "normal_bikes": 5}}, {"id": "84edc146cd52f29693c77bf864b6f515", "name": "32001 - COUZON - CENTRE", "latitude": 45.846034, "longitude": 4.832409, "timestamp": "2025-05-03T03:15:57.004235+00:00Z", "free_bikes": 16, "empty_slots": 1, "extra": {"uid": 32001, "address": "", "status": "OPEN", "banking": false, "bonus": false, "last_update": "2025-05-03T03:12:14Z", "slots": 17, "has_ebikes": true, "ebikes": 16, "normal_bikes": 0}}, {"id": "859813a4346e399f816dd8b8a0e7c8f5", "name": "9006 - TH\u00c9\u00c2TRE NOUVELLE G\u00c9N\u00c9RATION", "latitude": 45.777287, "longitude": 4.803297, "timestamp": "2025-05-03T03:15:57.005175+00:00Z", "free_bikes": 8, "empty_slots": 5, "extra": {"uid": 9006, "address": "Rue Tissot / angle rue de Bourgogne", "status": "OPEN", "banking": false, "bonus": false, "last_update": "2025-05-03T03:14:00Z", "slots": 16, "has_ebikes": true, "ebikes": 6, "normal_bikes": 2}}, {"id": "85a0e44ac592a8349b0c2c75cea0d770", "name": "16002 - V\u00c9NISSIEUX - L\u00c9VY / VIENNE", "latitude": 45.719399, "longitude": 4.854681, "timestamp": "2025-05-03T03:15:57.004305+00:00Z", "free_bikes": 12, "empty_slots": 6, "extra": {"uid": 16002, "address": "", "status": "OPEN", "banking": false, "bonus": false, "last_update": "2025-05-03T03:09:52Z", "slots": 18, "has_ebikes": true, "ebikes": 8, "normal_bikes": 4}}, {"id": "8639df58b44a2035a327b5b36d86a615", "name": "4009 - JACQUARD / DENFERT-ROCHEREAU", "latitude": 45.77591, "longitude": 4.825394, "timestamp": "2025-05-03T03:15:57.004428+00:00Z", "free_bikes": 5, "empty_slots": 9, "extra": {"uid": 4009, "address": "Rue Denfert-Rochereau / Angle rue Jacquart", "status": "OPEN", "banking": false, "bonus": false, "last_update": "2025-05-03T03:13:47Z", "slots": 14, "has_ebikes": true, "ebikes": 5, "normal_bikes": 0}}, {"id": "8761385305792625174e9c386a588f0d", "name": "10007 - PIATON / CONDORCET", "latitude": 45.774204, "longitude": 4.867512, "timestamp": "2025-05-03T03:15:57.006199+00:00Z", "free_bikes": 11, "empty_slots": 8, "extra": {"uid": 10007, "address": "Av Piaton / angle Condorcet", "status": "OPEN", "banking": false, "bonus": false, "last_update": "2025-05-03T03:11:07Z", "slots": 20, "has_ebikes": true, "ebikes": 4, "normal_bikes": 7}}, {"id": "879c2da9ba1bca7e4104b54d123bf8b7", "name": "10110 - M\u00c9MOIRE ET SOCI\u00c9T\u00c9", "latitude": 45.75958, "longitude": 4.882739, "timestamp": "2025-05-03T03:15:57.004688+00:00Z", "free_bikes": 18, "empty_slots": 5, "extra": {"uid": 10110, "address": "20 RUE VALENTIN HAUY (VILLEURBANNE)", "status": "OPEN", "banking": false, "bonus": false, "last_update": "2025-05-03T03:15:15Z", "slots": 24, "has_ebikes": true, "ebikes": 4, "normal_bikes": 14}}, {"id": "87b30a6ef0b32a476bc9eb9fd45f76d3", "name": "4007 - PLACE FLAMMARION", "latitude": 45.779332, "longitude": 4.820259, "timestamp": "2025-05-03T03:15:57.004768+00:00Z", "free_bikes": 13, "empty_slots": 4, "extra": {"uid": 4007, "address": "C\u00f4t\u00e9 Rue Philippe de Lassalle", "status": "OPEN", "banking": false, "bonus": false, "last_update": "2025-05-03T03:12:13Z", "slots": 18, "has_ebikes": true, "ebikes": 12, "normal_bikes": 1}}, {"id": "8841d080c82f764c7ec256eaf32786c6", "name": "1022 - PLACE TOLOZAN", "latitude": 45.769508, "longitude": 4.837495, "timestamp": "2025-05-03T03:15:57.005377+00:00Z", "free_bikes": 0, "empty_slots": 35, "extra": {"uid": 1022, "address": "Place Tolozan - Angle nord-est de la place", "status": "OPEN", "banking": false, "bonus": false, "last_update": "2025-05-03T03:06:47Z", "slots": 36, "has_ebikes": true, "ebikes": 0, "normal_bikes": 0}}, {"id": "88a95308b7044d1aa7ab2c3fdc5a3745", "name": "26001 - ST DIDIER", "latitude": 45.791621, "longitude": 4.808426, "timestamp": "2025-05-03T03:15:57.004644+00:00Z", "free_bikes": 8, "empty_slots": 9, "extra": {"uid": 26001, "address": "", "status": "OPEN", "banking": false, "bonus": false, "last_update": "2025-05-03T03:11:44Z", "slots": 17, "has_ebikes": true, "ebikes": 1, "normal_bikes": 7}}, {"id": "8934081fb89b38866f09dcacc01063ba", "name": "8042 - FRANCIS DE PRESSENS\u00c9", "latitude": 45.731361, "longitude": 4.860139, "timestamp": "2025-05-03T03:15:57.004551+00:00Z", "free_bikes": 17, "empty_slots": 5, "extra": {"uid": 8042, "address": "73 RUE CAZENEUVE", "status": "OPEN", "banking": false, "bonus": false, "last_update": "2025-05-03T03:11:44Z", "slots": 22, "has_ebikes": true, "ebikes": 13, "normal_bikes": 4}}, {"id": "89ed32b2b82a54718ee1a5992c53d58b", "name": "7007 - FARGE / AYASSE", "latitude": 45.735741, "longitude": 4.827725, "timestamp": "2025-05-03T03:15:57.004899+00:00Z", "free_bikes": 20, "empty_slots": 0, "extra": {"uid": 7007, "address": "Angle Bld Y. Farge / rue Commandant Ayasse", "status": "OPEN", "banking": false, "bonus": false, "last_update": "2025-05-03T03:14:40Z", "slots": 20, "has_ebikes": true, "ebikes": 2, "normal_bikes": 18}}, {"id": "8b800f2165d24302b600958b89d48436", "name": "9050 - ALLEE DE L'EUROPE", "latitude": 45.783698, "longitude": 4.794485, "timestamp": "2025-05-03T03:15:57.005455+00:00Z", "free_bikes": 0, "empty_slots": 0, "extra": {"uid": 9050, "address": "AVENUE DU PLATEAU", "status": "CLOSED", "banking": false, "bonus": false, "last_update": "2025-05-03T03:11:26Z", "slots": 12, "has_ebikes": true, "ebikes": 0, "normal_bikes": 0}},