{"id": "velopop", "name": "V\u00e9lopop", "location": {"latitude": 43.943689, "longitude": 4.805833, "city": "Avignon", "country": "FR"}, "href": "/v2/networks/velopop", "company": ["TCRA Public Transport Region Avignon", "Fifteen"], "gbfs_href": "", "stations": [{"id": "1151a9708489828a4475961a5a2710f2", "name": "Avignon TGV", "latitude": 43.92349, "longitude": 4.78701, "timestamp": "2025-05-03T03:15:41.951017+00:00Z", "free_bikes": 4, "empty_slots": 16, "extra": {"uid": "cpbfghsqessegmi81de0", "renting": true, "returning": true, "last_updated": 1746242138, "slots": 20, "rental_uris": {"android": "todo://app?sid=cpbfghsqessegmi81de0", "ios": "todo://app?sid=cpbfghsqessegmi81de0"}, "virtual": false}}, {"id": "218d4b3e573fa0ae44b46c4c6d79f5ec", "name": "Combe", "latitude": 43.95332, "longitude": 4.83266, "timestamp": "2025-05-03T03:15:41.950732+00:00Z", "free_bikes": 5, "empty_slots": 5, "extra": {"uid": "cpbfgi40a5bcngo02tfg", "renting": true, "returning": true, "last_updated": 1746242138, "slots": 10, "rental_uris": {"android": "todo://app?sid=cpbfgi40a5bcngo02tfg", "ios": "todo://app?sid=cpbfgi40a5bcngo02tfg"}, "virtual": false}}, {"id": "3032d2a739a9e402f44a3ad74c3ed835", "name": "Gare centre", "latitude": 43.94232, "longitude": 4.805933, "timestamp": "2025-05-03T03:15:41.950755+00:00Z", "free_bikes": 0, "empty_slots": 27, "extra": {"uid": "cpbfgh4qessegmi81ceg", "renting": true, "returning": true, "last_updated": 1746242138, "slots": 30, "rental_uris": {"android": "todo://app?sid=cpbfgh4qessegmi81ceg", "ios": "todo://app?sid=cpbfgh4qessegmi81ceg"}, "virtual": false}}, {"id": "3362408068444eade5d269257c97ee06", "name": "Saint Roch", "latitude": 43.94333, "longitude": 4.80011, "timestamp": "2025-05-03T03:15:41.950977+00:00Z", "free_bikes": 6, "empty_slots": 14, "extra": {"uid": "cpbfgh40a5bcngo02s80", "renting": true, "returning": true, "last_updated": 1746242138, "slots": 20, "rental_uris": {"android": "todo://app?sid=cpbfgh40a5bcngo02s80", "ios": "todo://app?sid=cpbfgh40a5bcngo02s80"}, "virtual": false}}, {"id": "34a7f38da7a582dffa4f993252db3a9a", "name": "Agroparc", "latitude": 43.91569, "longitude": 4.89074, "timestamp": "2025-05-03T03:15:41.950706+00:00Z", "free_bikes": 7, "empty_slots": 13, "extra": {"uid": "cpbfgi4qessegmi81dog", "renting": true, "returning": true, "last_updated": 1746242138, "slots": 20, "rental_uris": {"android": "todo://app?sid=cpbfgi4qessegmi81dog", "ios": "todo://app?sid=cpbfgi4qessegmi81dog"}, "virtual": false}}, {"id": "446a87be6d8f6a6e3cb8de9f7176b90d", "name": "Carmes", "latitude": 43.95083, "longitude": 4.81424, "timestamp": "2025-05-03T03:15:41.951008+00:00Z", "free_bikes": 3, "empty_slots": 16, "extra": {"uid": "cpbfggsqessegmi81c60", "renting": true, "returning": true, "last_updated": 1746242138, "slots": 20, "rental_uris": {"android": "todo://app?sid=cpbfggsqessegmi81c60", "ios": "todo://app?sid=cpbfggsqessegmi81c60"}, "virtual": false}}, {"id": "50520fecadcabcded786c44deb5e35e6", "name": "Limbert", "latitude": 43.94388, "longitude": 4.81479, "timestamp": "2025-05-03T03:15:41.950801+00:00Z", "free_bikes": 0, "empty_slots": 30, "extra": {"uid": "cpbfggsqessegmi81ccg", "renting": true, "returning": true, "last_updated": 1746242138, "slots": 30, "rental_uris": {"android": "todo://app?sid=cpbfggsqessegmi81ccg", "ios": "todo://app?sid=cpbfggsqessegmi81ccg"}, "virtual": false}}, {"id": "509abd0893e3603688d214b8ce720611", "name": "H\u00f4pital", "latitude": 43.922, "longitude": 4.80317, "timestamp": "2025-05-03T03:15:41.950768+00:00Z", "free_bikes": 14, "empty_slots": 0, "extra": {"uid": "cpbfghs0a5bcngo02t10", "renting": true, "returning": true, "last_updated": 1746242138, "slots": 10, "rental_uris": {"android": "todo://app?sid=cpbfghs0a5bcngo02t10", "ios": "todo://app?sid=cpbfghs0a5bcngo02t10"}, "virtual": false}}, {"id": "5efb1386eaa9955ed3ec24a9b584cbd6", "name": "Parking Piot", "latitude": 43.9509, "longitude": 4.79352, "timestamp": "2025-05-03T03:15:41.950845+00:00Z", "free_bikes": 8, "empty_slots": 2, "extra": {"uid": "cpbfgh4qessegmi81ci0", "renting": true, "returning": true, "last_updated": 1746242138, "slots": 10, "rental_uris": {"android": "todo://app?sid=cpbfgh4qessegmi81ci0", "ios": "todo://app?sid=cpbfgh4qessegmi81ci0"}, "virtual": false}}, {"id": "5f1543ac81e58b21503c5a1016c29c41", "name": "H\u00f4tel de Ville", "latitude": 43.94903, "longitude": 4.80519, "timestamp": "2025-05-03T03:15:41.950778+00:00Z", "free_bikes": 0, "empty_slots": 30, "extra": {"uid": "cpbfggsqessegmi81c1g", "renting": true, "returning": true, "last_updated": 1746242138, "slots": 30, "rental_uris": {"android": "todo://app?sid=cpbfggsqessegmi81c1g", "ios": "todo://app?sid=cpbfggsqessegmi81c1g"}, "virtual": false}}, {"id": "6633fa3ead00e5685561ba8fd076a0d7", "name": "Place Pie", "latitude": 43.94869, "longitude": 4.80964, "timestamp": "2025-05-03T03:15:41.950866+00:00Z", "free_bikes": 0, "empty_slots": 20, "extra": {"uid": "cpbfggsqessegmi81c3g", "renting": true, "returning": true, "last_updated": 1746242138, "slots": 20, "rental_uris": {"android": "todo://app?sid=cpbfggsqessegmi81c3g", "ios": "todo://app?sid=cpbfggsqessegmi81c3g"}, "virtual": false}}, {"id": "6aa4eb736d013de0129f55fe89b475be", "name": "Pont des Deux Eaux", "latitude": 43.94629, "longitude": 4.84307, "timestamp": "2025-05-03T03:15:41.950924+00:00Z", "free_bikes": 12, "empty_slots": 8, "extra": {"uid": "cpbfgi40a5bcngo02tlg", "renting": true, "returning": true, "last_updated": 1746242138, "slots": 20, "rental_uris": {"android": "todo://app?sid=cpbfgi40a5bcngo02tlg", "ios": "todo://app?sid=cpbfgi40a5bcngo02tlg"}, "virtual": false}}, {"id": "7fad131f3c2f0c8e75a55651e785b399", "name": "Saint Jean ", "latitude": 43.94737, "longitude": 4.82751, "timestamp": "2025-05-03T03:15:41.950955+00:00Z", "free_bikes": 8, "empty_slots": 13, "extra": {"uid": "cpbfghs0a5bcngo02tdg", "renting": true, "returning": true, "last_updated": 1746242138, "slots": 20, "rental_uris": {"android": "todo://app?sid=cpbfghs0a5bcngo02tdg", "ios": "todo://app?sid=cpbfghs0a5bcngo02tdg"}, "virtual": false}}, {"id": "88bdcc191dc7cc77dcaa13404539347c", "name": "Les Sources", "latitude": 43.93072, "longitude": 4.82594, "timestamp": "2025-05-03T03:15:41.950790+00:00Z", "free_bikes": 17, "empty_slots": 4, "extra": {"uid": "cpbfghs0a5bcngo02t6g", "renting": true, "returning": true, "last_updated": 1746242138, "slots": 20, "rental_uris": {"android": "todo://app?sid=cpbfghs0a5bcngo02t6g", "ios": "todo://app?sid=cpbfghs0a5bcngo02t6g"}, "virtual": false}}, {"id": "8cc86335ca964b1112011e8c606cc28d", "name": "Saint Chamand", "latitude": 43.93044, "longitude": 4.84197, "timestamp": "2025-05-03T03:15:41.950945+00:00Z", "free_bikes": 5, "empty_slots": 5, "extra": {"uid": "cpbfgi4qessegmi81dkg", "renting": true, "returning": true, "last_updated": 1746242138, "slots": 10, "rental_uris": {"android": "todo://app?sid=cpbfgi4qessegmi81dkg", "ios": "todo://app?sid=cpbfgi4qessegmi81dkg"}, "virtual": false}}, {"id": "8cda9f8ad3663a2b1432693a98aaa5ba", "name": "Office de tourisme", "latitude": 43.96318, "longitude": 4.80006, "timestamp": "2025-05-03T03:15:41.950824+00:00Z", "free_bikes": 4, "empty_slots": 4, "extra": {"uid": "cpbfgh40a5bcngo02sc0", "renting": true, "returning": true, "last_updated": 1746242138, "slots": 10, "rental_uris": {"android": "todo://app?sid=cpbfgh40a5bcngo02sc0", "ios": "todo://app?sid=cpbfgh40a5bcngo02sc0"}, "virtual": false}}, {"id": "8dd30bce286e0c08826291ae22eae5d6", "name": "Pigeonnier", "latitude": 43.95533, "longitude": 4.84114, "timestamp": "2025-05-03T03:15:41.950856+00:00Z", "free_bikes": 10, "empty_slots": 0, "extra": {"uid": "cpbfgi4qessegmi81dig", "renting": true, "returning": true, "last_updated": 1746242138, "slots": 10, "rental_uris": {"android": "todo://app?sid=cpbfgi4qessegmi81dig", "ios": "todo://app?sid=cpbfgi4qessegmi81dig"}, "virtual": false}}, {"id": "9034d673347d70eb30d5f1ebceb55247", "name": "Maria Casares", "latitude": 43.9354, "longitude": 4.82946, "timestamp": "2025-05-03T03:15:41.950813+00:00Z", "free_bikes": 10, "empty_slots": 9, "extra": {"uid": "cpbfghs0a5bcngo02t9g", "renting": true, "returning": true, "last_updated": 1746242138, "slots": 20, "rental_uris": {"android": "todo://app?sid=cpbfghs0a5bcngo02t9g", "ios": "todo://app?sid=cpbfghs0a5bcngo02t9g"}, "virtual": false}}, {"id": "934baf6a603ebfbaa645aebcf44b235d", "name": "Saint Lazare", "latitude": 43.95089, "longitude": 4.81943, "timestamp": "2025-05-03T03:15:41.950966+00:00Z", "free_bikes": 0, "empty_slots": 20, "extra": {"uid": "cpbfggsqessegmi81c8g", "renting": true, "returning": true, "last_updated": 1746242138, "slots": 20, "rental_uris": {"android": "todo://app?sid=cpbfggsqessegmi81c8g", "ios": "todo://app?sid=cpbfggsqessegmi81c8g"}, "virtual": false}}, {"id": "951779971a391669854ea8dc595eee42", "name": "Tour le Bel", "latitude": 43.958, "longitude": 4.79653, "timestamp": "2025-05-03T03:15:41.950998+00:00Z", "free_bikes": 7, "empty_slots": 3, "extra": {"uid": "cpbfgh4qessegmi81cr0", "renting": true, "returning": true, "last_updated": 1746242138, "slots": 10, "rental_uris": {"android": "todo://app?sid=cpbfgh4qessegmi81cr0", "ios": "todo://app?sid=cpbfgh4qessegmi81cr0"}, "virtual": false}}, {"id": "99724f60c8ffbef1acf28b7406c01415", "name": "Place Saint Ruf", "latitude": 43.93607, "longitude": 4.81049, "timestamp": "2025-05-03T03:15:41.950909+00:00Z", "free_bikes": 21, "empty_slots": 0, "extra": {"uid": "cpbfghs0a5bcngo02ssg", "renting": true, "returning": true, "last_updated": 1746242138, "slots": 20, "rental_uris": {"android": "todo://app?sid=cpbfghs0a5bcngo02ssg", "ios": "todo://app?sid=cpbfghs0a5bcngo02ssg"}, "virtual": false}}, {"id": "d79b12432578e38af03c53147bb70589", "name": "Place Thomas", "latitude": 43.96212, "longitude": 4.85973, "timestamp": "2025-05-03T03:15:41.950592+00:00Z", "free_bikes": 11, "empty_slots": 0, "extra": {"uid": "cpbfgi4qessegmi81dsg", "renting": true, "returning": true, "last_updated": 1746242138, "slots": 10, "rental_uris": {"android": "todo://app?sid=cpbfgi4qessegmi81dsg", "ios": "todo://app?sid=cpbfgi4qessegmi81dsg"}, "virtual": false}}, {"id": "dac08d8d57b3e24c062bac4dfb396cf5", "name": "Montfavet centre", "latitude": 43.93539, "longitude": 4.87169, "timestamp": "2025-05-03T03:15:41.950687+00:00Z", "free_bikes": 13, "empty_slots": 0, "extra": {"uid": "cpbfgi4qessegmi81dqg", "renting": true, "returning": true, "last_updated": 1746242138, "slots": 10, "rental_uris": {"android": "todo://app?sid=cpbfgi4qessegmi81dqg", "ios": "todo://app?sid=cpbfgi4qessegmi81dqg"}, "virtual": false}}, {"id": "dce31a18919057b1526f941511d3d38b", "name": "Oulle", "latitude": 43.95005, "longitude": 4.80215, "timestamp": "2025-05-03T03:15:41.950834+00:00Z", "free_bikes": 5, "empty_slots": 15, "extra": {"uid": "cpbfgh40a5bcngo02sa0", "renting": true, "returning": true, "last_updated": 1746242138, "slots": 20, "rental_uris": {"android": "todo://app?sid=cpbfgh40a5bcngo02sa0", "ios": "todo://app?sid=cpbfgh40a5bcngo02sa0"}, "virtual": false}}, {"id": "dd9f771ecab90398e77b71b2e589c557", "name": "Agrosciences", "latitude": 43.91214, "longitude": 4.89008, "timestamp": "2025-05-03T03:15:41.950720+00:00Z", "free_bikes": 1, "empty_slots": 19, "extra": {"uid": "cpbfgi4qessegmi81dmg", "renting": true, "returning": true, "last_updated": 1746242138, "slots": 20, "rental_uris": {"android": "todo://app?sid=cpbfgi4qessegmi81dmg", "ios": "todo://app?sid=cpbfgi4qessegmi81dmg"}, "virtual": false}}, {"id": "f1d59c6fc86c4d97108fc16ff61e9ad2", "name": "Galaxie", "latitude": 43.9421, "longitude": 4.8221, "timestamp": "2025-05-03T03:15:41.950744+00:00Z", "free_bikes": 6, "empty_slots": 14, "extra": {"uid": "cpbfghs0a5bcngo02tbg", "renting": true, "returning": true, "last_updated": 1746242138, "slots": 20, "rental_uris": {"android": "todo://app?sid=cpbfghs0a5bcngo02tbg", "ios": "todo://app?sid=cpbfghs0a5bcngo02tbg"}, "virtual": false}}, {"id": "f7ff7058731392c8251eb45a568c2bde", "name": "Thiers", "latitude": 43.9465, "longitude": 4.81753, "timestamp": "2025-05-03T03:15:41.950987+00:00Z", "free_bikes": 0, "empty_slots": 20, "extra": {"uid": "cpbfggsqessegmi81cag", "renting": true, "returning": true, "last_updated": 1746242138, "slots": 20, "rental_uris": {"android": "todo://app?sid=cpbfggsqessegmi81cag", "ios": "todo://app?sid=cpbfggsqessegmi81cag"}, "virtual": false}}, {"id": "fe5d160ad5c4733fdafe800c3ac4be8b", "name": "Rotonde", "latitude": 43.9391, "longitude": 4.82137, "timestamp": "2025-05-03T03:15:41.950935+00:00Z", "free_bikes": 2, "empty_slots": 17, "extra": {"uid": "cpbfghsqessegmi81dgg", "renting": true, "returning": true, "last_updated": 1746242138, "slots": 20, "rental_uris": {"android": "todo://app?sid=cpbfghsqessegmi81dgg", "ios": "todo://app?sid=cpbfghsqessegmi81dgg"}, "virtual": false}}]}