{"id": "veloh", "name": "Veloh", "location": {"latitude": 49.6301025, "longitude": 6.1520185, "city": "Luxembourg", "country": "LU"}, "href": "/v2/networks/veloh", "company": ["JCDecaux"], "system": "Cyclocity", "license": {"name": "Open Licence", "url": "https://developer.jcdecaux.com/#/opendata/licence"}, "source": "https://developer.jcdecaux.com", "stations": [{"id": "01764f665ff7f685f9b1bc2af86062a7", "name": "#00126-SALLES DES F\u00caTES HOLZEM", "latitude": 49.615901, "longitude": 5.993194, "timestamp": "2025-05-03T03:15:56.932178+00:00Z", "free_bikes": 17, "empty_slots": 3, "extra": {"uid": 126, "address": "Route de Garnich 3", "status": "OPEN", "banking": false, "bonus": false, "last_update": "2025-05-03T03:14:56Z", "slots": 20, "has_ebikes": true, "ebikes": 16, "normal_bikes": 0}}, {"id": "0188a4f3a20b5d250bb6aa736d395bb2", "name": "#00109-FOYER", "latitude": 49.569178, "longitude": 6.08175, "timestamp": "2025-05-03T03:15:56.932503+00:00Z", "free_bikes": 1, "empty_slots": 13, "extra": {"uid": 109, "address": "FOYER - RUE L\u00c9ON LAVAL N\u00b021", "status": "OPEN", "banking": false, "bonus": false, "last_update": "2025-05-03T03:11:11Z", "slots": 15, "has_ebikes": true, "ebikes": 1, "normal_bikes": 0}}, {"id": "02a24672de9d4a75a70c37e504238055", "name": "#00053-LUDWIG VAN BEETHOVEN", "latitude": 49.59, "longitude": 6.1172, "timestamp": "2025-05-03T03:15:56.932157+00:00Z", "free_bikes": 10, "empty_slots": 7, "extra": {"uid": 53, "address": "- LUDWIG VAN BEETHOVEN - RUE LUDWIG VAN BEETHOVEN ( DEVANT N\u00b0 45 )", "status": "OPEN", "banking": false, "bonus": false, "last_update": "2025-05-03T03:14:43Z", "slots": 20, "has_ebikes": true, "ebikes": 10, "normal_bikes": 0}}, {"id": "052fe154d4500728fdb6e18abb1cb273", "name": "#00013-GELLE FRA", "latitude": 49.60951, "longitude": 6.128503, "timestamp": "2025-05-03T03:15:56.932359+00:00Z", "free_bikes": 4, "empty_slots": 17, "extra": {"uid": 13, "address": "GELLE FRA - Bd Franklin Delano Roosevelt 33", "status": "OPEN", "banking": false, "bonus": false, "last_update": "2025-05-03T03:14:54Z", "slots": 25, "has_ebikes": true, "ebikes": 4, "normal_bikes": 0}}, {"id": "06a30dea18e7fb5f619a853b696142a9", "name": "#00116-CHARLY'S STATION", "latitude": 49.649823, "longitude": 6.225796, "timestamp": "2025-05-03T03:15:56.932628+00:00Z", "free_bikes": 4, "empty_slots": 16, "extra": {"uid": 116, "address": "CHARLY'S STATION - RUE DE GR\u00dcNEWALD / CH\u00c2TEAU D'EAU \u00c0 2633 SENNINGERBERG", "status": "OPEN", "banking": false, "bonus": false, "last_update": "2025-05-03T03:13:23Z", "slots": 20, "has_ebikes": true, "ebikes": 4, "normal_bikes": 0}}, {"id": "0743b86cf88dc71795e7ac493afe57c7", "name": "#00061-FRIEDEN", "latitude": 49.637327, "longitude": 6.164573, "timestamp": "2025-05-03T03:15:56.932725+00:00Z", "free_bikes": 6, "empty_slots": 13, "extra": {"uid": 61, "address": "FRIEDEN - BVD PIERRE FRIEDEN", "status": "OPEN", "banking": false, "bonus": false, "last_update": "2025-05-03T03:12:32Z", "slots": 20, "has_ebikes": true, "ebikes": 6, "normal_bikes": 0}}, {"id": "07c70946ce6d46c79228c220da564889", "name": "#00077-FUNICULAIRE", "latitude": 49.618823, "longitude": 6.136324, "timestamp": "2025-05-03T03:15:56.932333+00:00Z", "free_bikes": 1, "empty_slots": 19, "extra": {"uid": 77, "address": "Avenue J.F.Kennedy/Parvis au Plateau KB pr\u00e9s de l'arr\u00eat Pafendall", "status": "OPEN", "banking": false, "bonus": false, "last_update": "2025-05-03T03:14:18Z", "slots": 20, "has_ebikes": true, "ebikes": 1, "normal_bikes": 0}}, {"id": "0961af64055ef8c36ac76e4baa991907", "name": "#00067-MAIRIE DE HESPERANGE", "latitude": 49.571924, "longitude": 6.15965, "timestamp": "2025-05-03T03:15:56.932598+00:00Z", "free_bikes": 13, "empty_slots": 2, "extra": {"uid": 67, "address": "MAIRIE DE HESPERANGE - ROUTE DE THIONVILLE 474", "status": "OPEN", "banking": false, "bonus": false, "last_update": "2025-05-03T03:15:01Z", "slots": 20, "has_ebikes": true, "ebikes": 13, "normal_bikes": 0}}, {"id": "09e6e56e6be6b8df864383428a02e23c", "name": "#00139-HUESCHTERT", "latitude": 49.657941, "longitude": 6.231683, "timestamp": "2025-05-03T03:15:56.932560+00:00Z", "free_bikes": 4, "empty_slots": 11, "extra": {"uid": 139, "address": "Rue de la Gare 9 x Place Charly 1", "status": "OPEN", "banking": false, "bonus": false, "last_update": "2025-05-03T03:12:04Z", "slots": 15, "has_ebikes": true, "ebikes": 4, "normal_bikes": 0}}, {"id": "0a7c78a86dc6905ee7479fb81d9b5f4e", "name": "#00038-HELLEG GEESCHT", "latitude": 49.60771, "longitude": 6.13456, "timestamp": "2025-05-03T03:15:56.932305+00:00Z", "free_bikes": 5, "empty_slots": 14, "extra": {"uid": 38, "address": "HELLEG GEESCHT - PLATEAU SAINT ESPRIT", "status": "OPEN", "banking": false, "bonus": false, "last_update": "2025-05-03T03:10:29Z", "slots": 20, "has_ebikes": true, "ebikes": 5, "normal_bikes": 0}}, {"id": "0acc5b56cfae69822c441f2cc877ee26", "name": "#00060-BOCH", "latitude": 49.61925, "longitude": 6.10842, "timestamp": "2025-05-03T03:15:56.932669+00:00Z", "free_bikes": 19, "empty_slots": 0, "extra": {"uid": 60, "address": "BOCH - RUE J-F BOCH", "status": "OPEN", "banking": false, "bonus": false, "last_update": "2025-05-03T03:14:40Z", "slots": 20, "has_ebikes": true, "ebikes": 19, "normal_bikes": 0}}, {"id": "0bd9e0e66b6c9e1eef90ae50f4a1474e", "name": "#00004-ROCADE", "latitude": 49.602989, "longitude": 6.136083, "timestamp": "2025-05-03T03:15:56.932449+00:00Z", "free_bikes": 5, "empty_slots": 18, "extra": {"uid": 4, "address": "ROCADE-RUE DU LABORATOIRE ( DEVANT VDL )", "status": "OPEN", "banking": false, "bonus": false, "last_update": "2025-05-03T03:12:42Z", "slots": 25, "has_ebikes": true, "ebikes": 5, "normal_bikes": 0}}, {"id": "0dbf5d9fa8f4713926ee00b05784665d", "name": "#00011-WINSTON CHURCHILL", "latitude": 49.611317, "longitude": 6.120003, "timestamp": "2025-05-03T03:15:56.932225+00:00Z", "free_bikes": 0, "empty_slots": 14, "extra": {"uid": 11, "address": "WINSTON CHURCHILL - PLACE CHURCHILL", "status": "OPEN", "banking": false, "bonus": false, "last_update": "2025-05-03T03:13:15Z", "slots": 15, "has_ebikes": true, "ebikes": 0, "normal_bikes": 0}}, {"id": "0fb61f8897c25825b3622e2a6956290d", "name": "#00016-AMELIE", "latitude": 49.613339, "longitude": 6.125794, "timestamp": "2025-05-03T03:15:56.932344+00:00Z", "free_bikes": 0, "empty_slots": 19, "extra": {"uid": 16, "address": "- AMELIE - BOULEVARD ROYAL / AVENUE AMELIE", "status": "OPEN", "banking": false, "bonus": false, "last_update": "2025-05-03T03:13:10Z", "slots": 20, "has_ebikes": true, "ebikes": 0, "normal_bikes": 0}}, {"id": "11aad425bc2a4de08ca375b96f23c7c0", "name": "#00030-MERKELS PLAZ", "latitude": 49.599846, "longitude": 6.122565, "timestamp": "2025-05-03T03:15:56.932325+00:00Z", "free_bikes": 14, "empty_slots": 3, "extra": {"uid": 30, "address": "MERKELS PLAZ - RUE JEAN BAPTISTE MERKELS / Bd CHARLES MARX", "status": "OPEN", "banking": false, "bonus": false, "last_update": "2025-05-03T03:13:04Z", "slots": 20, "has_ebikes": true, "ebikes": 14, "normal_bikes": 0}}, {"id": "11f002f706a9a8b86f59bb257284b17a", "name": "#00130-LYC\u00c9E JOSY BARTEL MAMER", "latitude": 49.622397, "longitude": 6.036232, "timestamp": "2025-05-03T03:15:56.932370+00:00Z", "free_bikes": 1, "empty_slots": 18, "extra": {"uid": 130, "address": "Rue Gaston Thorn 4", "status": "OPEN", "banking": false, "bonus": false, "last_update": "2025-05-03T03:10:12Z", "slots": 20, "has_ebikes": true, "ebikes": 1, "normal_bikes": 0}}, {"id": "122f76c61d8a35dbeeb205e0ff64c10a", "name": "#00059-ST HUBERT", "latitude": 49.60289, "longitude": 6.09322, "timestamp": "2025-05-03T03:15:56.932646+00:00Z", "free_bikes": 17, "empty_slots": 2, "extra": {"uid": 59, "address": "ST HUBERT - RUE DE MERL 147 / RUE ST HUBERT", "status": "OPEN", "banking": false, "bonus": false, "last_update": "2025-05-03T03:11:49Z", "slots": 20, "has_ebikes": true, "ebikes": 17, "normal_bikes": 0}}, {"id": "166491c1369be81285fddf20e75826bd", "name": "#00110-ROND-POINT GAASSCHTBIERG", "latitude": 49.627159, "longitude": 6.031948, "timestamp": "2025-05-03T03:15:56.932695+00:00Z", "free_bikes": 11, "empty_slots": 6, "extra": {"uid": 110, "address": "Route d'Arlon x Rue de la Lib\u00e9ration", "status": "OPEN", "banking": false, "bonus": false, "last_update": "2025-05-03T03:12:24Z", "slots": 20, "has_ebikes": true, "ebikes": 11, "normal_bikes": 0}}, {"id": "1665b23a39f1a6806d9eec22d0cf3f13", "name": "#00009-CONVICT", "latitude": 49.6059, "longitude": 6.1199, "timestamp": "2025-05-03T03:15:56.932635+00:00Z", "free_bikes": 4, "empty_slots": 14, "extra": {"uid": 9, "address": "CONVICT - PLACE DU FOYER", "status": "OPEN", "banking": false, "bonus": false, "last_update": "2025-05-03T03:10:48Z", "slots": 20, "has_ebikes": true, "ebikes": 4, "normal_bikes": 0}}, {"id": "1797f46eda03392c001aae1ce476315b", "name": "#00103-ALZINGEN G\u00c4SSEL", "latitude": 49.568074, "longitude": 6.163927, "timestamp": "2025-05-03T03:15:56.932472+00:00Z", "free_bikes": 15, "empty_slots": 0, "extra": {"uid": 103, "address": "ALZINGEN G\u00c4SSEL - RUE DE L'ECOLE ANGLE RUE DE SYREN", "status": "OPEN", "banking": false, "bonus": false, "last_update": "2025-05-03T03:14:59Z", "slots": 15, "has_ebikes": true, "ebikes": 15, "normal_bikes": 0}}, {"id": "1a00bebca4360542e4e10a3052841057", "name": "#00081-CARMEL", "latitude": 49.62019, "longitude": 6.172682, "timestamp": "2025-05-03T03:15:56.932625+00:00Z", "free_bikes": 9, "empty_slots": 11, "extra": {"uid": 81, "address": "All\u00e9e du Carmel/Rue Paul Albrecht face Police", "status": "OPEN", "banking": false, "bonus": false, "last_update": "2025-05-03T03:14:04Z", "slots": 20, "has_ebikes": true, "ebikes": 9, "normal_bikes": 0}}, {"id": "1b6b8233d487a3f1611b810adb961045", "name": "#00039-KRAIZGRENNCHEN", "latitude": 49.613316, "longitude": 6.117582, "timestamp": "2025-05-03T03:15:56.932526+00:00Z", "free_bikes": 2, "empty_slots": 17, "extra": {"uid": 39, "address": "KRAIZGRENNCHEN - SQUARE DE NEW- YORK", "status": "OPEN", "banking": false, "bonus": false, "last_update": "2025-05-03T03:11:09Z", "slots": 20, "has_ebikes": true, "ebikes": 2, "normal_bikes": 0}}, {"id": "1bb209e1ba741263aea5dad7e749e869", "name": "#00075-BEINCHEN", "latitude": 49.61561, "longitude": 6.13097, "timestamp": "2025-05-03T03:15:56.932243+00:00Z", "free_bikes": 11, "empty_slots": 3, "extra": {"uid": 75, "address": "BEINCHEN - RUE DU PONT", "status": "OPEN", "banking": false, "bonus": false, "last_update": "2025-05-03T03:11:44Z", "slots": 15, "has_ebikes": true, "ebikes": 11, "normal_bikes": 0}}, {"id": "1ca113d47c5b1dc973b446ed3ed450fa", "name": "#00029-MONTEREY", "latitude": 49.609583, "longitude": 6.119523, "timestamp": "2025-05-03T03:15:56.932467+00:00Z", "free_bikes": 0, "empty_slots": 17, "extra": {"uid": 29, "address": "MONTEREY - AVENUE DE MONTEREY ( FACE N\u00b0 49 )", "status": "OPEN", "banking": false, "bonus": false, "last_update": "2025-05-03T03:14:09Z", "slots": 20, "has_ebikes": true, "ebikes": 0, "normal_bikes": 0}}, {"id": "1d2974c433f105fced76e8f9ebc7c13a", "name": "#00114-ROND-POINT MOTEL", "latitude": 49.641375, "longitude": 6.001651, "timestamp": "2025-05-03T03:15:56.932442+00:00Z", "free_bikes": 6, "empty_slots": 10, "extra": {"uid": 114, "address": "ROND-POINT MOTEL - ROUTE D'ARLON N\u00b01 / ROUTE DE KOERICH", "status": "OPEN", "banking": false, "bonus": false, "last_update": "2025-05-03T03:10:57Z", "slots": 16, "has_ebikes": true, "ebikes": 6, "normal_bikes": 0}}, {"id": "1ec93e4759893b5d2f4cde25f56774d8", "name": "#00056-FISCHERHAFF", "latitude": 49.5911, "longitude": 6.1057, "timestamp": "2025-05-03T03:15:56.932366+00:00Z", "free_bikes": 24, "empty_slots": 0, "extra": {"uid": 56, "address": "FISCHERHAFF- RUE DE CESSANGE 177", "status": "OPEN", "banking": false, "bonus": false, "last_update": "2025-05-03T03:14:10Z", "slots": 25, "has_ebikes": true, "ebikes": 24, "normal_bikes": 0}}, {"id": "1f0e7dee34a323c2ce70c85392af3340", "name": "#00064-GRENIER", "latitude": 49.59383, "longitude": 6.14327, "timestamp": "2025-05-03T03:15:56.932717+00:00Z", "free_bikes": 8, "empty_slots": 12, "extra": {"uid": 64, "address": "GRENIER - RUE EDOUARD GRENIER", "status": "OPEN", "banking": false, "bonus": false, "last_update": "2025-05-03T03:11:23Z", "slots": 20, "has_ebikes": true, "ebikes": 8, "normal_bikes": 0}}, {"id": "1f5366317134f0746dea7a698e35f249", "name": "#00136-NENNIG", "latitude": 49.633322, "longitude": 6.136676, "timestamp": "2025-05-03T03:15:56.932661+00:00Z", "free_bikes": 13, "empty_slots": 7, "extra": {"uid": 136, "address": "Rue Nennig", "status": "OPEN", "banking": false, "bonus": false, "last_update": "2025-05-03T03:13:55Z", "slots": 20, "has_ebikes": true, "ebikes": 13, "normal_bikes": 0}}, {"id": "202bba305cdd5ee94c2f40caa20f020e", "name": "#00099-CAMPUS CENTS", "latitude": 49.617566, "longitude": 6.165165, "timestamp": "2025-05-03T03:15:56.932563+00:00Z", "free_bikes": 1, "empty_slots": 17, "extra": {"uid": 99, "address": "CAMPUS CENTS - RUE L\u00c9ON KAUFFMAN/RUE ROBERT BRUCH", "status": "OPEN", "banking": false, "bonus": false, "last_update": "2025-05-03T03:14:59Z", "slots": 20, "has_ebikes": true, "ebikes": 1, "normal_bikes": 0}}, {"id": "2031501bacae08e9ab52cec03792cef7", "name": "#00005-PARAISER PLAZ", "latitude": 49.603694, "longitude": 6.130189, "timestamp": "2025-05-03T03:15:56.932488+00:00Z", "free_bikes": 12, "empty_slots": 12, "extra": {"uid": 5, "address": "PARAISER PLAZ - Rue Sainte ZITHE devant n\u00b049 angle Place de Paris", "status": "OPEN", "banking": false, "bonus": false, "last_update": "2025-05-03T03:15:00Z", "slots": 25, "has_ebikes": true, "ebikes": 12, "normal_bikes": 0}}, {"id": "21e5b038db1662741ca3808d6ab608b9", "name": "#00141-RUE DU PONT BERELDANGE", "latitude": 49.649839, "longitude": 6.127978, "timestamp": "2025-05-03T03:15:56.932378+00:00Z", "free_bikes": 16, "empty_slots": 3, "extra": {"uid": 141, "address": "Rue du Pont 117 x Route de Luxembourg", "status": "OPEN", "banking": false, "bonus": false, "last_update": "2025-05-03T03:14:04Z", "slots": 20, "has_ebikes": true, "ebikes": 16, "normal_bikes": 0}}, {"id": "221cdc567ba289ecc8a3a8818ddb55c4", "name": "#00051-SAUERWISS", "latitude": 49.594088, "longitude": 6.125123, "timestamp": "2025-05-03T03:15:56.932571+00:00Z", "free_bikes": 7, "empty_slots": 12, "extra": {"uid": 51, "address": "SAUERWISS - RUE ABBE FRANCOIS LASCOMBE ( DEVANT N\u00b0 54 )", "status": "OPEN", "banking": false, "bonus": false, "last_update": "2025-05-03T03:12:35Z", "slots": 20, "has_ebikes": true, "ebikes": 7, "normal_bikes": 0}}, {"id": "2278441ede28ce9a6b6b8e1c104365b5", "name": "#00115-CENTRE CULTUREL CAP", "latitude": 49.645239, "longitude": 5.987938, "timestamp": "2025-05-03T03:15:56.932266+00:00Z", "free_bikes": 7, "empty_slots": 8, "extra": {"uid": 115, "address": "CENTRE CULTUREL CAP - ROUTE D'ARLON N\u00b049 / PLACE DE L'EGLISE", "status": "OPEN", "banking": false, "bonus": false, "last_update": "2025-05-03T03:12:22Z", "slots": 15, "has_ebikes": true, "ebikes": 7, "normal_bikes": 0}}, {"id": "228689308e31fc911e6b540b7e94ad33", "name": "#00057-BOUILLON", "latitude": 49.60001, "longitude": 6.10826, "timestamp": "2025-05-03T03:15:56.932445+00:00Z", "free_bikes": 18, "empty_slots": 17, "extra": {"uid": 57, "address": "BOUILLON - RUE DE BOUILLON / PARKING", "status": "OPEN", "banking": false, "bonus": false, "last_update": "2025-05-03T03:14:51Z", "slots": 35, "has_ebikes": true, "ebikes": 18, "normal_bikes": 0}}, {"id": "248d4d4b7e10119c20a04fbbcf8aaeb6", "name": "#00007-ROUSEGAERTCHEN", "latitude": 49.605818, "longitude": 6.129062, "timestamp": "2025-05-03T03:15:56.932414+00:00Z", "free_bikes": 0, "empty_slots": 8, "extra": {"uid": 7, "address": "ROUSEGAERTCHEN - PLACE DES MARTYRS", "status": "OPEN", "banking": false, "bonus": false, "last_update": "2025-05-03T03:14:44Z", "slots": 15, "has_ebikes": true, "ebikes": 0, "normal_bikes": 0}}, {"id": "2905ed6eb8e132bf8c5f8f429dc1e246", "name": "#00127-MAMBRA", "latitude": 49.63189, "longitude": 6.021562, "timestamp": "2025-05-03T03:15:56.932362+00:00Z", "free_bikes": 8, "empty_slots": 11, "extra": {"uid": 127, "address": "Route d'Arlon 106", "status": "OPEN", "banking": false, "bonus": false, "last_update": "2025-05-03T03:14:58Z", "slots": 20, "has_ebikes": true, "ebikes": 8, "normal_bikes": 0}}, {"id": "2be49244da1d9c2624d41cff8d10f2a8", "name": "#00026-HOLLERECHER PLAZ", "latitude": 49.598613, "longitude": 6.117957, "timestamp": "2025-05-03T03:15:56.932617+00:00Z", "free_bikes": 14, "empty_slots": 7, "extra": {"uid": 26, "address": "HOLLERECHER PLAZ - PLACE SAINT PIERRE ET PAUL / RUE BAUDOUIN", "status": "OPEN", "banking": false, "bonus": false, "last_update": "2025-05-03T03:13:24Z", "slots": 25, "has_ebikes": true, "ebikes": 14, "normal_bikes": 0}}, {"id": "2c2482c15b986a70aca6199da35baf7f", "name": "#00105-ITZIG PLATEAU/HUBERTUSPAD", "latitude": 49.587633, "longitude": 6.170123, "timestamp": "2025-05-03T03:15:56.932480+00:00Z", "free_bikes": 8, "empty_slots": 5, "extra": {"uid": 105, "address": "ITZIG PLATEAU/HUBERTUSPAD - RUE DE LA LIB\u00c9RATION N\u00b028", "status": "OPEN", "banking": false, "bonus": false, "last_update": "2025-05-03T03:11:45Z", "slots": 14, "has_ebikes": true, "ebikes": 8, "normal_bikes": 0}}, {"id": "2c765075295cc3ae036b5f73917b5c77", "name": "#00085-EINSTEIN", "latitude": 49.5842, "longitude": 6.1249, "timestamp": "2025-05-03T03:15:56.932214+00:00Z", "free_bikes": 0, "empty_slots": 15, "extra": {"uid": 85, "address": "Rue Albert Einstein/Bd de Kockelscheuer", "status": "OPEN", "banking": false, "bonus": false, "last_update": "2025-05-03T03:11:22Z", "slots": 18, "has_ebikes": true, "ebikes": 0, "normal_bikes": 0}}, {"id": "2e8c09a9ca2df52040f511c109f70d80", "name": "#00137-PARC GASPERICH", "latitude": 49.586766, "longitude": 6.122404, "timestamp": "2025-05-03T03:15:56.932236+00:00Z", "free_bikes": 4, "empty_slots": 15, "extra": {"uid": 137, "address": "PARC GASPERICH-RUE CHARLES DARWIN x RUE FRANCOIS HOGENBERG", "status": "OPEN", "banking": false, "bonus": false, "last_update": "2025-05-03T03:14:17Z", "slots": 20, "has_ebikes": true, "ebikes": 4, "normal_bikes": 0}}, {"id": "2e909a2fcd0f15be0cde3224f520acd0", "name": "#00066-BEIM TENNIS", "latitude": 49.579231, "longitude": 6.134018, "timestamp": "2025-05-03T03:15:56.932680+00:00Z", "free_bikes": 5, "empty_slots": 13, "extra": {"uid": 66, "address": "Rue des Scillas 55 / Banque de Luxembourg", "status": "OPEN", "banking": false, "bonus": false, "last_update": "2025-05-03T03:12:48Z", "slots": 20, "has_ebikes": true, "ebikes": 5, "normal_bikes": 0}}, {"id": "301e6edc4901adf8e8d1774e5d7cd31e", "name": "#00083-PULVERM\u00dcHL", "latitude": 49.608758, "longitude": 6.149591, "timestamp": "2025-05-03T03:15:56.932567+00:00Z", "free_bikes": 1, "empty_slots": 15, "extra": {"uid": 83, "address": "Rue de Pulverm\u00fbhl/Rue du Fort Dumoulin", "status": "OPEN", "banking": false, "bonus": false, "last_update": "2025-05-03T03:14:48Z", "slots": 20, "has_ebikes": true, "ebikes": 1, "normal_bikes": 0}}, {"id": "309ddd8dc045cf3b134ecdbc927c9600", "name": "#00024-WEICKER", "latitude": 49.631952, "longitude": 6.17048, "timestamp": "2025-05-03T03:15:56.932174+00:00Z", "free_bikes": 3, "empty_slots": 17, "extra": {"uid": 24, "address": "WEICKER - AVENUE JF KENNEDY / RUE ALPHONSE WEICKER", "status": "OPEN", "banking": false, "bonus": false, "last_update": "2025-05-03T03:10:11Z", "slots": 20, "has_ebikes": true, "ebikes": 3, "normal_bikes": 0}}, {"id": "343150c14fce4c650781833ec5783b6a", "name": "#00093-GODCHAUX (BONNEVOIE)", "latitude": 49.601652, "longitude": 6.145533, "timestamp": "2025-05-03T03:15:56.932706+00:00Z", "free_bikes": 13, "empty_slots": 4, "extra": {"uid": 93, "address": "Rue Auguste Charles/Rue Godchaux", "status": "OPEN", "banking": false, "bonus": false, "last_update": "2025-05-03T03:14:50Z", "slots": 20, "has_ebikes": true, "ebikes": 13, "normal_bikes": 0}}, {"id": "36919614a06d889072da80c896eda2a9", "name": "#00078-ST MATHIEU", "latitude": 49.619061, "longitude": 6.1323, "timestamp": "2025-05-03T03:15:56.932320+00:00Z", "free_bikes": 3, "empty_slots": 13, "extra": {"uid": 78, "address": "Rue St.Mathieu/ pr\u00e9s de l'arr\u00eat Pafendall", "status": "OPEN", "banking": false, "bonus": false, "last_update": "2025-05-03T03:14:56Z", "slots": 18, "has_ebikes": true, "ebikes": 3, "normal_bikes": 0}}, {"id": "375e33364dd73ad02c5bd951ff7b36e0", "name": "#00102-FENTANGE HIEHL", "latitude": 49.567771, "longitude": 6.152463, "timestamp": "2025-05-03T03:15:56.932183+00:00Z", "free_bikes": 10, "empty_slots": 4, "extra": {"uid": 102, "address": "FENTANGE HIEHL - RUE DE BETTEMBOURG DEVANT N\u00b075", "status": "OPEN", "banking": false, "bonus": false, "last_update": "2025-05-03T03:14:13Z", "slots": 14, "has_ebikes": true, "ebikes": 10, "normal_bikes": 0}}, {"id": "387b44164abdd67e0a7a78861e150a10", "name": "#00055-SCHAARFEN ECK", "latitude": 49.58043, "longitude": 6.11465, "timestamp": "2025-05-03T03:15:56.932453+00:00Z", "free_bikes": 3, "empty_slots": 17, "extra": {"uid": 55, "address": "- SCHAARFEN ECK- RUE EMILE BIAN", "status": "OPEN", "banking": false, "bonus": false, "last_update": "2025-05-03T03:14:31Z", "slots": 20, "has_ebikes": true, "ebikes": 3, "normal_bikes": 0}}, {"id": "39116ce99d56b715bcca8eb946759954", "name": "#00028-CHARLY'S GARE", "latitude": 49.61258, "longitude": 6.12391, "timestamp": "2025-05-03T03:15:56.932552+00:00Z", "free_bikes": 0, "empty_slots": 16, "extra": {"uid": 28, "address": "CHARLY'S GARE - BOULEVARD PRINCE HENRI", "status": "OPEN", "banking": false, "bonus": false, "last_update": "2025-05-03T03:12:32Z", "slots": 20, "has_ebikes": true, "ebikes": 0, "normal_bikes": 0}}, {"id": "39afcded3b98ec05319a249afe04ddd7", "name": "#00134-STADE HENRI-DUNANT", "latitude": 49.646906, "longitude": 6.134279, "timestamp": "2025-05-03T03:15:56.932168+00:00Z", "free_bikes": 9, "empty_slots": 9, "extra": {"uid": 134, "address": "Rue Henri Dunant x Rue de Bastogne", "status": "OPEN", "banking": false, "bonus": false, "last_update": "2025-05-03T03:13:41Z", "slots": 20, "has_ebikes": true, "ebikes": 9, "normal_bikes": 0}}, {"id": "3a0eaef5a68d228984ef0d27b324a1a3", "name": "#00045-AUBEPINES", "latitude": 49.61212, "longitude": 6.09749, "timestamp": "2025-05-03T03:15:56.932247+00:00Z", "free_bikes": 10, "empty_slots": 10, "extra": {"uid": 45, "address": "AUBEPINES - VAL SAINTE CROIX / RUE DES AUBEPINES", "status": "OPEN", "banking": false, "bonus": false, "last_update": "2025-05-03T03:12:54Z", "slots": 20, "has_ebikes": true, "ebikes": 10, "normal_bikes": 0}}, {"id": "3c4ee6ec328bbe12e5324fe1d25c13f7", "name": "#00010-M\u00c4RELER PARC", "latitude": 49.608146, "longitude": 6.111627, "timestamp": "2025-05-03T03:15:56.932518+00:00Z", "free_bikes": 2, "empty_slots": 10, "extra": {"uid": 10, "address": "M\u00c4RELER PARC - RUE DU 10 SEPTEMBRE ( DEVANT N\u00b0 108 )", "status": "OPEN", "banking": false, "bonus": false, "last_update": "2025-05-03T03:11:51Z", "slots": 15, "has_ebikes": true, "ebikes": 2, "normal_bikes": 0}}, {"id": "43372ae0af4be739946f59fcfe319546", "name": "#00027-MERCIER", "latitude": 49.5986, "longitude": 6.132119, "timestamp": "2025-05-03T03:15:56.932254+00:00Z", "free_bikes": 4, "empty_slots": 7, "extra": {"uid": 27, "address": "MERCIER - PLACE DE LA GARE / RUE DU COMMERCE / PARKING", "status": "OPEN", "banking": false, "bonus": false, "last_update": "2025-05-03T03:13:55Z", "slots": 15, "has_ebikes": true, "ebikes": 4, "normal_bikes": 0}}, {"id": "46fa6c98c2d038147951f8d85b0624bd", "name": "#00108-EDELECK", "latitude": 49.565477, "longitude": 6.079436, "timestamp": "2025-05-03T03:15:56.932233+00:00Z", "free_bikes": 2, "empty_slots": 16, "extra": {"uid": 108, "address": "EDELECK - RUE DE LUXEMBOURG / EDELECK", "status": "OPEN", "banking": false, "bonus": false, "last_update": "2025-05-03T03:14:16Z", "slots": 20, "has_ebikes": true, "ebikes": 2, "normal_bikes": 0}}, {"id": "48511a9626d3ec08ccf48a6fab93151d", "name": "#00096-BERTRANGE - GARE", "latitude": 49.613161, "longitude": 6.060382, "timestamp": "2025-05-03T03:15:56.932610+00:00Z", "free_bikes": 1, "empty_slots": 14, "extra": {"uid": 96, "address": "Rue de l'industrie/Rue Chemin de Fer/ Rue de Strassen", "status": "OPEN", "banking": false, "bonus": false, "last_update": "2025-05-03T03:13:45Z", "slots": 15, "has_ebikes": true, "ebikes": 1, "normal_bikes": 0}}, {"id": "49e16065f3a395a19e0de390637bdc3b", "name": "#00017-ROBERT SCHUMAN", "latitude": 49.616669, "longitude": 6.126069, "timestamp": "2025-05-03T03:15:56.932218+00:00Z", "free_bikes": 0, "empty_slots": 21, "extra": {"uid": 17, "address": "ROBERT SCHUMAN - SQUARE SCHUMAN", "status": "OPEN", "banking": false, "bonus": false, "last_update": "2025-05-03T03:14:15Z", "slots": 25, "has_ebikes": true, "ebikes": 0, "normal_bikes": 0}}, {"id": "4bd9e45b839f4980b207642bd1262090", "name": "#00022-CAMPUS KIRCHBIERG", "latitude": 49.6264, "longitude": 6.1613, "timestamp": "2025-05-03T03:15:56.932347+00:00Z", "free_bikes": 2, "empty_slots": 16, "extra": {"uid": 22, "address": "CAMPUS KIRCHBIERG - BOULEVARD JF KENNEDY / RUE K KALERGI", "status": "OPEN", "banking": false, "bonus": false, "last_update": "2025-05-03T03:14:07Z", "slots": 20, "has_ebikes": true, "ebikes": 2, "normal_bikes": 0}}, {"id": "4ef979a2a04c9fe1bed4f5c679d58a96", "name": "#00076-SAUVAGE", "latitude": 49.62521, "longitude": 6.13938, "timestamp": "2025-05-03T03:15:56.932545+00:00Z", "free_bikes": 7, "empty_slots": 7, "extra": {"uid": 76, "address": "SAUVAGE - RUE JEAN-PIERRE SAUVAGE", "status": "OPEN", "banking": false, "bonus": false, "last_update": "2025-05-03T03:13:25Z", "slots": 15, "has_ebikes": true, "ebikes": 6, "normal_bikes": 0}}, {"id": "506e903fa79a88095fa441192a97ac83", "name": "#00131-EUROPASCHOUL MAMER", "latitude": 49.618073, "longitude": 6.037591, "timestamp": "2025-05-03T03:15:56.932290+00:00Z", "free_bikes": 2, "empty_slots": 18, "extra": {"uid": 131, "address": "Rue Gaston Thorn 6", "status": "OPEN", "banking": false, "bonus": false, "last_update": "2025-05-03T03:10:14Z", "slots": 20, "has_ebikes": true, "ebikes": 2, "normal_bikes": 0}}, {"id": "57cd0a459ee01771e3e0a38c491fdf22", "name": "#00097-HELFENT (PARKING)", "latitude": 49.603644, "longitude": 6.077783, "timestamp": "2025-05-03T03:15:56.932197+00:00Z", "free_bikes": 2, "empty_slots": 12, "extra": {"uid": 97, "address": "Rue de Luxembourg/Route de Longwy", "status": "OPEN", "banking": false, "bonus": false, "last_update": "2025-05-03T03:14:28Z", "slots": 15, "has_ebikes": true, "ebikes": 2, "normal_bikes": 0}}, {"id": "5a0357cf9ae010038546dbd5f7024884", "name": "#00006-AL BR\u00c9CK", "latitude": 49.60481, "longitude": 6.133404, "timestamp": "2025-05-03T03:15:56.932194+00:00Z", "free_bikes": 0, "empty_slots": 13, "extra": {"uid": 6, "address": "AL BR\u00c9CK - VIADUC / BOULEVARD DE LA PETRUSSE", "status": "OPEN", "banking": false, "bonus": false, "last_update": "2025-05-03T03:12:12Z", "slots": 15, "has_ebikes": true, "ebikes": 0, "normal_bikes": 0}}, {"id": "5d5e9f639d655a7366dcd60a2c831878", "name": "#00042-SQUARE ANDRE", "latitude": 49.6238, "longitude": 6.1188, "timestamp": "2025-05-03T03:15:56.932710+00:00Z", "free_bikes": 5, "empty_slots": 12, "extra": {"uid": 42, "address": "SQUARE ANDRE - SQUARE EDOUARD ANDRE ( DEVANT N\u00b0 1 )", "status": "OPEN", "banking": false, "bonus": false, "last_update": "2025-05-03T03:13:21Z", "slots": 20, "has_ebikes": true, "ebikes": 5, "normal_bikes": 0}}, {"id": "61463258e482e862204dfaa67ca147af", "name": "#00018-CAMPUS LAMPERTSBIERG", "latitude": 49.6219, "longitude": 6.1118, "timestamp": "2025-05-03T03:15:56.932657+00:00Z", "free_bikes": 16, "empty_slots": 0, "extra": {"uid": 18, "address": "CAMPUS LAMPERTSBIERG - RUE DE LA FAIENCERIE ( DEVANT N\u00b0 151 )", "status": "OPEN", "banking": false, "bonus": false, "last_update": "2025-05-03T03:14:40Z", "slots": 19, "has_ebikes": true, "ebikes": 16, "normal_bikes": 0}}, {"id": "623269967c8c660e78795ac533072e93", "name": "#00054-CLOCHE D'OR", "latitude": 49.583377, "longitude": 6.115817, "timestamp": "2025-05-03T03:15:56.932621+00:00Z", "free_bikes": 2, "empty_slots": 17, "extra": {"uid": 54, "address": "CLOCHE D'OR - RUE JEAN PIRET ( DEVANT N\u00b0 3 )", "status": "OPEN", "banking": false, "bonus": false, "last_update": "2025-05-03T03:11:45Z", "slots": 20, "has_ebikes": true, "ebikes": 2, "normal_bikes": 0}}, {"id": "63e5816b943aaa1bab6ffa76b27247c8", "name": "#00125-POLICE CAPELLEN", "latitude": 49.644089, "longitude": 5.992759, "timestamp": "2025-05-03T03:15:56.932340+00:00Z", "free_bikes": 4, "empty_slots": 11, "extra": {"uid": 125, "address": "Route d'Arlon", "status": "OPEN", "banking": false, "bonus": false, "last_update": "2025-05-03T03:14:20Z", "slots": 15, "has_ebikes": true, "ebikes": 4, "normal_bikes": 0}}, {"id": "64266e259938abc00d3eeee9804be8ca", "name": "#00146-STADE DE LUXEMBOURG", "latitude": 49.57681, "longitude": 6.110465, "timestamp": "2025-05-03T03:15:56.932522+00:00Z", "free_bikes": 4, "empty_slots": 21, "extra": {"uid": 146, "address": "Route d'Esch", "status": "OPEN", "banking": false, "bonus": false, "last_update": "2025-05-03T03:14:00Z", "slots": 25, "has_ebikes": true, "ebikes": 4, "normal_bikes": 0}}, {"id": "69e28c3d6b575b06c221520644c3b2be", "name": "#00140-LAACH", "latitude": 49.651348, "longitude": 6.255547, "timestamp": "2025-05-03T03:15:56.932728+00:00Z", "free_bikes": 11, "empty_slots": 8, "extra": {"uid": 140, "address": "Route de Tr\u00e8ves 177 x Rue Laach", "status": "OPEN", "banking": false, "bonus": false, "last_update": "2025-05-03T03:12:54Z", "slots": 20, "has_ebikes": true, "ebikes": 11, "normal_bikes": 0}}, {"id": "6b2db90835e1edc9ee62fcd50a827dc6", "name": "#00128-GARE MAMER", "latitude": 49.625695, "longitude": 6.020409, "timestamp": "2025-05-03T03:15:56.932684+00:00Z", "free_bikes": 6, "empty_slots": 13, "extra": {"uid": 128, "address": "Rue de la Gare 2", "status": "OPEN", "banking": false, "bonus": false, "last_update": "2025-05-03T03:14:35Z", "slots": 20, "has_ebikes": true, "ebikes": 6, "normal_bikes": 0}}, {"id": "7767a13c78a0b8defaa22cfc58e01e3a", "name": "#00088-SERRA", "latitude": 49.635423, "longitude": 6.176061, "timestamp": "2025-05-03T03:15:56.932190+00:00Z", "free_bikes": 2, "empty_slots": 27, "extra": {"uid": 88, "address": "SERRA - AVENUE J.F. KENNEDY / CIRCUIT DE LA FOIRE (Arr\u00eat Luxexpo)", "status": "OPEN", "banking": false, "bonus": false, "last_update": "2025-05-03T03:10:21Z", "slots": 30, "has_ebikes": true, "ebikes": 2, "normal_bikes": 0}}, {"id": "7841f45acee74808ff3dd136ca662a83", "name": "#00062-LEYDENBACH", "latitude": 49.62915, "longitude": 6.173101, "timestamp": "2025-05-03T03:15:56.932262+00:00Z", "free_bikes": 9, "empty_slots": 10, "extra": {"uid": 62, "address": "LEYDENBACH - RUE LEYDENBACH / RUE DES LABOURS", "status": "OPEN", "banking": false, "bonus": false, "last_update": "2025-05-03T03:13:30Z", "slots": 20, "has_ebikes": true, "ebikes": 9, "normal_bikes": 0}}, {"id": "79d283ad6968de21a7deb4dc308cb33d", "name": "#00070-GEMENG STROOSSEN", "latitude": 49.61909, "longitude": 6.07227, "timestamp": "2025-05-03T03:15:56.932631+00:00Z", "free_bikes": 8, "empty_slots": 11, "extra": {"uid": 70, "address": "GEMENG STROOSSEN - Rue des Romains", "status": "OPEN", "banking": false, "bonus": false, "last_update": "2025-05-03T03:12:26Z", "slots": 20, "has_ebikes": true, "ebikes": 8, "normal_bikes": 0}}, {"id": "80dbdd7d10608523586dfd903d5a9719", "name": "#00003-STROOSSBUERGER PLAZ", "latitude": 49.600415, "longitude": 6.129234, "timestamp": "2025-05-03T03:15:56.932665+00:00Z", "free_bikes": 16, "empty_slots": 0, "extra": {"uid": 3, "address": "17 Rue du Commerce ,Face 19", "status": "OPEN", "banking": false, "bonus": false, "last_update": "2025-05-03T03:14:43Z", "slots": 20, "has_ebikes": true, "ebikes": 16, "normal_bikes": 0}}, {"id": "815a8b915b8615aecb08494502815750", "name": "#00113-EDEMER", "latitude": 49.629363, "longitude": 6.017927, "timestamp": "2025-05-03T03:15:56.932329+00:00Z", "free_bikes": 19, "empty_slots": 0, "extra": {"uid": 113, "address": "EDEMER - QUARTIER EDEMER / RUE D'ATH\u00c8NES / RUE DE PARIS", "status": "OPEN", "banking": false, "bonus": false, "last_update": "2025-05-03T03:14:54Z", "slots": 20, "has_ebikes": true, "ebikes": 19, "normal_bikes": 0}}, {"id": "835a34c67c6e035a9be7093f00b525b1", "name": "#00121-BARTRENG - RUE KIEM", "latitude": 49.617394, "longitude": 6.047817, "timestamp": "2025-05-03T03:15:56.932240+00:00Z", "free_bikes": 6, "empty_slots": 8, "extra": {"uid": 121, "address": "RUE KIEM/RUE DE MAMER", "status": "OPEN", "banking": false, "bonus": false, "last_update": "2025-05-03T03:12:19Z", "slots": 15, "has_ebikes": true, "ebikes": 6, "normal_bikes": 0}}, {"id": "835e2985233f3bc5bf22d01b09f76455", "name": "#00092-BRILL (CESSANGE)", "latitude": 49.58914, "longitude": 6.099213, "timestamp": "2025-05-03T03:15:56.932418+00:00Z", "free_bikes": 16, "empty_slots": 2, "extra": {"uid": 92, "address": "Rue des Prunelles/Bd du Brill", "status": "OPEN", "banking": false, "bonus": false, "last_update": "2025-05-03T03:14:05Z", "slots": 20, "has_ebikes": true, "ebikes": 16, "normal_bikes": 0}}, {"id": "84d68ee60c435cb0d97b32825273d703", "name": "#00050-EUROPAPARLAMENT", "latitude": 49.620607, "longitude": 6.147885, "timestamp": "2025-05-03T03:15:56.932313+00:00Z", "free_bikes": 2, "empty_slots": 17, "extra": {"uid": 50, "address": "EUROPAPARLAMENT - Rue L\u00e9on Hammes, pr\u00e9s de l'arr\u00eat Europaparlament", "status": "OPEN", "banking": false, "bonus": false, "last_update": "2025-05-03T03:12:50Z", "slots": 20, "has_ebikes": true, "ebikes": 2, "normal_bikes": 0}}, {"id": "88c434a21e959684cabebaf4cf00ad58", "name": "#00035-GASTON DIDERICH", "latitude": 49.609904, "longitude": 6.106099, "timestamp": "2025-05-03T03:15:56.932437+00:00Z", "free_bikes": 8, "empty_slots": 2, "extra": {"uid": 35, "address": "GASTON DIDERICH - AVENUE GASTON DIDERICH", "status": "OPEN", "banking": false, "bonus": false, "last_update": "2025-05-03T03:14:36Z", "slots": 15, "has_ebikes": true, "ebikes": 8, "normal_bikes": 0}}, {"id": "88ea4ad42595b8bb6ebc4249513fb8ed", "name": "#00071-LES THERMES", "latitude": 49.61489, "longitude": 6.07275, "timestamp": "2025-05-03T03:15:56.932594+00:00Z", "free_bikes": 9, "empty_slots": 10, "extra": {"uid": 71, "address": "LES THERMES - RUE DU CIMETIERE", "status": "OPEN", "banking": false, "bonus": false, "last_update": "2025-05-03T03:13:58Z", "slots": 20, "has_ebikes": true, "ebikes": 9, "normal_bikes": 0}}, {"id": "89242f73174eebb4b6f3742d70627ec5", "name": "#00091-MERSCH (M\u00dcHLENBACH)", "latitude": 49.627834, "longitude": 6.122333, "timestamp": "2025-05-03T03:15:56.932434+00:00Z", "free_bikes": 13, "empty_slots": 5, "extra": {"uid": 91, "address": "Rue de M\u00fchlenbach/ Rue Jules Mersch", "status": "OPEN", "banking": false, "bonus": false, "last_update": "2025-05-03T03:13:39Z", "slots": 20, "has_ebikes": true, "ebikes": 13, "normal_bikes": 0}}, {"id": "8bca8cb76a28e9c03b3fe8de4a7050ac", "name": "#00002-GARE CENTRALE 2", "latitude": 49.601051, "longitude": 6.133744, "timestamp": "2025-05-03T03:15:56.932556+00:00Z", "free_bikes": 7, "empty_slots": 9, "extra": {"uid": 2, "address": "GARE CENTRALE 2 - PLACE DE LA GARE N\u00b03-5", "status": "OPEN", "banking": false, "bonus": false, "last_update": "2025-05-03T03:14:28Z", "slots": 21, "has_ebikes": true, "ebikes": 7, "normal_bikes": 0}}, {"id": "8c2229f89e2469e4ba785c75b38026e2", "name": "#00104-ITZIG VILLAGE/PLACE MANDERSCHEID", "latitude": 49.58574, "longitude": 6.171965, "timestamp": "2025-05-03T03:15:56.932397+00:00Z", "free_bikes": 12, "empty_slots": 1, "extra": {"uid": 104, "address": "ITZIG VILLAGE/PLACE MANDERSCHEID - RUE DE HESP\u00c9RANGE N\u00b03", "status": "OPEN", "banking": false, "bonus": false, "last_update": "2025-05-03T03:12:48Z", "slots": 15, "has_ebikes": true, "ebikes": 12, "normal_bikes": 0}}, {"id": "8c2d75c5b9b8b275ceecb4ed4170b11d", "name": "#00063-LABOURS", "latitude": 49.6301, "longitude": 6.16843, "timestamp": "2025-05-03T03:15:56.932542+00:00Z", "free_bikes": 1, "empty_slots": 19, "extra": {"uid": 63, "address": "LABOURS - RUE DES LABOURS / BLD J.F.KENNEDY", "status": "OPEN", "banking": false, "bonus": false, "last_update": "2025-05-03T03:12:17Z", "slots": 20, "has_ebikes": true, "ebikes": 1, "normal_bikes": 0}}, {"id": "90db94deb6056fbebcf02328154ac7cd", "name": "#00106-LEUDELANGE CENTRE", "latitude": 49.567305, "longitude": 6.064291, "timestamp": "2025-05-03T03:15:56.932351+00:00Z", "free_bikes": 7, "empty_slots": 7, "extra": {"uid": 106, "address": "CENTRE - RUE DU LAVOIR", "status": "OPEN", "banking": false, "bonus": false, "last_update": "2025-05-03T03:13:49Z", "slots": 15, "has_ebikes": true, "ebikes": 7, "normal_bikes": 0}}, {"id": "92304b101236993426f6847d481e610c", "name": "#00036-J.B. GELLE", "latitude": 49.596838, "longitude": 6.140615, "timestamp": "2025-05-03T03:15:56.932511+00:00Z", "free_bikes": 7, "empty_slots": 4, "extra": {"uid": 36, "address": "J.B. GELLE - RUE JEAN- BAPTISTE GELLE ( DEVANT N\u00b0 6 )", "status": "OPEN", "banking": false, "bonus": false, "last_update": "2025-05-03T03:13:23Z", "slots": 15, "has_ebikes": true, "ebikes": 7, "normal_bikes": 0}}, {"id": "9340e053d189e8dcc87cce9433e098c0", "name": "#00033-K. ADENAUER", "latitude": 49.620586, "longitude": 6.138998, "timestamp": "2025-05-03T03:15:56.932210+00:00Z", "free_bikes": 2, "empty_slots": 13, "extra": {"uid": 33, "address": "K. ADENAUER - BOULEVARD KONRAD ADENAUER ( DEVANT BEI )", "status": "OPEN", "banking": false, "bonus": false, "last_update": "2025-05-03T03:14:49Z", "slots": 15, "has_ebikes": true, "ebikes": 2, "normal_bikes": 0}}, {"id": "961edf70130e03c9e0588ec9a3085e9d", "name": "#00047-LEOPOLD GOEBEL", "latitude": 49.6122, "longitude": 6.1072, "timestamp": "2025-05-03T03:15:56.932202+00:00Z", "free_bikes": 7, "empty_slots": 11, "extra": {"uid": 47, "address": "LEOPOLD GOEBEL - ALLEE LEOPOLD GOEBEL ( DEVANT N\u00b0 109 )", "status": "OPEN", "banking": false, "bonus": false, "last_update": "2025-05-03T03:13:50Z", "slots": 20, "has_ebikes": true, "ebikes": 7, "normal_bikes": 0}}, {"id": "97c88c6d0ffe465fa038f74620307b2f", "name": "#00123-BELLE ETOILE", "latitude": 49.62187, "longitude": 6.051072, "timestamp": "2025-05-03T03:15:56.932285+00:00Z", "free_bikes": 3, "empty_slots": 16, "extra": {"uid": 123, "address": "Route d'Arlon/Shopping Belle Etoile", "status": "OPEN", "banking": false, "bonus": false, "last_update": "2025-05-03T03:10:16Z", "slots": 20, "has_ebikes": true, "ebikes": 3, "normal_bikes": 0}}, {"id": "99624af2999244df3a3e36cf9cbcecdb", "name": "#00135-HAMMES", "latitude": 49.623341, "longitude": 6.143717, "timestamp": "2025-05-03T03:15:56.932317+00:00Z", "free_bikes": 6, "empty_slots": 14, "extra": {"uid": 135, "address": "Rue Charles-Leon Hammes x Bd Konrad Adenauer", "status": "OPEN", "banking": false, "bonus": false, "last_update": "2025-05-03T03:14:50Z", "slots": 20, "has_ebikes": true, "ebikes": 6, "normal_bikes": 0}}, {"id": "99d65f3689003526aebdfd733d194dd0", "name": "#00117-SYRDALL SCHWEMM", "latitude": 49.65314, "longitude": 6.245365, "timestamp": "2025-05-03T03:15:56.932530+00:00Z", "free_bikes": 13, "empty_slots": 7, "extra": {"uid": 117, "address": "SYRDALL SCHWEMM - ROUTSCHEED N\u00b08", "status": "OPEN", "banking": false, "bonus": false, "last_update": "2025-05-03T03:13:22Z", "slots": 20, "has_ebikes": true, "ebikes": 13, "normal_bikes": 0}}, {"id": "9ac0551b330cbfd80d911efbe31a7c98", "name": "#00034-KOLLEISCH", "latitude": 49.604577, "longitude": 6.111927, "timestamp": "2025-05-03T03:15:56.932538+00:00Z", "free_bikes": 23, "empty_slots": 6, "extra": {"uid": 34, "address": "- KOLLEISCH - RUE DE BRAGANCE", "status": "OPEN", "banking": false, "bonus": false, "last_update": "2025-05-03T03:14:49Z", "slots": 31, "has_ebikes": true, "ebikes": 23, "normal_bikes": 0}}, {"id": "9b753f4c812b6f62c54ccd94e83aab24", "name": "#00072-AN DER BOURMICHT", "latitude": 49.61086, "longitude": 6.08097, "timestamp": "2025-05-03T03:15:56.932336+00:00Z", "free_bikes": 3, "empty_slots": 17, "extra": {"uid": 72, "address": "- AN DER BOURMICHT - ZONE INDUSTRIELLE BOURMICHT / RES DES MEROVINGIENS", "status": "OPEN", "banking": false, "bonus": false, "last_update": "2025-05-03T03:14:23Z", "slots": 20, "has_ebikes": true, "ebikes": 3, "normal_bikes": 0}}, {"id": "9d8982f74a37c724fe9cebb71bc87d2b", "name": "#00082-GARE CENTS-HAMM", "latitude": 49.614749, "longitude": 6.164772, "timestamp": "2025-05-03T03:15:56.932270+00:00Z", "free_bikes": 4, "empty_slots": 13, "extra": {"uid": 82, "address": "GARE CENTS-HAMM - RUE DES ALOUETTES / GARE DE CENTS-HAMM", "status": "OPEN", "banking": false, "bonus": false, "last_update": "2025-05-03T03:14:26Z", "slots": 20, "has_ebikes": true, "ebikes": 4, "normal_bikes": 0}}, {"id": "9e988204095de2200e8a54f59a35ddde", "name": "#00144-WALFERDANGE GARE", "latitude": 49.66151, "longitude": 6.135785, "timestamp": "2025-05-03T03:15:56.932186+00:00Z", "free_bikes": 10, "empty_slots": 5, "extra": {"uid": 144, "address": "Rue de la Gare 19 - Terminus Bus", "status": "OPEN", "banking": false, "bonus": false, "last_update": "2025-05-03T03:12:32Z", "slots": 15, "has_ebikes": true, "ebikes": 10, "normal_bikes": 0}}, {"id": "a2aa1361c18e3b9c414daf3c70d1b285", "name": "#00008-METZER PLAZ", "latitude": 49.607346, "longitude": 6.12762, "timestamp": "2025-05-03T03:15:56.932294+00:00Z", "free_bikes": 2, "empty_slots": 14, "extra": {"uid": 8, "address": "METZER PLAZ - PLACE DE METZ", "status": "OPEN", "banking": false, "bonus": false, "last_update": "2025-05-03T03:10:47Z", "slots": 20, "has_ebikes": true, "ebikes": 2, "normal_bikes": 0}}, {"id": "a2f6a6d59549ddeb05da5dd5acd03620", "name": "#00068-UM SCHLASS", "latitude": 49.57337, "longitude": 6.14397, "timestamp": "2025-05-03T03:15:56.932251+00:00Z", "free_bikes": 8, "empty_slots": 7, "extra": {"uid": 68, "address": "UM SCHLASS - CEINTURE UM SCHLASS", "status": "OPEN", "banking": false, "bonus": false, "last_update": "2025-05-03T03:14:56Z", "slots": 15, "has_ebikes": true, "ebikes": 8, "normal_bikes": 0}}, {"id": "a32c794edacb33bd838e713451e4cd40", "name": "#00025-KIEM", "latitude": 49.634283, "longitude": 6.166633, "timestamp": "2025-05-03T03:15:56.932374+00:00Z", "free_bikes": 0, "empty_slots": 20, "extra": {"uid": 25, "address": "KIEM - CIRCUIT DE LA FOIRE / RUE ALPHONSE WEICKER", "status": "OPEN", "banking": false, "bonus": false, "last_update": "2025-05-03T03:12:07Z", "slots": 20, "has_ebikes": true, "ebikes": 0, "normal_bikes": 0}}, {"id": "a32ceae4a496624475a203187d0075f2", "name": "#00090-HUBERTY (M\u00dcHLENBACH)", "latitude": 49.6294701613971, "longitude": 6.11780413988129, "timestamp": "2025-05-03T03:15:56.932574+00:00Z", "free_bikes": 12, "empty_slots": 7, "extra": {"uid": 90, "address": "Rue de M\u00fchlenbach/Rue Jean-Pierre Huberty", "status": "OPEN", "banking": false, "bonus": false, "last_update": "2025-05-03T03:12:25Z", "slots": 20, "has_ebikes": true, "ebikes": 12, "normal_bikes": 0}}, {"id": "a3fb9d7c5e759baa7e41febbf87cf5d0", "name": "#00065-BEI DER SCHOUL", "latitude": 49.58421, "longitude": 6.14202, "timestamp": "2025-05-03T03:15:56.932393+00:00Z", "free_bikes": 18, "empty_slots": 0, "extra": {"uid": 65, "address": "BEI DER SCHOUL - RUE FERDINAND KUHN", "status": "OPEN", "banking": false, "bonus": false, "last_update": "2025-05-03T03:14:22Z", "slots": 20, "has_ebikes": true, "ebikes": 18, "normal_bikes": 0}}, {"id": "a5ab25cc235d6b6e259a454e21d7b7ed", "name": "#00021-JEAN MONNET", "latitude": 49.625714, "longitude": 6.148347, "timestamp": "2025-05-03T03:15:56.932702+00:00Z", "free_bikes": 4, "empty_slots": 15, "extra": {"uid": 21, "address": "JEAN MONNET - BOULEVARD KONRAD ADENAUER / RUE ERASME", "status": "OPEN", "banking": false, "bonus": false, "last_update": "2025-05-03T03:12:51Z", "slots": 20, "has_ebikes": true, "ebikes": 4, "normal_bikes": 0}}, {"id": "a6150649c549b361a9903883483f08a8", "name": "#00094-HAMM-COLONIE", "latitude": 49.606983, "longitude": 6.154863, "timestamp": "2025-05-03T03:15:56.932222+00:00Z", "free_bikes": 15, "empty_slots": 3, "extra": {"uid": 94, "address": "Rue de Hamm/Rue des pruniers", "status": "OPEN", "banking": false, "bonus": false, "last_update": "2025-05-03T03:14:33Z", "slots": 20, "has_ebikes": true, "ebikes": 15, "normal_bikes": 0}}, {"id": "a82494c2bc49265052863f15dce6f5ba", "name": "#00098-CITY CONCORDE", "latitude": 49.600592, "longitude": 6.065794, "timestamp": "2025-05-03T03:15:56.932582+00:00Z", "free_bikes": 6, "empty_slots": 12, "extra": {"uid": 98, "address": "CITY CONCORDE - Route de Longwy face n\u00b0 80 (City Concorde)", "status": "OPEN", "banking": false, "bonus": false, "last_update": "2025-05-03T03:14:57Z", "slots": 20, "has_ebikes": true, "ebikes": 6, "normal_bikes": 0}}, {"id": "a88a678e7bf143b0b6a66dc9e6896f49", "name": "#00100-FORT NIEDERGR\u00dcNEWALD", "latitude": 49.619439, "longitude": 6.140894, "timestamp": "2025-05-03T03:15:56.932714+00:00Z", "free_bikes": 1, "empty_slots": 17, "extra": {"uid": 100, "address": "FORT NIEDERGR\u00dcNEWALD - RUE DU FORT NIEDERGR\u00dcNEWALD/KENNEDY", "status": "OPEN", "banking": false, "bonus": false, "last_update": "2025-05-03T03:12:16Z", "slots": 20, "has_ebikes": true, "ebikes": 1, "normal_bikes": 0}}, {"id": "a899e4e8ac53cf64cacbe94b7298ea29", "name": "#00073-JEANNE D'ARC", "latitude": 49.59691, "longitude": 6.147957, "timestamp": "2025-05-03T03:15:56.932355+00:00Z", "free_bikes": 12, "empty_slots": 7, "extra": {"uid": 73, "address": "- JEANNE D'ARC - PLACE JEANNE D'ARC", "status": "OPEN", "banking": false, "bonus": false, "last_update": "2025-05-03T03:11:52Z", "slots": 20, "has_ebikes": true, "ebikes": 12, "normal_bikes": 0}}, {"id": "aa55c4983ab012aee20c7c6576333cf9", "name": "#00023-REIMERWEE", "latitude": 49.629448, "longitude": 6.157348, "timestamp": "2025-05-03T03:15:56.932229+00:00Z", "free_bikes": 1, "empty_slots": 15, "extra": {"uid": 23, "address": "REIMERWEE - BOULEVARD K ADENAUER / RUE K KALERGI", "status": "OPEN", "banking": false, "bonus": false, "last_update": "2025-05-03T03:10:16Z", "slots": 18, "has_ebikes": true, "ebikes": 1, "normal_bikes": 0}}, {"id": "aa5d9e1eec7c47f3923e1487bbc24ed7", "name": "#00044-ARELER STROOSS", "latitude": 49.6162, "longitude": 6.0984, "timestamp": "2025-05-03T03:15:56.932491+00:00Z", "free_bikes": 11, "empty_slots": 9, "extra": {"uid": 44, "address": "ARELER STROOSS - RUE DES AUBEPINES ( FACE N\u00b0 187 )", "status": "OPEN", "banking": false, "bonus": false, "last_update": "2025-05-03T03:10:23Z", "slots": 20, "has_ebikes": true, "ebikes": 11, "normal_bikes": 0}}, {"id": "ab768266949f5454873a3bf65573d78e", "name": "#00107-LEUDELANGE GARE", "latitude": 49.586736, "longitude": 6.05966, "timestamp": "2025-05-03T03:15:56.932673+00:00Z", "free_bikes": 15, "empty_slots": 5, "extra": {"uid": 107, "address": "GARE - RUE DE LA GARE N\u00b0166", "status": "OPEN", "banking": false, "bonus": false, "last_update": "2025-05-03T03:14:45Z", "slots": 20, "has_ebikes": true, "ebikes": 15, "normal_bikes": 0}}, {"id": "abdb2acb1aa704bcc384a36867086a6d", "name": "#00019-PHILHARMONIE", "latitude": 49.619345, "longitude": 6.143907, "timestamp": "2025-05-03T03:15:56.932309+00:00Z", "free_bikes": 10, "empty_slots": 14, "extra": {"uid": 19, "address": "PHILHARMONIE - AVENUE JF KENNEDY / PLACE DE L'EUROPE", "status": "OPEN", "banking": false, "bonus": false, "last_update": "2025-05-03T03:11:28Z", "slots": 25, "has_ebikes": true, "ebikes": 10, "normal_bikes": 0}}, {"id": "ad308125a30bd6e890897ae31c6b17fc", "name": "#00079-GARE CENTRALE", "latitude": 49.6017, "longitude": 6.1331, "timestamp": "2025-05-03T03:15:56.932605+00:00Z", "free_bikes": 10, "empty_slots": 10, "extra": {"uid": 79, "address": "GARE CENTRALE - PLACE DE LA GARE (Quai n\u00b01)", "status": "OPEN", "banking": false, "bonus": false, "last_update": "2025-05-03T03:14:43Z", "slots": 20, "has_ebikes": true, "ebikes": 10, "normal_bikes": 0}}, {"id": "ad55b6591554c7f0dcd61ea3320ff077", "name": "#00001-LEON XIII", "latitude": 49.598211, "longitude": 6.137526, "timestamp": "2025-05-03T03:15:56.932277+00:00Z", "free_bikes": 12, "empty_slots": 6, "extra": {"uid": 1, "address": "LEON XIII-RUE DE BONNEVOIE ( DEVANT N\u00b0 103 )", "status": "OPEN", "banking": false, "bonus": false, "last_update": "2025-05-03T03:14:53Z", "slots": 20, "has_ebikes": true, "ebikes": 12, "normal_bikes": 0}}, {"id": "b13f40ca14d698f38e0ad4c53be83eac", "name": "#00133-HALANZY", "latitude": 49.645359, "longitude": 6.128075, "timestamp": "2025-05-03T03:15:56.932613+00:00Z", "free_bikes": 10, "empty_slots": 10, "extra": {"uid": 133, "address": "En face de Rue Fran\u00e7ois-S\u00e9bastien Tinant 156", "status": "OPEN", "banking": false, "bonus": false, "last_update": "2025-05-03T03:11:23Z", "slots": 20, "has_ebikes": true, "ebikes": 10, "normal_bikes": 0}}, {"id": "b1e8819c2c4ccb3ac88c86e337af8d5d", "name": "#00118-PESCHER 4", "latitude": 49.622956, "longitude": 6.074244, "timestamp": "2025-05-03T03:15:56.932297+00:00Z", "free_bikes": 0, "empty_slots": 15, "extra": {"uid": 118, "address": "Rue des Lavandes \u00e0 cot\u00e9 du n\u00b039B \u00e0 8022 STRASSEN", "status": "OPEN", "banking": false, "bonus": false, "last_update": "2025-05-03T03:10:46Z", "slots": 15, "has_ebikes": true, "ebikes": 0, "normal_bikes": 0}}, {"id": "b2db2561c76cdf7b8f78baecfe65a983", "name": "#00145-P\u00d4LE D'\u00c9CHANGE HOWALD", "latitude": 49.580898, "longitude": 6.131494, "timestamp": "2025-05-03T03:15:56.932699+00:00Z", "free_bikes": 0, "empty_slots": 20, "extra": {"uid": 145, "address": "Bd Friedrich Wilhelm Raiffeisen", "status": "OPEN", "banking": false, "bonus": false, "last_update": "2025-05-03T03:10:57Z", "slots": 20, "has_ebikes": true, "ebikes": 0, "normal_bikes": 0}}, {"id": "b869d3364d27a5559e7e1339a279b0ea", "name": "#00037-GAULOIS", "latitude": 49.60164, "longitude": 6.13736, "timestamp": "2025-05-03T03:15:56.932430+00:00Z", "free_bikes": 8, "empty_slots": 1, "extra": {"uid": 37, "address": "GAULOIS - RUE DES GAULOIS 11", "status": "OPEN", "banking": false, "bonus": false, "last_update": "2025-05-03T03:13:30Z", "slots": 15, "has_ebikes": true, "ebikes": 8, "normal_bikes": 0}}, {"id": "b8fe4606e14f0edf088e7dbc20661d3b", "name": "#00041-PLACE LAURENT", "latitude": 49.620066, "longitude": 6.122905, "timestamp": "2025-05-03T03:15:56.932549+00:00Z", "free_bikes": 0, "empty_slots": 19, "extra": {"uid": 41, "address": "PLACE LAURENT - PLACE AUGUSTE LAURENT", "status": "OPEN", "banking": false, "bonus": false, "last_update": "2025-05-03T03:12:41Z", "slots": 20, "has_ebikes": true, "ebikes": 0, "normal_bikes": 0}}, {"id": "b933c53e189902905b008fb82eacadd8", "name": "#00129-GARE CAPELLEN", "latitude": 49.638604, "longitude": 5.982361, "timestamp": "2025-05-03T03:15:56.932410+00:00Z", "free_bikes": 7, "empty_slots": 13, "extra": {"uid": 129, "address": "Rue de la Gare 106", "status": "OPEN", "banking": false, "bonus": false, "last_update": "2025-05-03T03:10:16Z", "slots": 20, "has_ebikes": true, "ebikes": 7, "normal_bikes": 0}}, {"id": "b9431c979b5edaabab488c40b28d47c5", "name": "#00058-SCHLUECHTHAUS", "latitude": 49.60136, "longitude": 6.11581, "timestamp": "2025-05-03T03:15:56.932590+00:00Z", "free_bikes": 15, "empty_slots": 3, "extra": {"uid": 58, "address": "SCHLUECHTHAUS - RUE DE L'ABATTOIR", "status": "OPEN", "banking": false, "bonus": false, "last_update": "2025-05-03T03:14:11Z", "slots": 20, "has_ebikes": true, "ebikes": 15, "normal_bikes": 0}}, {"id": "ba6ab61da8186c12d05121a624bfc9be", "name": "#00143-MAIRIE DE WALFERDANGE", "latitude": 49.658862, "longitude": 6.130167, "timestamp": "2025-05-03T03:15:56.932258+00:00Z", "free_bikes": 9, "empty_slots": 9, "extra": {"uid": 143, "address": "Pl. de la Mairie", "status": "OPEN", "banking": false, "bonus": false, "last_update": "2025-05-03T03:13:27Z", "slots": 20, "has_ebikes": true, "ebikes": 9, "normal_bikes": 0}}, {"id": "bc21b1ca61fecaa7e3cac20d43ad075e", "name": "#00052-BEI DER AUER", "latitude": 49.591404, "longitude": 6.125333, "timestamp": "2025-05-03T03:15:56.932422+00:00Z", "free_bikes": 6, "empty_slots": 13, "extra": {"uid": 52, "address": "BEI DER AUER - RUE DE GASPERICH ( DEVANT N\u00b0 20 )", "status": "OPEN", "banking": false, "bonus": false, "last_update": "2025-05-03T03:13:24Z", "slots": 20, "has_ebikes": true, "ebikes": 6, "normal_bikes": 0}}, {"id": "bcc7001fe6c4e0cc70753233a29b1e1a", "name": "#00084-BITBOURG", "latitude": 49.61349, "longitude": 6.17066, "timestamp": "2025-05-03T03:15:56.932426+00:00Z", "free_bikes": 5, "empty_slots": 15, "extra": {"uid": 84, "address": "Rue de Bitbourg devant n\u00b020", "status": "OPEN", "banking": false, "bonus": false, "last_update": "2025-05-03T03:10:19Z", "slots": 20, "has_ebikes": true, "ebikes": 5, "normal_bikes": 0}}, {"id": "bda598939fee70dd1382f418147b1751", "name": "#00089-PLACE THORN", "latitude": 49.60361, "longitude": 6.10278, "timestamp": "2025-05-03T03:15:56.932206+00:00Z", "free_bikes": 16, "empty_slots": 4, "extra": {"uid": 89, "address": "Place Thorn/Bd Marcel Cahen ,50m avant rue B\u00e9atrix", "status": "OPEN", "banking": false, "bonus": false, "last_update": "2025-05-03T03:13:37Z", "slots": 20, "has_ebikes": true, "ebikes": 16, "normal_bikes": 0}}, {"id": "bf927d627982d5cd998f3b25d21f8417", "name": "#00031-PLACE DE FRANCE", "latitude": 49.60625, "longitude": 6.105961, "timestamp": "2025-05-03T03:15:56.932507+00:00Z", "free_bikes": 5, "empty_slots": 12, "extra": {"uid": 31, "address": "PLACE DE FRANCE - PLACE DE FRANCE", "status": "OPEN", "banking": false, "bonus": false, "last_update": "2025-05-03T03:13:56Z", "slots": 20, "has_ebikes": true, "ebikes": 5, "normal_bikes": 0}}, {"id": "c21fd0daa4ffc9ea29854b8b4511de11", "name": "#00112-PLACE DE L'INDEPENDANCE", "latitude": 49.62635, "longitude": 6.022996, "timestamp": "2025-05-03T03:15:56.932495+00:00Z", "free_bikes": 1, "empty_slots": 15, "extra": {"uid": 112, "address": "ADMINISTRATION COMMUNALE - RUE DE MARCH\u00c9 / PLACE DE L'IND\u00c9PENDANCE", "status": "OPEN", "banking": false, "bonus": false, "last_update": "2025-05-03T03:13:42Z", "slots": 20, "has_ebikes": true, "ebikes": 1, "normal_bikes": 0}}, {"id": "c407d168676704cc69cdef319132070f", "name": "#00014-KNUEDLER", "latitude": 49.610126, "longitude": 6.132084, "timestamp": "2025-05-03T03:15:56.932282+00:00Z", "free_bikes": 0, "empty_slots": 18, "extra": {"uid": 14, "address": "KNUEDLER - PLACE GUILLAUME", "status": "OPEN", "banking": false, "bonus": false, "last_update": "2025-05-03T03:11:10Z", "slots": 25, "has_ebikes": true, "ebikes": 0, "normal_bikes": 0}}, {"id": "c489b8619f71dc9ad38ab346e346a8a8", "name": "BORNE ATELIER LUX", "latitude": 49.6168333870108, "longitude": 6.05420384349982, "timestamp": "2025-05-03T03:15:56.932585+00:00Z", "free_bikes": 0, "empty_slots": 3, "extra": {"uid": 65009, "address": "DEPOT CYCLO - Rue des Romains 209 \u00e0 8041 Bertrange", "status": "OPEN", "banking": false, "bonus": false, "last_update": "2025-05-03T03:10:38Z", "slots": 3, "has_ebikes": true, "ebikes": 0, "normal_bikes": 0}}, {"id": "c5eb8667fb2999e986e1661069bff7f5", "name": "#00040-GLACIS KAPELL", "latitude": 49.6147, "longitude": 6.1211, "timestamp": "2025-05-03T03:15:56.932687+00:00Z", "free_bikes": 1, "empty_slots": 14, "extra": {"uid": 40, "address": "GLACIS KAPELL - BOULEVARD DE LA FOIRE ( DEVANT N\u00b0 21 )", "status": "OPEN", "banking": false, "bonus": false, "last_update": "2025-05-03T03:12:11Z", "slots": 15, "has_ebikes": true, "ebikes": 1, "normal_bikes": 0}}, {"id": "c5f9fba66e70c86e75be23ca3c428a2b", "name": "#00120-A RILSPERT", "latitude": 49.60751, "longitude": 6.045842, "timestamp": "2025-05-03T03:15:56.932382+00:00Z", "free_bikes": 13, "empty_slots": 1, "extra": {"uid": 120, "address": "Rue des Platanes", "status": "OPEN", "banking": false, "bonus": false, "last_update": "2025-05-03T03:11:48Z", "slots": 15, "has_ebikes": true, "ebikes": 13, "normal_bikes": 0}}, {"id": "c621e5f8f9cbc5a70a418e861336c7bb", "name": "#00020-COQUE", "latitude": 49.62297, "longitude": 6.15497, "timestamp": "2025-05-03T03:15:56.932578+00:00Z", "free_bikes": 0, "empty_slots": 19, "extra": {"uid": 20, "address": "COQUE - AVENUE JF KENNEDY / RUE ERASME", "status": "OPEN", "banking": false, "bonus": false, "last_update": "2025-05-03T03:12:50Z", "slots": 20, "has_ebikes": true, "ebikes": 0, "normal_bikes": 0}}, {"id": "c7bc4fdfab1d828c56874faed43d4d42", "name": "#00069-UM REIMERWEE", "latitude": 49.61769, "longitude": 6.08276, "timestamp": "2025-05-03T03:15:56.932650+00:00Z", "free_bikes": 14, "empty_slots": 4, "extra": {"uid": 69, "address": "UM REIMERWEE - RUE DU KIEM", "status": "OPEN", "banking": false, "bonus": false, "last_update": "2025-05-03T03:11:55Z", "slots": 20, "has_ebikes": true, "ebikes": 14, "normal_bikes": 0}}, {"id": "cacad268ebfaeaa4f5dc1dd2ef48466d", "name": "#00087-NATIONALBIBLIOTHEIK", "latitude": 49.629865, "longitude": 6.166252, "timestamp": "2025-05-03T03:15:56.932602+00:00Z", "free_bikes": 1, "empty_slots": 19, "extra": {"uid": 87, "address": "NATIONALBIBLIOTHEIK - Bd. KONRAD ADENAUER (Immeuble Biblioth\u00e8que Nationale)", "status": "OPEN", "banking": false, "bonus": false, "last_update": "2025-05-03T03:14:19Z", "slots": 20, "has_ebikes": true, "ebikes": 1, "normal_bikes": 0}}, {"id": "cc98b71992e2d888e22ba10e43f5c35f", "name": "#00074-SAINTE CUNEGONDE", "latitude": 49.6146, "longitude": 6.14283, "timestamp": "2025-05-03T03:15:56.932654+00:00Z", "free_bikes": 4, "empty_slots": 8, "extra": {"uid": 74, "address": "SAINTE CUNEGONDE - PLACE STE CUNEGONDE", "status": "OPEN", "banking": false, "bonus": false, "last_update": "2025-05-03T03:14:54Z", "slots": 15, "has_ebikes": true, "ebikes": 4, "normal_bikes": 0}}, {"id": "cdce10ad10d40da453e6d18912ab74e1", "name": "#00111-HALL SPORTIF NICOLAS FRANTZ", "latitude": 49.623154, "longitude": 6.024879, "timestamp": "2025-05-03T03:15:56.932642+00:00Z", "free_bikes": 4, "empty_slots": 16, "extra": {"uid": 111, "address": "HALL SPORTIF NICOLAS FRANTZ - RUE DE BERTRANGE / HALL SPORTIF NICOLAS FRANTZ", "status": "OPEN", "banking": false, "bonus": false, "last_update": "2025-05-03T03:13:44Z", "slots": 20, "has_ebikes": true, "ebikes": 4, "normal_bikes": 0}}, {"id": "cdf1fc420475cac5c85b178d1fc91393", "name": "#00032-PISCINE OLYMPIQUE", "latitude": 49.623901, "longitude": 6.150013, "timestamp": "2025-05-03T03:15:56.932691+00:00Z", "free_bikes": 1, "empty_slots": 19, "extra": {"uid": 32, "address": "PISCINE OLYMPIQUE - RUE LEON HENGEN", "status": "OPEN", "banking": false, "bonus": false, "last_update": "2025-05-03T03:13:55Z", "slots": 20, "has_ebikes": true, "ebikes": 1, "normal_bikes": 0}}, {"id": "d3129064742f4d82b3cb8d13ff8e36d1", "name": "#00015-THEATER PLAZ", "latitude": 49.612782, "longitude": 6.131208, "timestamp": "2025-05-03T03:15:56.932406+00:00Z", "free_bikes": 1, "empty_slots": 19, "extra": {"uid": 15, "address": "THEATER PLAZ - PLACE DU THEATRE ( FACE N\u00b01 )", "status": "OPEN", "banking": false, "bonus": false, "last_update": "2025-05-03T03:12:13Z", "slots": 20, "has_ebikes": true, "ebikes": 1, "normal_bikes": 0}}, {"id": "d7dd9f43bda95af7400be934bbf8ffd9", "name": "#00124-BARTRENG - CITE RIEDGEN", "latitude": 49.616795, "longitude": 6.058614, "timestamp": "2025-05-03T03:15:56.932499+00:00Z", "free_bikes": 3, "empty_slots": 12, "extra": {"uid": 124, "address": "CIT\u00c9 RIEDGEN", "status": "OPEN", "banking": false, "bonus": false, "last_update": "2025-05-03T03:11:16Z", "slots": 15, "has_ebikes": true, "ebikes": 3, "normal_bikes": 0}}, {"id": "dffec60433c356c7dad991d2403e6845", "name": "#00119-RIEDGEN", "latitude": 49.619953, "longitude": 6.063326, "timestamp": "2025-05-03T03:15:56.932273+00:00Z", "free_bikes": 5, "empty_slots": 10, "extra": {"uid": 119, "address": "RUE HENRI DUNANT \u00e0 cot\u00e9 du n\u00b045 \u00e0 8024 STRASSEN", "status": "OPEN", "banking": false, "bonus": false, "last_update": "2025-05-03T03:11:58Z", "slots": 15, "has_ebikes": true, "ebikes": 5, "normal_bikes": 0}}, {"id": "e857eb098ea7c4c76c3755ee90262139", "name": "#00046-LONKECHER STROOSS", "latitude": 49.60563, "longitude": 6.10003, "timestamp": "2025-05-03T03:15:56.932721+00:00Z", "free_bikes": 12, "empty_slots": 2, "extra": {"uid": 46, "address": "LONKECHER STROOSS - ROUTE DE LONGWY ( DEVANT N\u00b0 241 )", "status": "OPEN", "banking": false, "bonus": false, "last_update": "2025-05-03T03:14:31Z", "slots": 15, "has_ebikes": true, "ebikes": 12, "normal_bikes": 0}}, {"id": "e8af3078f223a787776760ef5df808d8", "name": "#00142-BERELER SCHOUL", "latitude": 49.653525, "longitude": 6.127049, "timestamp": "2025-05-03T03:15:56.932534+00:00Z", "free_bikes": 14, "empty_slots": 1, "extra": {"uid": 142, "address": "Route de Luxembourg 98", "status": "OPEN", "banking": false, "bonus": false, "last_update": "2025-05-03T03:14:49Z", "slots": 15, "has_ebikes": true, "ebikes": 14, "normal_bikes": 0}}, {"id": "eaf8f4619d9d965eb79323937fb06625", "name": "#00095-MAIRIE DE BERTRANGE", "latitude": 49.61093, "longitude": 6.051527, "timestamp": "2025-05-03T03:15:56.932515+00:00Z", "free_bikes": 12, "empty_slots": 8, "extra": {"uid": 95, "address": "MAIRIE DE BERTRANGE-2 Beim Schlass/ Rue de Leudelange", "status": "OPEN", "banking": false, "bonus": false, "last_update": "2025-05-03T03:12:30Z", "slots": 20, "has_ebikes": true, "ebikes": 12, "normal_bikes": 0}}, {"id": "eccedc020c51f9d8a25e99414dbe0426", "name": "#00049-MARGUERITES", "latitude": 49.623837, "longitude": 6.160642, "timestamp": "2025-05-03T03:15:56.932476+00:00Z", "free_bikes": 4, "empty_slots": 16, "extra": {"uid": 49, "address": "MARGUERITES - RUE DES MARGUERITES ( FACE N\u00b0 105 A )", "status": "OPEN", "banking": false, "bonus": false, "last_update": "2025-05-03T03:10:31Z", "slots": 20, "has_ebikes": true, "ebikes": 4, "normal_bikes": 0}}, {"id": "ed2a733270859ee7a8dff403c94130a2", "name": "#00132-CENTRE DE TENNIS PAUL GL\u00dcCK", "latitude": 49.642519, "longitude": 5.99179, "timestamp": "2025-05-03T03:15:56.932457+00:00Z", "free_bikes": 2, "empty_slots": 18, "extra": {"uid": 132, "address": "Rannerwee 13", "status": "OPEN", "banking": false, "bonus": false, "last_update": "2025-05-03T03:14:10Z", "slots": 20, "has_ebikes": true, "ebikes": 2, "normal_bikes": 0}}, {"id": "ee372d0bd56f2394c5897e5c7c8d5f9e", "name": "#00043-LYCEE TECHNIQUE DE BONNEVOIE", "latitude": 49.5911, "longitude": 6.1416, "timestamp": "2025-05-03T03:15:56.932639+00:00Z", "free_bikes": 17, "empty_slots": 1, "extra": {"uid": 43, "address": "LYCEE TECHNIQUE DE BONNEVOIE - RUE DU CIMETIERE ( DEVANT N\u00b0 110 )", "status": "OPEN", "banking": false, "bonus": false, "last_update": "2025-05-03T03:11:43Z", "slots": 20, "has_ebikes": true, "ebikes": 17, "normal_bikes": 0}}, {"id": "f1e72663e548e37054940afe95f43d42", "name": "#00122-DICKS", "latitude": 49.604944, "longitude": 6.05228, "timestamp": "2025-05-03T03:15:56.932402+00:00Z", "free_bikes": 2, "empty_slots": 12, "extra": {"uid": 122, "address": "RUE DE LEUDELANGE", "status": "OPEN", "banking": false, "bonus": false, "last_update": "2025-05-03T03:14:45Z", "slots": 15, "has_ebikes": true, "ebikes": 2, "normal_bikes": 0}}, {"id": "f247a119abd9b92532f166e89af2a764", "name": "#00086-PWC - BD KOCKELSCHEUER", "latitude": 49.580242, "longitude": 6.120862, "timestamp": "2025-05-03T03:15:56.932461+00:00Z", "free_bikes": 0, "empty_slots": 19, "extra": {"uid": 86, "address": "Rue Gerhard Mercator n\u00b02/Bd de Kockelscheuer", "status": "OPEN", "banking": false, "bonus": false, "last_update": "2025-05-03T03:12:16Z", "slots": 20, "has_ebikes": true, "ebikes": 0, "normal_bikes": 0}}, {"id": "f4f08e8e6e8dd8faf120e56a13f8ac3d", "name": "#00012-HAMILIUS", "latitude": 49.610738, "longitude": 6.126743, "timestamp": "2025-05-03T03:15:56.932484+00:00Z", "free_bikes": 0, "empty_slots": 11, "extra": {"uid": 12, "address": "HAMILIUS - Avenue Monterey", "status": "OPEN", "banking": false, "bonus": false, "last_update": "2025-05-03T03:14:14Z", "slots": 20, "has_ebikes": true, "ebikes": 0, "normal_bikes": 0}}, {"id": "f752211e2251190eebeaaf6627b40282", "name": "#00101-M\u00dcNCHEN-TESCH", "latitude": 49.628293, "longitude": 6.133301, "timestamp": "2025-05-03T03:15:56.932301+00:00Z", "free_bikes": 18, "empty_slots": 0, "extra": {"uid": 101, "address": "M\u00dcNCHEN-TESCH - RUE M\u00dcNCHEN-TESCH", "status": "OPEN", "banking": false, "bonus": false, "last_update": "2025-05-03T03:14:14Z", "slots": 20, "has_ebikes": true, "ebikes": 18, "normal_bikes": 0}}, {"id": "f7ace871109fec5e9f5d0c286b7d418b", "name": "#00048-BGL BNP PARIBAS", "latitude": 49.632179, "longitude": 6.174446, "timestamp": "2025-05-03T03:15:56.932386+00:00Z", "free_bikes": 1, "empty_slots": 19, "extra": {"uid": 48, "address": "BGL BNP PARIBAS  - RUE EDOUARD STEICHEN ( FACE N\u00b0 10 )", "status": "OPEN", "banking": false, "bonus": false, "last_update": "2025-05-03T03:14:47Z", "slots": 20, "has_ebikes": true, "ebikes": 1, "normal_bikes": 0}}, {"id": "f9175ed5a270829c6cd794182506d49d", "name": "#00138-A SCHOMMESCH", "latitude": 49.659778, "longitude": 6.241714, "timestamp": "2025-05-03T03:15:56.932676+00:00Z", "free_bikes": 17, "empty_slots": 3, "extra": {"uid": 138, "address": "Rue d'Ernster 18", "status": "OPEN", "banking": false, "bonus": false, "last_update": "2025-05-03T03:12:49Z", "slots": 20, "has_ebikes": true, "ebikes": 17, "normal_bikes": 0}}, {"id": "fbf2bc8b542c465ca481871ed26f021d", "name": "#00080-INS", "latitude": 49.612542, "longitude": 6.147918, "timestamp": "2025-05-03T03:15:56.932389+00:00Z", "free_bikes": 1, "empty_slots": 17, "extra": {"uid": 80, "address": "Rue du Fort Dumoulin/Rue de Tr\u00e8ves", "status": "OPEN", "banking": false, "bonus": false, "last_update": "2025-05-03T03:11:57Z", "slots": 20, "has_ebikes": true, "ebikes": 1, "normal_bikes": 0}}]}