{"id": "velok", "name": "V\u00ebl'Ok", "location": {"latitude": 49.5024, "longitude": 5.9722, "city": "Esch-sur-alzette", "country": "LU"}, "href": "/v2/networks/velok", "company": ["CIGL ESCH"], "system": "Velok", "source": "https://docs.api.tfl.lu/v1/en/RESTAPIs/BikePoint/", "ebikes": true, "stations": [{"id": "01fb339c66403997e6bede14d7dccf23", "name": "Millchen", "latitude": 49.50385, "longitude": 6.000608, "timestamp": "2025-05-03T03:15:49.128469+00:00Z", "free_bikes": 4, "empty_slots": 4, "extra": {"uid": "59", "address": "Rue d'Esch", "photo": "https://webservice.velok.lu/images/photos/59.jpg", "slots": 8, "online": true, "ebikes": 4}}, {"id": "02d20baa27b7d3853bb6ca6ac085b7e0", "name": "Gare CFL Noertzange", "latitude": 49.507809, "longitude": 6.050168, "timestamp": "2025-05-03T03:15:49.128392+00:00Z", "free_bikes": 3, "empty_slots": 2, "extra": {"uid": "43", "address": "Rue de la Gare", "photo": "https://webservice.velok.lu/images/photos/43.jpg", "slots": 5, "online": true, "ebikes": 3}}, {"id": "035787ce1e8d31e7fdec5ea2444e6f92", "name": "CNA", "latitude": 49.474717, "longitude": 6.082661, "timestamp": "2025-05-03T03:15:49.129244+00:00Z", "free_bikes": 1, "empty_slots": 4, "extra": {"uid": "137", "address": "Rue du Centenaire", "photo": "https://webservice.velok.lu/images/photos/137.jpg", "slots": 5, "online": true, "ebikes": 1}}, {"id": "03aafc4a46a27e743e650b4718652cc1", "name": "Cimeti\u00e8re de Lallange", "latitude": 49.510581, "longitude": 5.988107, "timestamp": "2025-05-03T03:15:49.128288+00:00Z", "free_bikes": 7, "empty_slots": 1, "extra": {"uid": "21", "address": "Rue de Mondercange", "photo": "https://webservice.velok.lu/images/photos/21.jpg", "slots": 8, "online": true, "ebikes": 7}}, {"id": "06599be463ddad3c41bc3e21142c02f2", "name": "Parc Molter", "latitude": 49.53516, "longitude": 5.98824, "timestamp": "2025-05-03T03:15:49.129389+00:00Z", "free_bikes": 6, "empty_slots": 2, "extra": {"uid": "166", "address": "Bei der Kazebaach", "photo": "https://webservice.velok.lu/images/photos/166.jpg", "slots": 8, "online": true, "ebikes": 6}}, {"id": "07c6a1570c1cec8fa187886c2a4a0b79", "name": "\u00c9cole Ribeschpont", "latitude": 49.493013, "longitude": 6.081453, "timestamp": "2025-05-03T03:15:49.129302+00:00Z", "free_bikes": 0, "empty_slots": 5, "extra": {"uid": "148", "address": "Rue des Modeleurs", "photo": "https://webservice.velok.lu/images/photos/148.jpg", "slots": 5, "online": true, "ebikes": 0}}, {"id": "0803ecb6348c63d5e3510070d294103d", "name": "Rue de Sanem", "latitude": 49.5392, "longitude": 5.905347, "timestamp": "2025-05-03T03:15:49.129286+00:00Z", "free_bikes": 3, "empty_slots": 3, "extra": {"uid": "145", "address": "Rue Pierre Gansen", "photo": "https://webservice.velok.lu/images/photos/145.jpg", "slots": 6, "online": true, "ebikes": 3}}, {"id": "0a2aaa4666e5029042609881ec851c09", "name": "Parking \u00c9cole Woiwer", "latitude": 49.519801, "longitude": 5.90815, "timestamp": "2025-05-03T03:15:49.128452+00:00Z", "free_bikes": 3, "empty_slots": 5, "extra": {"uid": "56", "address": "Rue Neuwies", "photo": "https://webservice.velok.lu/images/photos/56.jpg", "slots": 8, "online": true, "ebikes": 3}}, {"id": "0af394677a650a79cab3c577d235c8ac", "name": "Boulevard Aloyse Meyer", "latitude": 49.507395, "longitude": 5.991006, "timestamp": "2025-05-03T03:15:49.128322+00:00Z", "free_bikes": 6, "empty_slots": 2, "extra": {"uid": "30", "address": "Parking Aloyse Meyer", "photo": "https://webservice.velok.lu/images/photos/30.jpg", "slots": 8, "online": true, "ebikes": 6}}, {"id": "0e6304187b2c9dab5c56e3dcfeb64bb5", "name": "Avenue de la Gare", "latitude": 49.49473, "longitude": 5.98276, "timestamp": "2025-05-03T03:15:49.128182+00:00Z", "free_bikes": 1, "empty_slots": 6, "extra": {"uid": "1", "address": "Rue de l\u2019Alzette", "photo": "https://webservice.velok.lu/images/photos/1.jpg", "slots": 7, "online": true, "ebikes": 1}}, {"id": "107e4fa48a0967482a2f5215eb577a97", "name": "Gemengenatelier", "latitude": 49.5213336, "longitude": 5.98688355, "timestamp": "2025-05-03T03:15:49.129357+00:00Z", "free_bikes": 5, "empty_slots": 3, "extra": {"uid": "160", "address": "Rue d'Esch", "photo": "https://webservice.velok.lu/images/photos/160.jpg", "slots": 8, "online": true, "ebikes": 5}}, {"id": "10de68ffc8629221e7d6cd6ad9568883", "name": "Place de Lod\u00e8ve", "latitude": 49.502472, "longitude": 5.979695, "timestamp": "2025-05-03T03:15:49.128226+00:00Z", "free_bikes": 5, "empty_slots": 1, "extra": {"uid": "7", "address": "Rue Jean-Pierre Michels", "photo": "https://webservice.velok.lu/images/photos/7.jpg", "slots": 6, "online": true, "ebikes": 5}}, {"id": "11d88541f5790c24fc615a224b897638", "name": "Place de la R\u00e9sistance", "latitude": 49.492417, "longitude": 5.977324, "timestamp": "2025-05-03T03:15:49.128214+00:00Z", "free_bikes": 5, "empty_slots": 3, "extra": {"uid": "5", "address": "Rue de l\u2019Alzette", "photo": "https://webservice.velok.lu/images/photos/5.jpg", "slots": 8, "online": true, "ebikes": 5}}, {"id": "11ffcb290c6573136f5185912a9802f4", "name": "\u00c9glise Huncherange", "latitude": 49.515963, "longitude": 6.064203, "timestamp": "2025-05-03T03:15:49.129328+00:00Z", "free_bikes": 4, "empty_slots": 2, "extra": {"uid": "154", "address": "Rue de Noertzange", "photo": "https://webservice.velok.lu/images/photos/154.jpg", "slots": 6, "online": true, "ebikes": 4}}, {"id": "163770f5736e5f9a7cf5e3f3b5d451ba", "name": "Cit\u00e9 op Hudelen 2", "latitude": 49.507978, "longitude": 6.0273, "timestamp": "2025-05-03T03:15:49.128667+00:00Z", "free_bikes": 6, "empty_slots": 3, "extra": {"uid": "80", "address": "Rue de Noertzange", "photo": "https://webservice.velok.lu/images/photos/80.jpg", "slots": 9, "online": true, "ebikes": 6}}, {"id": "193e10e591e7ef136f9d8ae500de48ff", "name": "Opkorn", "latitude": 49.522627, "longitude": 5.892824, "timestamp": "2025-05-03T03:15:49.128819+00:00Z", "free_bikes": 4, "empty_slots": 3, "extra": {"uid": "118", "address": "Avenue de la Libert\u00e9", "photo": "https://webservice.velok.lu/images/photos/118.jpg", "slots": 7, "online": true, "ebikes": 4}}, {"id": "1a3aa0f1f501e1be926b66ada923c0bc", "name": "Rue de la R\u00e9sistance Huncherange", "latitude": 49.517791, "longitude": 6.058681, "timestamp": "2025-05-03T03:15:49.128810+00:00Z", "free_bikes": 4, "empty_slots": 2, "extra": {"uid": "116", "address": "Route d'Esch", "photo": "https://webservice.velok.lu/images/photos/116.jpg", "slots": 6, "online": true, "ebikes": 4}}, {"id": "1b79a85de978aded9250950dc55ebad9", "name": "Place des Remparts", "latitude": 49.497134, "longitude": 5.980382, "timestamp": "2025-05-03T03:15:49.128277+00:00Z", "free_bikes": 3, "empty_slots": 5, "extra": {"uid": "19", "address": "Rue Large", "photo": "https://webservice.velok.lu/images/photos/19.jpg", "slots": 8, "online": true, "ebikes": 3}}, {"id": "2290aa0f4377158da41fbca1f78871ea", "name": "F.L.F.", "latitude": 49.54523, "longitude": 5.97871, "timestamp": "2025-05-03T03:15:49.129383+00:00Z", "free_bikes": 1, "empty_slots": 7, "extra": {"uid": "165", "address": "Rue de Limpach", "photo": "https://webservice.velok.lu/images/photos/165.jpg", "slots": 8, "online": true, "ebikes": 1}}, {"id": "23a705350415254a5c39cc6cd79d53da", "name": "Centre Commercial Foetz", "latitude": 49.52132, "longitude": 6.01034, "timestamp": "2025-05-03T03:15:49.129307+00:00Z", "free_bikes": 2, "empty_slots": 6, "extra": {"uid": "150", "address": "Rue du Brill", "photo": "https://webservice.velok.lu/images/photos/150.jpg", "slots": 8, "online": true, "ebikes": 2}}, {"id": "24a9ed1325b699e2e0a2a4dbb77ef124", "name": "Rue Catherine Schleimer-Kill", "latitude": 49.5113, "longitude": 5.99479, "timestamp": "2025-05-03T03:15:49.129275+00:00Z", "free_bikes": 5, "empty_slots": 1, "extra": {"uid": "143", "address": "Rue Portland", "photo": "https://webservice.velok.lu/images/photos/143.jpg", "slots": 6, "online": true, "ebikes": 5}}, {"id": "24cd673b20d0dba8a163743d87a8d65d", "name": "Place Prince Jean", "latitude": 49.515108, "longitude": 5.896578, "timestamp": "2025-05-03T03:15:49.128711+00:00Z", "free_bikes": 4, "empty_slots": 1, "extra": {"uid": "90", "address": "Route de Belvaux", "photo": "https://webservice.velok.lu/images/photos/90.jpg", "slots": 5, "online": true, "ebikes": 4}}, {"id": "25dc1719f87750611169c086419f76e4", "name": "Butschebuerg", "latitude": 49.491622, "longitude": 6.068021, "timestamp": "2025-05-03T03:15:49.128413+00:00Z", "free_bikes": 4, "empty_slots": 3, "extra": {"uid": "48", "address": "Place Gymnich", "photo": "https://webservice.velok.lu/images/photos/48.jpg", "slots": 7, "online": true, "ebikes": 4}}, {"id": "29bc73a1a4ea11ac62f7fbe5d98b8abc", "name": "Rue des Fleurs", "latitude": 49.502487, "longitude": 6.016943, "timestamp": "2025-05-03T03:15:49.128509+00:00Z", "free_bikes": 3, "empty_slots": 4, "extra": {"uid": "79", "address": "Rue Pierre Krier", "photo": "https://webservice.velok.lu/images/photos/79.jpg", "slots": 7, "online": true, "ebikes": 3}}, {"id": "3007ccf656cf69f4603c813a195628ea", "name": "Cit\u00e9 2000", "latitude": 49.520155, "longitude": 5.94352, "timestamp": "2025-05-03T03:15:49.129228+00:00Z", "free_bikes": 4, "empty_slots": 2, "extra": {"uid": "132", "address": "Rue d'Esch", "photo": "https://webservice.velok.lu/images/photos/132.jpg", "slots": 6, "online": true, "ebikes": 4}}, {"id": "323913e3943f0ea18c8c45fdf8c16a21", "name": "Hall Polyvalent", "latitude": 49.511225, "longitude": 6.01635, "timestamp": "2025-05-03T03:15:49.128463+00:00Z", "free_bikes": 6, "empty_slots": 2, "extra": {"uid": "58", "address": "Chemin de Bergem", "photo": "https://webservice.velok.lu/images/photos/58.jpg", "slots": 8, "online": true, "ebikes": 6}}, {"id": "32bc81c7699760001737f10b0befd264", "name": "Viaduc", "latitude": 49.51781, "longitude": 6.10107, "timestamp": "2025-05-03T03:15:49.128736+00:00Z", "free_bikes": 0, "empty_slots": 7, "extra": {"uid": "100", "address": "Rue Auguste Collart", "photo": "https://webservice.velok.lu/images/photos/100.jpg", "slots": 7, "online": true, "ebikes": 0}}, {"id": "341f95ec8734db2b0cbdc702c5120ab0", "name": "Rue de l'\u00c9cole", "latitude": 49.53348, "longitude": 6.02938, "timestamp": "2025-05-03T03:15:49.129254+00:00Z", "free_bikes": 6, "empty_slots": 2, "extra": {"uid": "139", "address": "Grand-Rue", "photo": "https://webservice.velok.lu/images/photos/139.jpg", "slots": 8, "online": true, "ebikes": 6}}, {"id": "36557335479de4aba974d8e6aae6f44c", "name": "Stade de Bettembourg", "latitude": 49.51064, "longitude": 6.11566, "timestamp": "2025-05-03T03:15:49.128758+00:00Z", "free_bikes": 3, "empty_slots": 5, "extra": {"uid": "106", "address": "Route de Mondorf", "photo": "https://webservice.velok.lu/images/photos/106.jpg", "slots": 8, "online": true, "ebikes": 3}}, {"id": "374393c7b8be9edc5fc8714f9c7aaa49", "name": "Rue de la Gare", "latitude": 49.51254, "longitude": 5.89518, "timestamp": "2025-05-03T03:15:49.128763+00:00Z", "free_bikes": 4, "empty_slots": 2, "extra": {"uid": "107", "address": "Rue Boettelchen", "photo": "https://webservice.velok.lu/images/photos/107.jpg", "slots": 6, "online": true, "ebikes": 4}}, {"id": "387fbf071f349891fd4e5d7512496ddf", "name": "Rue Arthur Thinnes", "latitude": 49.53118, "longitude": 5.98757, "timestamp": "2025-05-03T03:15:49.129260+00:00Z", "free_bikes": 3, "empty_slots": 5, "extra": {"uid": "140", "address": "Rue d'Esch", "photo": "https://webservice.velok.lu/images/photos/140.jpg", "slots": 8, "online": true, "ebikes": 3}}, {"id": "38f4d007913ac2f564167a87c64dffa9", "name": "Place Fred Coullen", "latitude": 49.485859, "longitude": 6.04256, "timestamp": "2025-05-03T03:15:49.128447+00:00Z", "free_bikes": 3, "empty_slots": 3, "extra": {"uid": "54", "address": "Rue de T\u00e9tange", "photo": "https://webservice.velok.lu/images/photos/54.jpg", "slots": 6, "online": true, "ebikes": 3}}, {"id": "3be49d30f628eb80d8b047124b32dd47", "name": "Val des Aulnes", "latitude": 49.50048, "longitude": 6.00805, "timestamp": "2025-05-03T03:15:49.128789+00:00Z", "free_bikes": 3, "empty_slots": 5, "extra": {"uid": "112", "address": "Rue des Aulnes", "photo": "https://webservice.velok.lu/images/photos/112.jpg", "slots": 8, "online": true, "ebikes": 3}}, {"id": "3c35ad824c25de7b9c5c659d00500086", "name": "Mont\u00e9e du Haut-Wangert", "latitude": 49.525611, "longitude": 5.89018, "timestamp": "2025-05-03T03:15:49.129203+00:00Z", "free_bikes": 4, "empty_slots": 3, "extra": {"uid": "129", "address": "Avenue de la Libert\u00e9", "photo": "https://webservice.velok.lu/images/photos/129.jpg", "slots": 7, "online": true, "ebikes": 4}}, {"id": "3e59c0b12116882144f350f589482523", "name": "Zone Pi\u00e9tonne", "latitude": 49.522771, "longitude": 5.887902, "timestamp": "2025-05-03T03:15:49.128366+00:00Z", "free_bikes": 2, "empty_slots": 9, "extra": {"uid": "38", "address": "Rue J-F Kennedy", "photo": "https://webservice.velok.lu/images/photos/38.jpg", "slots": 11, "online": true, "ebikes": 2}}, {"id": "4840041fa2667c3934896f78268911a3", "name": "Centre Logistique", "latitude": 49.504398, "longitude": 6.111654, "timestamp": "2025-05-03T03:15:49.128844+00:00Z", "free_bikes": 2, "empty_slots": 6, "extra": {"uid": "127", "address": "Rue Graham Bell", "photo": "https://webservice.velok.lu/images/photos/127.jpg", "slots": 8, "online": true, "ebikes": 2}}, {"id": "489ffe162f972f53d338e63648caf824", "name": "H\u00f4pital Princesse Marie-Astrid", "latitude": 49.533224, "longitude": 5.886586, "timestamp": "2025-05-03T03:15:49.128701+00:00Z", "free_bikes": 3, "empty_slots": 5, "extra": {"uid": "88", "address": "Avenue de la Libert\u00e9", "photo": "https://webservice.velok.lu/images/photos/88.jpg", "slots": 8, "online": true, "ebikes": 3}}, {"id": "4a186754bb466530892f26ecdd3f178c", "name": "Gare CFL Belvaux-Soleuvre", "latitude": 49.515074, "longitude": 5.926336, "timestamp": "2025-05-03T03:15:49.128344+00:00Z", "free_bikes": 1, "empty_slots": 5, "extra": {"uid": "34", "address": "Rue de la Gare", "photo": "https://webservice.velok.lu/images/photos/34.jpg", "slots": 6, "online": true, "ebikes": 1}}, {"id": "4a279fae33781612eebe286619a435db", "name": "Place de la Paix", "latitude": 49.504555, "longitude": 5.984362, "timestamp": "2025-05-03T03:15:49.128238+00:00Z", "free_bikes": 2, "empty_slots": 4, "extra": {"uid": "9", "address": "Rue L\u00e9on Metz", "photo": "https://webservice.velok.lu/images/photos/9.jpg", "slots": 6, "online": true, "ebikes": 2}}, {"id": "4a9f356cbf6db07a128b260bb0ab2734", "name": "H\u00f4pital Emile Mayrisch", "latitude": 49.502137, "longitude": 5.982528, "timestamp": "2025-05-03T03:15:49.128306+00:00Z", "free_bikes": 1, "empty_slots": 8, "extra": {"uid": "26", "address": "Rue Emile Mayrisch", "photo": "https://webservice.velok.lu/images/photos/26.jpg", "slots": 9, "online": true, "ebikes": 1}}, {"id": "4c1216b63061850791a218a62a5c058e", "name": "Geesewee", "latitude": 49.516073, "longitude": 5.935491, "timestamp": "2025-05-03T03:15:49.129347+00:00Z", "free_bikes": 0, "empty_slots": 6, "extra": {"uid": "158", "address": "Rue de Soleuvre", "photo": "https://webservice.velok.lu/images/photos/158.jpg", "slots": 6, "online": true, "ebikes": 0}}, {"id": "4da85a7c073b05636d5aede141f0647e", "name": "\u00c9glise Bettembourg", "latitude": 49.518895, "longitude": 6.0987, "timestamp": "2025-05-03T03:15:49.128397+00:00Z", "free_bikes": 2, "empty_slots": 4, "extra": {"uid": "44", "address": "Route d'Esch", "photo": "https://webservice.velok.lu/images/photos/44.jpg", "slots": 6, "online": true, "ebikes": 2}}, {"id": "5071a3731b45044a649d37d2f28720d4", "name": "Cimeti\u00e8re de Niederkorn", "latitude": 49.536712, "longitude": 5.887018, "timestamp": "2025-05-03T03:15:49.128696+00:00Z", "free_bikes": 2, "empty_slots": 3, "extra": {"uid": "87", "address": "Rue du Kirchberg", "photo": "https://webservice.velok.lu/images/photos/87.jpg", "slots": 5, "online": true, "ebikes": 2}}, {"id": "525d9433b0dd633f0bc3a74fcc9f0adb", "name": "Abweiler", "latitude": 49.533056, "longitude": 6.079208, "timestamp": "2025-05-03T03:15:49.129421+00:00Z", "free_bikes": 0, "empty_slots": 6, "extra": {"uid": "174", "address": "Rue du Village", "photo": "https://webservice.velok.lu/images/photos/174.jpg", "slots": 6, "online": true, "ebikes": 0}}, {"id": "598fada42988a26b0bac2af7893b8d85", "name": "Um Biergwee", "latitude": 49.50822, "longitude": 5.89403, "timestamp": "2025-05-03T03:15:49.128780+00:00Z", "free_bikes": 1, "empty_slots": 5, "extra": {"uid": "110", "address": "Rue de la Gare", "photo": "https://webservice.velok.lu/images/photos/110.jpg", "slots": 6, "online": true, "ebikes": 1}}, {"id": "5ac629dfa94d79e9af4778d8515fdda5", "name": "Bieleser Gemeng", "latitude": 49.51094, "longitude": 5.929889, "timestamp": "2025-05-03T03:15:49.128338+00:00Z", "free_bikes": 2, "empty_slots": 4, "extra": {"uid": "33", "address": "Rondpoint Route d'Esch", "photo": "https://webservice.velok.lu/images/photos/33.jpg", "slots": 6, "online": true, "ebikes": 2}}, {"id": "5f463e2d639a75cc13c536f5520f5d1b", "name": "Centre Sportif et Culturel", "latitude": 49.515518, "longitude": 6.098616, "timestamp": "2025-05-03T03:15:49.128402+00:00Z", "free_bikes": 7, "empty_slots": 3, "extra": {"uid": "45", "address": "Rue James Hilliard Polk", "photo": "https://webservice.velok.lu/images/photos/45.jpg", "slots": 10, "online": true, "ebikes": 7}}, {"id": "5f63a4f9d2799d98c6b11ff9fb91aa5d", "name": "Kierch \u00c9ilereng", "latitude": 49.52354, "longitude": 5.96708, "timestamp": "2025-05-03T03:15:49.129441+00:00Z", "free_bikes": 0, "empty_slots": 8, "extra": {"uid": "178", "address": "Rue de Mondercange", "photo": "https://webservice.velok.lu/images/photos/178.jpg", "slots": 8, "online": true, "ebikes": 0}}, {"id": "62ecdb728827fb23fbee92b1be16f972", "name": "Zolwereck", "latitude": 49.522762, "longitude": 5.921783, "timestamp": "2025-05-03T03:15:49.129313+00:00Z", "free_bikes": 2, "empty_slots": 6, "extra": {"uid": "151", "address": "Rue de Differdange", "photo": "https://webservice.velok.lu/images/photos/151.jpg", "slots": 8, "online": true, "ebikes": 2}}, {"id": "64e6193a011204b35c39a3502ac3a0ef", "name": "Place des Alli\u00e9s", "latitude": 49.520003, "longitude": 5.899579, "timestamp": "2025-05-03T03:15:49.129393+00:00Z", "free_bikes": 4, "empty_slots": 4, "extra": {"uid": "167", "address": "Rue John Castegnaro", "photo": "https://webservice.velok.lu/images/photos/167.jpg", "slots": 8, "online": true, "ebikes": 4}}, {"id": "6643779146ec120e63d4a433c37e4781", "name": "Rue de Hussigny", "latitude": 49.520093, "longitude": 5.882069, "timestamp": "2025-05-03T03:15:49.129280+00:00Z", "free_bikes": 0, "empty_slots": 6, "extra": {"uid": "144", "address": "Rue de Lasauvage", "photo": "https://webservice.velok.lu/images/photos/144.jpg", "slots": 6, "online": true, "ebikes": 0}}, {"id": "6b69b2384b199f446bc9167e8183ea55", "name": "Reebou Schoul", "latitude": 49.517218, "longitude": 6.108912, "timestamp": "2025-05-03T03:15:49.128408+00:00Z", "free_bikes": 2, "empty_slots": 3, "extra": {"uid": "47", "address": "Rue Marie-Th\u00e9r\u00e8se", "photo": "https://webservice.velok.lu/images/photos/47.jpg", "slots": 5, "online": true, "ebikes": 2}}, {"id": "6d917f286e07f935a521bdcd19ef278b", "name": "Parc Gaalgebierg", "latitude": 49.492584, "longitude": 5.988625, "timestamp": "2025-05-03T03:15:49.128479+00:00Z", "free_bikes": 1, "empty_slots": 7, "extra": {"uid": "70", "address": "Rue du Stade", "photo": "https://webservice.velok.lu/images/photos/70.jpg", "slots": 8, "online": true, "ebikes": 1}}, {"id": "776a937313ed9457d8c8b5b3d2bddb54", "name": "Place Nic Wilhelm", "latitude": 49.473611, "longitude": 6.038333, "timestamp": "2025-05-03T03:15:49.129265+00:00Z", "free_bikes": 6, "empty_slots": 0, "extra": {"uid": "141", "address": "Rue des L\u00e9gionnaires", "photo": "https://webservice.velok.lu/images/photos/141.jpg", "slots": 6, "online": true, "ebikes": 6}}, {"id": "7aa01ab3fdbb8ddd9282d0234ef6c555", "name": "Rue Kulturschapp", "latitude": 49.522302, "longitude": 5.964791, "timestamp": "2025-05-03T03:15:49.128500+00:00Z", "free_bikes": 0, "empty_slots": 6, "extra": {"uid": "76", "address": "Rue d'Esch", "photo": "https://webservice.velok.lu/images/photos/76.jpg", "slots": 6, "online": true, "ebikes": 0}}, {"id": "7dce94aa781ee4c7e7aa88e2fdd5cf83", "name": "Op Fankenacker", "latitude": 49.52887, "longitude": 6.10149, "timestamp": "2025-05-03T03:15:49.128731+00:00Z", "free_bikes": 1, "empty_slots": 5, "extra": {"uid": "99", "address": "Route de Luxembourg", "photo": "https://webservice.velok.lu/images/photos/99.jpg", "slots": 6, "online": true, "ebikes": 1}}, {"id": "7f14047e2e2e2224e1b67191fc5d850a", "name": "Rue Albert Ungeheuer", "latitude": 49.522276, "longitude": 5.911613, "timestamp": "2025-05-03T03:15:49.129292+00:00Z", "free_bikes": 1, "empty_slots": 7, "extra": {"uid": "146", "address": "Rue Z\u00e9non Bernard", "photo": "https://webservice.velok.lu/images/photos/146.jpg", "slots": 8, "online": true, "ebikes": 1}}, {"id": "7fccc4877e581ef0e64f80b2dca63424", "name": "Cimeti\u00e8re d'Oberkorn", "latitude": 49.514951, "longitude": 5.905272, "timestamp": "2025-05-03T03:15:49.128829+00:00Z", "free_bikes": 7, "empty_slots": 1, "extra": {"uid": "123", "address": "Rue Duchscher", "photo": "https://webservice.velok.lu/images/photos/123.jpg", "slots": 8, "online": true, "ebikes": 7}}, {"id": "801dbfbdc013440390d910b895e275aa", "name": "Parking Neudorf", "latitude": 49.49419, "longitude": 5.992063, "timestamp": "2025-05-03T03:15:49.128484+00:00Z", "free_bikes": 5, "empty_slots": 3, "extra": {"uid": "71", "address": "Rue Neudorf", "photo": "https://webservice.velok.lu/images/photos/71.jpg", "slots": 8, "online": true, "ebikes": 5}}, {"id": "81ae9cb28f00a50851f7df128465fbbf", "name": "Camping Gaalgebierg", "latitude": 49.48505, "longitude": 5.98633, "timestamp": "2025-05-03T03:15:49.129297+00:00Z", "free_bikes": 0, "empty_slots": 6, "extra": {"uid": "147", "address": "Rue du Stade", "photo": "https://webservice.velok.lu/images/photos/147.jpg", "slots": 6, "online": true, "ebikes": 0}}, {"id": "81d1e12773d81f0709a5b8e9235e6bf4", "name": "Conservatoire de Musique", "latitude": 49.489706, "longitude": 5.975533, "timestamp": "2025-05-03T03:15:49.128261+00:00Z", "free_bikes": 6, "empty_slots": 2, "extra": {"uid": "15", "address": "Avenue des Terres-Rouges", "photo": "https://webservice.velok.lu/images/photos/15.jpg", "slots": 8, "online": true, "ebikes": 6}}, {"id": "82d14aee9d8b95b6aca1c90f115bc1f9", "name": "Parc Le'h", "latitude": 49.485562, "longitude": 6.098131, "timestamp": "2025-05-03T03:15:49.128430+00:00Z", "free_bikes": 4, "empty_slots": 4, "extra": {"uid": "51", "address": "Rue de la For\u00eat", "photo": "https://webservice.velok.lu/images/photos/51.jpg", "slots": 8, "online": true, "ebikes": 4}}, {"id": "8519a4df88f5ba6e56f95ead06480bfa", "name": "H\u00f4tel de Ville", "latitude": 49.520668, "longitude": 5.887873, "timestamp": "2025-05-03T03:15:49.128360+00:00Z", "free_bikes": 2, "empty_slots": 7, "extra": {"uid": "37", "address": "Avenue Charlotte", "photo": "https://webservice.velok.lu/images/photos/37.jpg", "slots": 9, "online": true, "ebikes": 2}}, {"id": "88d25d5761627f58b432140b2b7ef171", "name": "Rue Nicolas Biever", "latitude": 49.513053, "longitude": 6.105401, "timestamp": "2025-05-03T03:15:49.129410+00:00Z", "free_bikes": 2, "empty_slots": 5, "extra": {"uid": "170", "address": "Rue de la Scierie", "photo": "https://webservice.velok.lu/images/photos/170.jpg", "slots": 7, "online": true, "ebikes": 2}}, {"id": "89631ba377dbacf6b99533bb57ba17e9", "name": "Rue Marion Hammang", "latitude": 49.492151, "longitude": 6.085826, "timestamp": "2025-05-03T03:15:49.129431+00:00Z", "free_bikes": 0, "empty_slots": 5, "extra": {"uid": "176", "address": "Rue Triny Bourkel", "photo": "https://webservice.velok.lu/images/photos/176.jpg", "slots": 5, "online": true, "ebikes": 0}}, {"id": "89bb6cb2f6c8b0c57ec108ce4e6eecde", "name": "Rue Jean-Pierre Bausch", "latitude": 49.4847, "longitude": 5.97775, "timestamp": "2025-05-03T03:15:49.128799+00:00Z", "free_bikes": 3, "empty_slots": 5, "extra": {"uid": "114", "address": "Rue Pierre Kersch", "photo": "https://webservice.velok.lu/images/photos/114.jpg", "slots": 8, "online": true, "ebikes": 3}}, {"id": "8db5fa7e588145bfb829a44c8e346e69", "name": "Raemerich", "latitude": 49.509179, "longitude": 5.954208, "timestamp": "2025-05-03T03:15:49.128716+00:00Z", "free_bikes": 2, "empty_slots": 4, "extra": {"uid": "91", "address": "Rue de Moedling", "photo": "https://webservice.velok.lu/images/photos/91.jpg", "slots": 6, "online": true, "ebikes": 2}}, {"id": "8f6c74b31876883f0abc703d6204d95a", "name": "Gare CFL Belval-R\u00e9dange", "latitude": 49.5029, "longitude": 5.923779, "timestamp": "2025-05-03T03:15:49.129234+00:00Z", "free_bikes": 1, "empty_slots": 5, "extra": {"uid": "133", "address": "Rue Jos\u00e9phine Welu Scherer", "photo": "https://webservice.velok.lu/images/photos/133.jpg", "slots": 6, "online": true, "ebikes": 1}}, {"id": "90afe5fe693bdac8f329a2fbeff30156", "name": "Rue du Canal", "latitude": 49.494626, "longitude": 5.977421, "timestamp": "2025-05-03T03:15:49.128201+00:00Z", "free_bikes": 6, "empty_slots": 2, "extra": {"uid": "2", "address": "Rue Dicks", "photo": "https://webservice.velok.lu/images/photos/2.jpg", "slots": 8, "online": true, "ebikes": 6}}, {"id": "97af312972e932d6526c04de00f649e5", "name": "1535\u00b0 Creative Hub", "latitude": 49.52206, "longitude": 5.89998, "timestamp": "2025-05-03T03:15:49.128371+00:00Z", "free_bikes": 1, "empty_slots": 14, "extra": {"uid": "39", "address": "Rue Emile Marc", "photo": "https://webservice.velok.lu/images/photos/39.jpg", "slots": 15, "online": true, "ebikes": 1}}, {"id": "97e8b790d7da436c6671accefb8a7728", "name": "Gemeng Kayl", "latitude": 49.487321, "longitude": 6.038023, "timestamp": "2025-05-03T03:15:49.128673+00:00Z", "free_bikes": 1, "empty_slots": 5, "extra": {"uid": "81", "address": "Rue de l'H\u00f4tel de Ville", "photo": "https://webservice.velok.lu/images/photos/81.jpg", "slots": 6, "online": true, "ebikes": 1}}, {"id": "9ab89cedd8c19a6173ac5bd17455c8ac", "name": "Rue de H\u00e9dange", "latitude": 49.50695, "longitude": 6.01192, "timestamp": "2025-05-03T03:15:49.128376+00:00Z", "free_bikes": 8, "empty_slots": 0, "extra": {"uid": "40", "address": "Rue du Stade", "photo": "https://webservice.velok.lu/images/photos/40.jpg", "slots": 8, "online": true, "ebikes": 8}}, {"id": "9bccec100ff5768120262bb3e3a25c87", "name": "Aquasud 2", "latitude": 49.513851, "longitude": 5.892506, "timestamp": "2025-05-03T03:15:49.128824+00:00Z", "free_bikes": 0, "empty_slots": 8, "extra": {"uid": "122", "address": "Rue Jeannot Kremer", "photo": "https://webservice.velok.lu/images/photos/122.jpg", "slots": 8, "online": true, "ebikes": 0}}, {"id": "9bd5c1ee44bb4195d8231ac72a7dbe7f", "name": "Les Bains du Parc", "latitude": 49.500159, "longitude": 5.977292, "timestamp": "2025-05-03T03:15:49.128220+00:00Z", "free_bikes": 5, "empty_slots": 7, "extra": {"uid": "6", "address": "Place des Sacrifi\u00e9s 1940-1945", "photo": "https://webservice.velok.lu/images/photos/6.jpg", "slots": 12, "online": true, "ebikes": 5}}, {"id": "9d313e6fc49fd7a6092dd1bcd9f06579", "name": "H\u00f4tel de Ville", "latitude": 49.478662, "longitude": 6.084961, "timestamp": "2025-05-03T03:15:49.128436+00:00Z", "free_bikes": 2, "empty_slots": 3, "extra": {"uid": "52", "address": "Place de l'H\u00f4tel de Ville", "photo": "https://webservice.velok.lu/images/photos/52.jpg", "slots": 5, "online": true, "ebikes": 2}}, {"id": "9e78ea2658a63bbe7eb2e716bb78ef8e", "name": "Gare CFL Rumelange", "latitude": 49.460026, "longitude": 6.032969, "timestamp": "2025-05-03T03:15:49.128814+00:00Z", "free_bikes": 5, "empty_slots": 1, "extra": {"uid": "117", "address": "Rue de l'Usine", "photo": "https://webservice.velok.lu/images/photos/117.jpg", "slots": 6, "online": true, "ebikes": 5}}, {"id": "9fcaf7b88fef9784fd4c2ae60ee7fe31", "name": "Rue Pr\u00e9sident J-F Kennedy", "latitude": 49.516314, "longitude": 6.113832, "timestamp": "2025-05-03T03:15:49.129362+00:00Z", "free_bikes": 4, "empty_slots": 1, "extra": {"uid": "161", "address": "Rue Jean Wolter", "photo": "https://webservice.velok.lu/images/photos/161.jpg", "slots": 5, "online": true, "ebikes": 4}}, {"id": "a1650581c5bbb395a6571c173edf6629", "name": "Centre Culturel Belvaux Metzerlach", "latitude": 49.5141, "longitude": 5.940313, "timestamp": "2025-05-03T03:15:49.128489+00:00Z", "free_bikes": 3, "empty_slots": 4, "extra": {"uid": "74", "address": "Rue Sigefroi", "photo": "https://webservice.velok.lu/images/photos/74.jpg", "slots": 7, "online": true, "ebikes": 3}}, {"id": "a203cd2966244c1f3d98a204df4d71fd", "name": "Cimeti\u00e8re de Differdange", "latitude": 49.515482, "longitude": 5.88811, "timestamp": "2025-05-03T03:15:49.128706+00:00Z", "free_bikes": 0, "empty_slots": 5, "extra": {"uid": "89", "address": "Rue Pasteur", "photo": "https://webservice.velok.lu/images/photos/89.jpg", "slots": 5, "online": true, "ebikes": 0}}, {"id": "a3fcd78eb5e4936b71f4fffa542d1158", "name": "Lyc\u00e9e Bel-Val", "latitude": 49.504478, "longitude": 5.936447, "timestamp": "2025-05-03T03:15:49.128327+00:00Z", "free_bikes": 1, "empty_slots": 13, "extra": {"uid": "31", "address": "Avenue du Blues", "photo": "https://webservice.velok.lu/images/photos/31.jpg", "slots": 14, "online": true, "ebikes": 1}}, {"id": "a684ec65b10f1884818d101e84a136ed", "name": "Rue des \u00c9coles", "latitude": 49.535663, "longitude": 5.89155, "timestamp": "2025-05-03T03:15:49.128691+00:00Z", "free_bikes": 7, "empty_slots": 1, "extra": {"uid": "86", "address": "Rue Pierre Gansen", "photo": "https://webservice.velok.lu/images/photos/86.jpg", "slots": 8, "online": true, "ebikes": 7}}, {"id": "a6c963f4ff4a8d6c342c2918a1425bfc", "name": "Rue Gaston Thorn", "latitude": 49.520278, "longitude": 5.8925, "timestamp": "2025-05-03T03:15:49.129270+00:00Z", "free_bikes": 1, "empty_slots": 7, "extra": {"uid": "142", "address": "Rue Asca Rampini", "photo": "https://webservice.velok.lu/images/photos/142.jpg", "slots": 8, "online": true, "ebikes": 1}}, {"id": "a857965951b1e876ba3f72f92d51231b", "name": "Rue C-M Spoo", "latitude": 49.522735, "longitude": 5.902829, "timestamp": "2025-05-03T03:15:49.129399+00:00Z", "free_bikes": 0, "empty_slots": 10, "extra": {"uid": "168", "address": "Rue du Stade Henri Jungers", "photo": "https://webservice.velok.lu/images/photos/168.jpg", "slots": 10, "online": true, "ebikes": 0}}, {"id": "a9d90c16c70e5cf07e664b0046e5d3ad", "name": "Stade Municipal de Differdange", "latitude": 49.514752, "longitude": 5.890352, "timestamp": "2025-05-03T03:15:49.128849+00:00Z", "free_bikes": 0, "empty_slots": 8, "extra": {"uid": "128", "address": "Avenue du Parc des Sports", "photo": "https://webservice.velok.lu/images/photos/128.jpg", "slots": 8, "online": true, "ebikes": 0}}, {"id": "ab4189ae59b0a3646213fa089b874576", "name": "Route de Belval", "latitude": 49.4938, "longitude": 5.97153, "timestamp": "2025-05-03T03:15:49.129342+00:00Z", "free_bikes": 2, "empty_slots": 6, "extra": {"uid": "157", "address": "Boulevard Prince Henri", "photo": "https://webservice.velok.lu/images/photos/157.jpg", "slots": 8, "online": true, "ebikes": 2}}, {"id": "adccfe87739b209537acc1c6a46dc99e", "name": "Suessemer Schlass", "latitude": 49.543757, "longitude": 5.931545, "timestamp": "2025-05-03T03:15:49.129318+00:00Z", "free_bikes": 1, "empty_slots": 5, "extra": {"uid": "152", "address": "Rue d'Esch", "photo": "https://webservice.velok.lu/images/photos/152.jpg", "slots": 6, "online": true, "ebikes": 1}}, {"id": "aed0e85e25f09e514c0c322d3fee24f1", "name": "Cit\u00e9 op Hudelen 3", "latitude": 49.50897, "longitude": 6.02294, "timestamp": "2025-05-03T03:15:49.129239+00:00Z", "free_bikes": 4, "empty_slots": 4, "extra": {"uid": "136", "address": "Chemin de Fer", "photo": "https://webservice.velok.lu/images/photos/136.jpg", "slots": 8, "online": true, "ebikes": 4}}, {"id": "aeec095dbfc977d7d46804413b13d273", "name": "\u00c9glise Saint Joseph", "latitude": 49.49775, "longitude": 5.98215, "timestamp": "2025-05-03T03:15:49.128272+00:00Z", "free_bikes": 2, "empty_slots": 4, "extra": {"uid": "18", "address": "Rue de l'\u00c9glise", "photo": "https://webservice.velok.lu/images/photos/18.jpg", "slots": 6, "online": true, "ebikes": 2}}, {"id": "af4bea419e5011b7b01c1b1b5bed47be", "name": "Rue Fr\u00e9d\u00e9ric Joliot-Curie", "latitude": 49.504646, "longitude": 5.978129, "timestamp": "2025-05-03T03:15:49.128232+00:00Z", "free_bikes": 7, "empty_slots": 1, "extra": {"uid": "8", "address": "Rue Nicolas Biever", "photo": "https://webservice.velok.lu/images/photos/8.jpg", "slots": 8, "online": true, "ebikes": 7}}, {"id": "b20ed5095a5be764e79a26036d495213", "name": "Nonnewisen", "latitude": 49.5082, "longitude": 5.973263, "timestamp": "2025-05-03T03:15:49.128721+00:00Z", "free_bikes": 3, "empty_slots": 9, "extra": {"uid": "92", "address": "Rue Guillaume Capus", "photo": "https://webservice.velok.lu/images/photos/92.jpg", "slots": 12, "online": true, "ebikes": 3}}, {"id": "b2409a7fee2ec865f80d0bf2ee7fb759", "name": "Cit\u00e9 op Hudelen", "latitude": 49.50738, "longitude": 6.022841, "timestamp": "2025-05-03T03:15:49.128387+00:00Z", "free_bikes": 9, "empty_slots": 5, "extra": {"uid": "42", "address": "Rue de Noertzange", "photo": "https://webservice.velok.lu/images/photos/42.jpg", "slots": 14, "online": true, "ebikes": 9}}, {"id": "b33385ca3d1ff01c124f8e38147ee8a1", "name": "Rue Louis Pasteur", "latitude": 49.516491, "longitude": 6.110164, "timestamp": "2025-05-03T03:15:49.129405+00:00Z", "free_bikes": 2, "empty_slots": 6, "extra": {"uid": "169", "address": "Rue Fernand Mertens", "photo": "https://webservice.velok.lu/images/photos/169.jpg", "slots": 8, "online": true, "ebikes": 2}}, {"id": "b35a527efef513764b7a7b2d61e17bbc", "name": "Place de l'Ind\u00e9pendance", "latitude": 49.52195, "longitude": 5.937125, "timestamp": "2025-05-03T03:15:49.128495+00:00Z", "free_bikes": 1, "empty_slots": 5, "extra": {"uid": "75", "address": "Rue d'Esch", "photo": "https://webservice.velok.lu/images/photos/75.jpg", "slots": 6, "online": true, "ebikes": 1}}, {"id": "b36b3e4e304b9a236d33507e4874f91d", "name": "Rue Dicks-Lentz", "latitude": 49.509425, "longitude": 5.921454, "timestamp": "2025-05-03T03:15:49.129378+00:00Z", "free_bikes": 4, "empty_slots": 4, "extra": {"uid": "164", "address": "Rue  de Hussigny", "photo": "https://webservice.velok.lu/images/photos/164.jpg", "slots": 8, "online": true, "ebikes": 4}}, {"id": "b40e314303f39d66477964bccf97239c", "name": "Enovos Esch", "latitude": 49.50025, "longitude": 5.98992, "timestamp": "2025-05-03T03:15:49.128752+00:00Z", "free_bikes": 2, "empty_slots": 4, "extra": {"uid": "105", "address": "Schlassgoard", "photo": "https://webservice.velok.lu/images/photos/105.jpg", "slots": 6, "online": true, "ebikes": 2}}, {"id": "b43d2d7b62f4a31594de57433be45656", "name": "Piscine", "latitude": 49.50358, "longitude": 6.0115, "timestamp": "2025-05-03T03:15:49.128474+00:00Z", "free_bikes": 2, "empty_slots": 5, "extra": {"uid": "60", "address": "Rue du Parc", "photo": "https://webservice.velok.lu/images/photos/60.jpg", "slots": 7, "online": true, "ebikes": 2}}, {"id": "b5c5e8921448f894ec5ac2a2d4c443be", "name": "Gare CFL Schifflange", "latitude": 49.506073, "longitude": 6.009552, "timestamp": "2025-05-03T03:15:49.128458+00:00Z", "free_bikes": 1, "empty_slots": 5, "extra": {"uid": "57", "address": "Rue Aloyse Kayser", "photo": "https://webservice.velok.lu/images/photos/57.jpg", "slots": 6, "online": true, "ebikes": 1}}, {"id": "b742d3a2d38683d43e614809d6e9dca7", "name": "Centre Culturel Beim N\u00ebssert", "latitude": 49.52357, "longitude": 6.03982, "timestamp": "2025-05-03T03:15:49.129249+00:00Z", "free_bikes": 6, "empty_slots": 2, "extra": {"uid": "138", "address": "Rue de Schifflange", "photo": "https://webservice.velok.lu/images/photos/138.jpg", "slots": 8, "online": true, "ebikes": 6}}, {"id": "b781c0482df2d376d04f5423db7d1799", "name": "Ellergronn", "latitude": 49.477477, "longitude": 5.979282, "timestamp": "2025-05-03T03:15:49.128726+00:00Z", "free_bikes": 7, "empty_slots": 1, "extra": {"uid": "96", "address": "Place Pierre Ponath", "photo": "https://webservice.velok.lu/images/photos/96.jpg", "slots": 8, "online": true, "ebikes": 7}}, {"id": "b863eda3a31380713613b5d2f0b16389", "name": "ZARE Ouest", "latitude": 49.5192, "longitude": 5.96913, "timestamp": "2025-05-03T03:15:49.128785+00:00Z", "free_bikes": 1, "empty_slots": 5, "extra": {"uid": "111", "address": "Ehlerange", "photo": "https://webservice.velok.lu/images/photos/111.jpg", "slots": 6, "online": true, "ebikes": 1}}, {"id": "b8f648ec3720f32cc2b06914c8076892", "name": "Universit\u00e9 Belval", "latitude": 49.504861, "longitude": 5.948026, "timestamp": "2025-05-03T03:15:49.129337+00:00Z", "free_bikes": 0, "empty_slots": 14, "extra": {"uid": "156", "address": "Porte des Sciences", "photo": "https://webservice.velok.lu/images/photos/156.jpg", "slots": 14, "online": true, "ebikes": 0}}, {"id": "ba67a4b4382cc569401ff79c2ebc4546", "name": "CIPA Op der Waassertrap", "latitude": 49.508763, "longitude": 5.934312, "timestamp": "2025-05-03T03:15:49.128332+00:00Z", "free_bikes": 1, "empty_slots": 4, "extra": {"uid": "32", "address": "Rue Charly Gaul", "photo": "https://webservice.velok.lu/images/photos/32.jpg", "slots": 5, "online": true, "ebikes": 1}}, {"id": "bd91127c9cc44ceb1a4870dc23ff6db0", "name": "Cit\u00e9 Kauffmann", "latitude": 49.521711, "longitude": 5.916679, "timestamp": "2025-05-03T03:15:49.128682+00:00Z", "free_bikes": 3, "empty_slots": 3, "extra": {"uid": "84", "address": "Rue de Differdange", "photo": "https://webservice.velok.lu/images/photos/84.jpg", "slots": 6, "online": true, "ebikes": 3}}, {"id": "bece9085731e1ae886894ef4c292c614", "name": "Rue Saint Vincent", "latitude": 49.495946, "longitude": 5.981643, "timestamp": "2025-05-03T03:15:49.128255+00:00Z", "free_bikes": 5, "empty_slots": 1, "extra": {"uid": "14", "address": "Avenue de la Gare", "photo": "https://webservice.velok.lu/images/photos/14.jpg", "slots": 6, "online": true, "ebikes": 5}}, {"id": "c1f8263c2196947cd056c440229101c5", "name": "Gare CFL Esch-sur-Alzette", "latitude": 49.493985, "longitude": 5.984716, "timestamp": "2025-05-03T03:15:49.128267+00:00Z", "free_bikes": 3, "empty_slots": 9, "extra": {"uid": "16", "address": "Boulevard John F. Kennedy", "photo": "https://webservice.velok.lu/images/photos/16.jpg", "slots": 12, "online": true, "ebikes": 3}}, {"id": "c2926e6c89b12b3467fcf98f737691c1", "name": "Parking Postschoul", "latitude": 49.508895, "longitude": 5.925239, "timestamp": "2025-05-03T03:15:49.128834+00:00Z", "free_bikes": 1, "empty_slots": 7, "extra": {"uid": "124", "address": "Rue des Alli\u00e9s", "photo": "https://webservice.velok.lu/images/photos/124.jpg", "slots": 8, "online": true, "ebikes": 1}}, {"id": "c300fc98411ecbe096852415b1630a79", "name": "Kra\u00efzbierg", "latitude": 49.478471, "longitude": 6.099112, "timestamp": "2025-05-03T03:15:49.128747+00:00Z", "free_bikes": 3, "empty_slots": 2, "extra": {"uid": "104", "address": "Rue des Gen\u00eats", "photo": "https://webservice.velok.lu/images/photos/104.jpg", "slots": 5, "online": true, "ebikes": 3}}, {"id": "c551ad321e455fc7c57552cb04d49de9", "name": "Parking \u00c9glise Huncherange", "latitude": 49.516557, "longitude": 6.064486, "timestamp": "2025-05-03T03:15:49.129322+00:00Z", "free_bikes": 5, "empty_slots": 1, "extra": {"uid": "153", "address": "Rue de Noertzange", "photo": "https://webservice.velok.lu/images/photos/153.jpg", "slots": 6, "online": true, "ebikes": 5}}, {"id": "c572f407f3402e117ae6aacefa864322", "name": "Rue Triny Bourkel", "latitude": 49.49033, "longitude": 6.085666, "timestamp": "2025-05-03T03:15:49.129426+00:00Z", "free_bikes": 3, "empty_slots": 2, "extra": {"uid": "175", "address": "Rue Anne Holtz", "photo": "https://webservice.velok.lu/images/photos/175.jpg", "slots": 5, "online": true, "ebikes": 3}}, {"id": "c9639c32e62ef7028be548a317f19ad6", "name": "Route de Hellange", "latitude": 49.492707, "longitude": 6.089359, "timestamp": "2025-05-03T03:15:49.128677+00:00Z", "free_bikes": 6, "empty_slots": 2, "extra": {"uid": "82", "address": "Rue des Pr\u00e9s", "photo": "https://webservice.velok.lu/images/photos/82.jpg", "slots": 8, "online": true, "ebikes": 6}}, {"id": "c9d430a6c4046587b3fe40809dbc43a8", "name": "Lyc\u00e9e Technique Esch", "latitude": 49.509244, "longitude": 5.964514, "timestamp": "2025-05-03T03:15:49.128250+00:00Z", "free_bikes": 1, "empty_slots": 9, "extra": {"uid": "12", "address": "Rue Henri Koch", "photo": "https://webservice.velok.lu/images/photos/12.jpg", "slots": 10, "online": true, "ebikes": 1}}, {"id": "ca09ce27f680e29a39652f704d19d5ac", "name": "Rue Clair Ch\u00eane", "latitude": 49.499169, "longitude": 5.972593, "timestamp": "2025-05-03T03:15:49.128300+00:00Z", "free_bikes": 5, "empty_slots": 1, "extra": {"uid": "25", "address": "Rue Karl Marx", "photo": "https://webservice.velok.lu/images/photos/25.jpg", "slots": 6, "online": true, "ebikes": 5}}, {"id": "ca19cb78b996b28ee76931c6e87e62fa", "name": "H\u00f4tel de Ville", "latitude": 49.50664, "longitude": 6.012, "timestamp": "2025-05-03T03:15:49.129352+00:00Z", "free_bikes": 2, "empty_slots": 3, "extra": {"uid": "159", "address": "Rue de H\u00e9dange", "photo": "https://webservice.velok.lu/images/photos/159.jpg", "slots": 5, "online": true, "ebikes": 2}}, {"id": "caf79d994432f9d274b61237ffbfa6d2", "name": "Cit\u00e9 Emile Mayrisch", "latitude": 49.505107, "longitude": 6.002238, "timestamp": "2025-05-03T03:15:49.128504+00:00Z", "free_bikes": 8, "empty_slots": 0, "extra": {"uid": "78", "address": "Avenue de la R\u00e9sistance", "photo": "https://webservice.velok.lu/images/photos/78.jpg", "slots": 8, "online": true, "ebikes": 8}}, {"id": "cb15059354e7ea6a13da0ef593d8376b", "name": "Gare CFL Dudelange-Ville", "latitude": 49.482816, "longitude": 6.083186, "timestamp": "2025-05-03T03:15:49.128419+00:00Z", "free_bikes": 4, "empty_slots": 3, "extra": {"uid": "49", "address": "Rue Dominique Lang", "photo": "https://webservice.velok.lu/images/photos/49.jpg", "slots": 7, "online": true, "ebikes": 4}}, {"id": "cc26aba75af3a5bb951bd22a9066d150", "name": "Cit\u00e9 de la Chiers", "latitude": 49.54299, "longitude": 5.89065, "timestamp": "2025-05-03T03:15:49.128769+00:00Z", "free_bikes": 6, "empty_slots": 0, "extra": {"uid": "108", "address": "Rue Franz Erpelding", "photo": "https://webservice.velok.lu/images/photos/108.jpg", "slots": 6, "online": true, "ebikes": 6}}, {"id": "cd891dbfdaba1258059b500e0f57fdb2", "name": "Services Techniques Communaux", "latitude": 49.506209, "longitude": 5.929749, "timestamp": "2025-05-03T03:15:49.129373+00:00Z", "free_bikes": 0, "empty_slots": 8, "extra": {"uid": "163", "address": "Rue de l'Usine", "photo": "https://webservice.velok.lu/images/photos/163.jpg", "slots": 8, "online": true, "ebikes": 0}}, {"id": "d119905b29b05e4780f1ff695e8c9e5d", "name": "KUSS", "latitude": 49.517812, "longitude": 5.927049, "timestamp": "2025-05-03T03:15:49.128349+00:00Z", "free_bikes": 4, "empty_slots": 2, "extra": {"uid": "35", "address": "Rue Jean Anen", "photo": "https://webservice.velok.lu/images/photos/35.jpg", "slots": 6, "online": true, "ebikes": 4}}, {"id": "d14ba6883f50a72d75e37e3818b56e52", "name": "Eurohub Sud", "latitude": 49.497126, "longitude": 6.113416, "timestamp": "2025-05-03T03:15:49.128839+00:00Z", "free_bikes": 1, "empty_slots": 7, "extra": {"uid": "126", "address": "Route de Zoufftgen", "photo": "https://webservice.velok.lu/images/photos/126.jpg", "slots": 8, "online": true, "ebikes": 1}}, {"id": "d45f0b4cbe4e0eef2b62df0043690cf4", "name": "Waassertrap 2", "latitude": 49.507807, "longitude": 5.940387, "timestamp": "2025-05-03T03:15:49.129415+00:00Z", "free_bikes": 3, "empty_slots": 5, "extra": {"uid": "173", "address": "Rue Pir Kremer", "photo": "https://webservice.velok.lu/images/photos/173.jpg", "slots": 8, "online": true, "ebikes": 3}}, {"id": "d61128c835977027691a3986aaeaf4d4", "name": "Mus\u00e9e National des Mines de Fer", "latitude": 49.46132, "longitude": 6.02158, "timestamp": "2025-05-03T03:15:49.129215+00:00Z", "free_bikes": 4, "empty_slots": 1, "extra": {"uid": "130", "address": "Rue des Mines", "photo": "https://webservice.velok.lu/images/photos/130.jpg", "slots": 5, "online": true, "ebikes": 4}}, {"id": "d7e57443ab4e8124595ce28bef185f97", "name": "Rockhal", "latitude": 49.500483, "longitude": 5.947219, "timestamp": "2025-05-03T03:15:49.128294+00:00Z", "free_bikes": 1, "empty_slots": 15, "extra": {"uid": "22", "address": "Avenue du Rock'n'Roll", "photo": "https://webservice.velok.lu/images/photos/22.jpg", "slots": 16, "online": true, "ebikes": 1}}, {"id": "d9fd62d12172890022218912f09e073d", "name": "Boulodrome National", "latitude": 49.514574, "longitude": 5.950592, "timestamp": "2025-05-03T03:15:49.128804+00:00Z", "free_bikes": 4, "empty_slots": 2, "extra": {"uid": "115", "address": "Chemin Rouge", "photo": "https://webservice.velok.lu/images/photos/115.jpg", "slots": 6, "online": true, "ebikes": 4}}, {"id": "daca298decf16c10fee6e88c967c8b32", "name": "Rue du Tramway", "latitude": 49.50483, "longitude": 5.96183, "timestamp": "2025-05-03T03:15:49.128742+00:00Z", "free_bikes": 3, "empty_slots": 4, "extra": {"uid": "103", "address": "Rue de Belvaux", "photo": "https://webservice.velok.lu/images/photos/103.jpg", "slots": 7, "online": true, "ebikes": 3}}, {"id": "dc754c80426fc23a9453b2c036b95f16", "name": "Kulturfabrik", "latitude": 49.503666, "longitude": 5.987602, "timestamp": "2025-05-03T03:15:49.128317+00:00Z", "free_bikes": 0, "empty_slots": 6, "extra": {"uid": "29", "address": "Rue de Luxembourg", "photo": "https://webservice.velok.lu/images/photos/29.jpg", "slots": 6, "online": true, "ebikes": 0}}, {"id": "de03d238b00a8c5400528030a7a7d28f", "name": "Bieleser Gaalgebierg", "latitude": 49.50736, "longitude": 5.91357, "timestamp": "2025-05-03T03:15:49.128774+00:00Z", "free_bikes": 3, "empty_slots": 9, "extra": {"uid": "109", "address": "Rue de Hussigny", "photo": "https://webservice.velok.lu/images/photos/109.jpg", "slots": 12, "online": true, "ebikes": 3}}, {"id": "de4425c12225c92ba35e9e318fc6352e", "name": "Cit\u00e9 Pierre Krier", "latitude": 49.500627, "longitude": 5.969114, "timestamp": "2025-05-03T03:15:49.129222+00:00Z", "free_bikes": 7, "empty_slots": 0, "extra": {"uid": "131", "address": "Rue Michel Lentz", "photo": "https://webservice.velok.lu/images/photos/131.jpg", "slots": 7, "online": true, "ebikes": 7}}, {"id": "e1f85d99922b774174412cc9237bd9f0", "name": "D\u00e9p\u00f4t Municipal", "latitude": 49.486374, "longitude": 5.971767, "timestamp": "2025-05-03T03:15:49.128283+00:00Z", "free_bikes": 6, "empty_slots": 2, "extra": {"uid": "20", "address": "Rue Barbourg", "photo": "https://webservice.velok.lu/images/photos/20.jpg", "slots": 8, "online": true, "ebikes": 6}}, {"id": "e27768b7b49ad0fd9602447f46ec2dd9", "name": "Place de l'H\u00f4tel de Ville", "latitude": 49.496511, "longitude": 5.985264, "timestamp": "2025-05-03T03:15:49.128208+00:00Z", "free_bikes": 0, "empty_slots": 10, "extra": {"uid": "4", "address": "Grand-Rue", "photo": "https://webservice.velok.lu/images/photos/4.jpg", "slots": 10, "online": true, "ebikes": 0}}, {"id": "e474850190660632709f0635052612e8", "name": "Rue de l'H\u00f4pital", "latitude": 49.522957, "longitude": 5.881238, "timestamp": "2025-05-03T03:15:49.129436+00:00Z", "free_bikes": 1, "empty_slots": 7, "extra": {"uid": "177", "address": "Rue de Lasauvage", "photo": "https://webservice.velok.lu/images/photos/177.jpg", "slots": 8, "online": true, "ebikes": 1}}, {"id": "e4df607c050cb05652a3135e7854ff3a", "name": "\u00c9cole Op L\u00e9nkeschl\u00e9i", "latitude": 49.480715, "longitude": 6.097601, "timestamp": "2025-05-03T03:15:49.129333+00:00Z", "free_bikes": 4, "empty_slots": 1, "extra": {"uid": "155", "address": "Rue Marthe Bigelbach-Fohrmann", "photo": "https://webservice.velok.lu/images/photos/155.jpg", "slots": 5, "online": true, "ebikes": 4}}, {"id": "e88e10a54612f95334b2937628365058", "name": "Chapelle Saint-Eloi", "latitude": 49.471132, "longitude": 6.084016, "timestamp": "2025-05-03T03:15:49.128441+00:00Z", "free_bikes": 3, "empty_slots": 4, "extra": {"uid": "53", "address": "Rue de la Lib\u00e9ration", "photo": "https://webservice.velok.lu/images/photos/53.jpg", "slots": 7, "online": true, "ebikes": 3}}, {"id": "ec6f3f0c488fdbffb06ec011f9302338", "name": "Rue de la Gare", "latitude": 49.50632, "longitude": 6.00861, "timestamp": "2025-05-03T03:15:49.128381+00:00Z", "free_bikes": 6, "empty_slots": 2, "extra": {"uid": "41", "address": "Avenue de la R\u00e9sistance", "photo": "https://webservice.velok.lu/images/photos/41.jpg", "slots": 8, "online": true, "ebikes": 6}}, {"id": "f09dd9937dbc83680c35756bfba1c65c", "name": "Centre Sportif Ren\u00e9 Hartmann", "latitude": 49.484736, "longitude": 6.089457, "timestamp": "2025-05-03T03:15:49.128425+00:00Z", "free_bikes": 2, "empty_slots": 5, "extra": {"uid": "50", "address": "Rue du Parc", "photo": "https://webservice.velok.lu/images/photos/50.jpg", "slots": 7, "online": true, "ebikes": 2}}, {"id": "f0cf2f8133bd8258f1fc600d575c296c", "name": "Gare CFL Belval", "latitude": 49.499713, "longitude": 5.945835, "timestamp": "2025-05-03T03:15:49.128312+00:00Z", "free_bikes": 0, "empty_slots": 10, "extra": {"uid": "27", "address": "Gare Belval", "photo": "https://webservice.velok.lu/images/photos/27.jpg", "slots": 10, "online": true, "ebikes": 0}}, {"id": "f296cd9297ceda118267808dfa49646c", "name": "Stade Jos Haupert Niederkorn", "latitude": 49.545868, "longitude": 5.901156, "timestamp": "2025-05-03T03:15:49.128687+00:00Z", "free_bikes": 3, "empty_slots": 3, "extra": {"uid": "85", "address": "ZAC Hahneboesch II", "photo": "https://webservice.velok.lu/images/photos/85.jpg", "slots": 6, "online": true, "ebikes": 3}}, {"id": "f3fb08510913d989be99bb28f03bcc6f", "name": "Rue des Champs", "latitude": 49.519702, "longitude": 6.080711, "timestamp": "2025-05-03T03:15:49.129367+00:00Z", "free_bikes": 2, "empty_slots": 4, "extra": {"uid": "162", "address": "Rue des Alouettes", "photo": "https://webservice.velok.lu/images/photos/162.jpg", "slots": 6, "online": true, "ebikes": 2}}, {"id": "f4048abf3296757ee9b3d26bb9c31c7e", "name": "ZARE Est", "latitude": 49.52007, "longitude": 5.97344, "timestamp": "2025-05-03T03:15:49.128794+00:00Z", "free_bikes": 1, "empty_slots": 5, "extra": {"uid": "113", "address": "Rue Kiemel", "photo": "https://webservice.velok.lu/images/photos/113.jpg", "slots": 6, "online": true, "ebikes": 1}}, {"id": "f6b3ee883dc656eb6045247888427a7b", "name": "Rue Xavier Brasseur", "latitude": 49.493295, "longitude": 5.979856, "timestamp": "2025-05-03T03:15:49.128244+00:00Z", "free_bikes": 3, "empty_slots": 7, "extra": {"uid": "10", "address": "Rue de l\u2019Alzette", "photo": "https://webservice.velok.lu/images/photos/10.jpg", "slots": 10, "online": true, "ebikes": 3}}]}