{"id": "velomagg", "name": "V\u00e9lomagg", "location": {"latitude": 43.6119, "longitude": 3.8772, "city": "Montpellier", "country": "FR"}, "href": "/v2/networks/velomagg", "company": ["TaM", "Fifteen"], "source": "https://transport.data.gouv.fr/datasets/disponibilite-en-temps-reel-des-velos-en-libre-service-velomagg-de-montpellier/", "license": {"name": "Open Data Commons Open Database License (ODbL)", "url": "http://opendatacommons.org/licenses/odbl/summary/"}, "gbfs_href": "https://montpellier-fr.fifteen.site/gbfs/gbfs.json", "stations": [{"id": "0b946130caa8aa1d504a80ce61ed8960", "name": "Parvis Jules Ferry - Gare Saint-Roch", "latitude": 43.603889, "longitude": 3.879362, "timestamp": "2025-05-03T03:15:42.539126+00:00Z", "free_bikes": 2, "empty_slots": 6, "extra": {"uid": "050", "renting": 1, "returning": 1, "last_updated": 1746241933, "slots": 8, "virtual": false}}, {"id": "0cd7dc7e28ec9665de2c6e5021034ee5", "name": "Sabines", "latitude": 43.584211, "longitude": 3.860031, "timestamp": "2025-05-03T03:15:42.539075+00:00Z", "free_bikes": 3, "empty_slots": 5, "extra": {"uid": "043", "renting": 1, "returning": 1, "last_updated": 1746242025, "slots": 8, "virtual": false}}, {"id": "0f405bdb61ac724f41b316a5d6a60593", "name": "Jean de Beins", "latitude": 43.609857, "longitude": 3.883884, "timestamp": "2025-05-03T03:15:42.539186+00:00Z", "free_bikes": 2, "empty_slots": 14, "extra": {"uid": "061", "renting": 1, "returning": 1, "last_updated": 1746242070, "slots": 16, "virtual": false}}, {"id": "12b8965e65c7a9305f0253f5ad8e0efd", "name": "Les Arceaux", "latitude": 43.612659, "longitude": 3.867734, "timestamp": "2025-05-03T03:15:42.538921+00:00Z", "free_bikes": 5, "empty_slots": 3, "extra": {"uid": "023", "renting": 1, "returning": 1, "last_updated": 1746242067, "slots": 8, "virtual": false}}, {"id": "14eadb5dee875ff4a063c52a4daa0334", "name": "Place Albert 1er - St Charles", "latitude": 43.616768, "longitude": 3.873375, "timestamp": "2025-05-03T03:15:42.538458+00:00Z", "free_bikes": 5, "empty_slots": 22, "extra": {"uid": "006", "renting": 1, "returning": 1, "last_updated": 1746241765, "slots": 27, "virtual": false}}, {"id": "1b49e3fd5fc38fdadbaaeb293e4c92f3", "name": "H\u00f4tel du D\u00e9partement", "latitude": 43.621682, "longitude": 3.83477, "timestamp": "2025-05-03T03:15:42.539111+00:00Z", "free_bikes": 2, "empty_slots": 6, "extra": {"uid": "048", "renting": 1, "returning": 1, "last_updated": 1746242086, "slots": 8, "virtual": false}}, {"id": "226f4678ed1886c3bd486b31de2e7f50", "name": "Foch", "latitude": 43.610989, "longitude": 3.873345, "timestamp": "2025-05-03T03:15:42.538466+00:00Z", "free_bikes": 0, "empty_slots": 8, "extra": {"uid": "007", "renting": 1, "returning": 1, "last_updated": 1746242118, "slots": 8, "virtual": false}}, {"id": "304a45b07d5ac3bc6cc6073af65844f5", "name": "FacdesSciences", "latitude": 43.631318, "longitude": 3.861299, "timestamp": "2025-05-03T03:15:42.539029+00:00Z", "free_bikes": 22, "empty_slots": 2, "extra": {"uid": "037", "renting": 1, "returning": 1, "last_updated": 1746242121, "slots": 24, "virtual": false}}, {"id": "34bfd19c62d9d0358faf5689fe65dc89", "name": "Louis Blanc", "latitude": 43.614642, "longitude": 3.877648, "timestamp": "2025-05-03T03:15:42.538803+00:00Z", "free_bikes": 2, "empty_slots": 14, "extra": {"uid": "019", "renting": 1, "returning": 1, "last_updated": 1746241551, "slots": 16, "virtual": false}}, {"id": "375526e7c2c6b307a8d85b600ada2d01", "name": "Voltaire", "latitude": 43.603767, "longitude": 3.888659, "timestamp": "2025-05-03T03:15:42.538984+00:00Z", "free_bikes": 6, "empty_slots": 2, "extra": {"uid": "031", "renting": 1, "returning": 1, "last_updated": 1746241939, "slots": 8, "virtual": false}}, {"id": "3ac7e821e3d1b37c5dbb9e30399afcba", "name": "Fac de Lettres", "latitude": 43.6304374053632, "longitude": 3.86953870506188, "timestamp": "2025-05-03T03:15:42.539037+00:00Z", "free_bikes": 8, "empty_slots": 4, "extra": {"uid": "038", "renting": 1, "returning": 1, "last_updated": 1746241634, "slots": 12, "virtual": false}}, {"id": "3c1a7928b500e7ea45bff5997d479067", "name": "Malbosc", "latitude": 43.633679, "longitude": 3.832861, "timestamp": "2025-05-03T03:15:42.539014+00:00Z", "free_bikes": 2, "empty_slots": 6, "extra": {"uid": "035", "renting": 1, "returning": 1, "last_updated": 1746241584, "slots": 8, "virtual": false}}, {"id": "634da73815a15466db3f6e9c0f0fbbb6", "name": "Saint-Guilhem - Courreau", "latitude": 43.608996, "longitude": 3.872752, "timestamp": "2025-05-03T03:15:42.539164+00:00Z", "free_bikes": 2, "empty_slots": 6, "extra": {"uid": "057", "renting": 1, "returning": 1, "last_updated": 1746242124, "slots": 8, "virtual": false}}, {"id": "673b1c64b6083156d8c9852abe8bc8d8", "name": "Port Marianne", "latitude": 43.60032, "longitude": 3.89851, "timestamp": "2025-05-03T03:15:42.538911+00:00Z", "free_bikes": 16, "empty_slots": 0, "extra": {"uid": "021", "renting": 1, "returning": 1, "last_updated": 1746242071, "slots": 16, "virtual": false}}, {"id": "6a032a12cd591359a2eda394c263b1a7", "name": "Emile Combes", "latitude": 43.616742, "longitude": 3.87998, "timestamp": "2025-05-03T03:15:42.538513+00:00Z", "free_bikes": 2, "empty_slots": 6, "extra": {"uid": "013", "renting": 1, "returning": 1, "last_updated": 1746241654, "slots": 8, "virtual": false}}, {"id": "6a1f2e3e074f9a7dd4f57d014a61c449", "name": "Charles Flahault", "latitude": 43.618762, "longitude": 3.865971, "timestamp": "2025-05-03T03:15:42.538975+00:00Z", "free_bikes": 7, "empty_slots": 1, "extra": {"uid": "030", "renting": 1, "returning": 1, "last_updated": 1746241883, "slots": 8, "virtual": false}}, {"id": "6b325bfc31c46e21f4e978da68cdcb79", "name": "Jeu de Mail des Abb\u00e9s", "latitude": 43.619701, "longitude": 3.883831, "timestamp": "2025-05-03T03:15:42.539052+00:00Z", "free_bikes": 4, "empty_slots": 4, "extra": {"uid": "040", "renting": 1, "returning": 1, "last_updated": 1746242047, "slots": 8, "virtual": false}}, {"id": "6dbfdaba432fcc4a0bb22141305c98e6", "name": "Occitanie", "latitude": 43.634242, "longitude": 3.849128, "timestamp": "2025-05-03T03:15:42.539021+00:00Z", "free_bikes": 13, "empty_slots": 19, "extra": {"uid": "036", "renting": 1, "returning": 1, "last_updated": 1746241943, "slots": 32, "virtual": false}}, {"id": "6e515f7648498c1641569a25271f3c99", "name": "Celleneuve", "latitude": 43.61467, "longitude": 3.832624, "timestamp": "2025-05-03T03:15:42.539082+00:00Z", "free_bikes": 3, "empty_slots": 5, "extra": {"uid": "044", "renting": 1, "returning": 1, "last_updated": 1746242112, "slots": 8, "virtual": false}}, {"id": "6e86afa6679445d4921ec17594660aea", "name": "Les Aubes", "latitude": 43.618692, "longitude": 3.893844, "timestamp": "2025-05-03T03:15:42.538529+00:00Z", "free_bikes": 5, "empty_slots": 3, "extra": {"uid": "015", "renting": 1, "returning": 1, "last_updated": 1746242118, "slots": 8, "virtual": false}}, {"id": "6f1bdda947b57799f71a1be8299cdd8b", "name": "H\u00f4tel de Ville", "latitude": 43.599088, "longitude": 3.894866, "timestamp": "2025-05-03T03:15:42.538441+00:00Z", "free_bikes": 16, "empty_slots": 0, "extra": {"uid": "004", "renting": 1, "returning": 1, "last_updated": 1746241594, "slots": 16, "virtual": false}}, {"id": "759e034eb90e0ea60ba9c88fbe62015c", "name": "Rondelet", "latitude": 43.603038, "longitude": 3.875796, "timestamp": "2025-05-03T03:15:42.538489+00:00Z", "free_bikes": 1, "empty_slots": 15, "extra": {"uid": "010", "renting": 1, "returning": 1, "last_updated": 1746241683, "slots": 16, "virtual": false}}, {"id": "781c45e31f2a965c92f6e5dc7b82fada", "name": "Comedie Baudin", "latitude": 43.608717, "longitude": 3.880787, "timestamp": "2025-05-03T03:15:42.539179+00:00Z", "free_bikes": 2, "empty_slots": 6, "extra": {"uid": "060", "renting": 1, "returning": 1, "last_updated": 1746241862, "slots": 8, "virtual": false}}, {"id": "784b1025fa22790c8029f46a1d80ab14", "name": "Renouvier", "latitude": 43.603553, "longitude": 3.867884, "timestamp": "2025-05-03T03:15:42.538945+00:00Z", "free_bikes": 5, "empty_slots": 3, "extra": {"uid": "026", "renting": 1, "returning": 1, "last_updated": 1746242084, "slots": 8, "virtual": false}}, {"id": "7be421078b20c986ca83f2db15fcbd50", "name": "Richter", "latitude": 43.603424, "longitude": 3.899263, "timestamp": "2025-05-03T03:15:42.538966+00:00Z", "free_bikes": 10, "empty_slots": 6, "extra": {"uid": "029", "renting": 1, "returning": 1, "last_updated": 1746241889, "slots": 16, "virtual": false}}, {"id": "7eef68be877ea167a4faf6caf0fcfbfe", "name": "Vert Bois", "latitude": 43.6354299556467, "longitude": 3.8711793970519, "timestamp": "2025-05-03T03:15:42.539007+00:00Z", "free_bikes": 1, "empty_slots": 15, "extra": {"uid": "034", "renting": 1, "returning": 1, "last_updated": 1746241723, "slots": 16, "virtual": false}}, {"id": "8237f9416364cb62d24809cc23340f62", "name": "Aiguelongue", "latitude": 43.626163, "longitude": 3.882492, "timestamp": "2025-05-03T03:15:42.539044+00:00Z", "free_bikes": 8, "empty_slots": 0, "extra": {"uid": "039", "renting": 1, "returning": 1, "last_updated": 1746242017, "slots": 8, "virtual": false}}, {"id": "879e201c7df7a5f743d952714e9a8fd8", "name": "Garcia Lorca", "latitude": 43.590757, "longitude": 3.890616, "timestamp": "2025-05-03T03:15:42.539000+00:00Z", "free_bikes": 7, "empty_slots": 1, "extra": {"uid": "033", "renting": 1, "returning": 1, "last_updated": 1746241976, "slots": 8, "virtual": false}}, {"id": "8d393839d7eec11ba8279d0c272e12a2", "name": "Corum", "latitude": 43.613989, "longitude": 3.8816, "timestamp": "2025-05-03T03:15:42.538450+00:00Z", "free_bikes": 6, "empty_slots": 6, "extra": {"uid": "005", "renting": 1, "returning": 1, "last_updated": 1746241702, "slots": 12, "virtual": false}}, {"id": "8dfaba903aa97e69d043de173559333f", "name": "Antigone centre", "latitude": 43.607942, "longitude": 3.890634, "timestamp": "2025-05-03T03:15:42.538536+00:00Z", "free_bikes": 5, "empty_slots": 7, "extra": {"uid": "016", "renting": 1, "returning": 1, "last_updated": 1746242061, "slots": 12, "virtual": false}}, {"id": "93b06c13d51e5914ae5bab5d31bc3625", "name": "Rue Jules Ferry - Gare Saint-Roch", "latitude": 43.605366, "longitude": 3.881346, "timestamp": "2025-05-03T03:15:42.538415+00:00Z", "free_bikes": 1, "empty_slots": 11, "extra": {"uid": "001", "renting": 1, "returning": 1, "last_updated": 1746242006, "slots": 12, "virtual": false}}, {"id": "9bfb9706a028f609acccd947ad29bba6", "name": "Providence - Ovalie", "latitude": 43.588239, "longitude": 3.853421, "timestamp": "2025-05-03T03:15:42.539141+00:00Z", "free_bikes": 4, "empty_slots": 4, "extra": {"uid": "054", "renting": 1, "returning": 1, "last_updated": 1746242023, "slots": 8, "virtual": false}}, {"id": "ae542d8bb53caed9a162722fd9eb5ac8", "name": "Pont de Lattes - Gare Saint-Roch", "latitude": 43.606036, "longitude": 3.882393, "timestamp": "2025-05-03T03:15:42.539133+00:00Z", "free_bikes": 2, "empty_slots": 10, "extra": {"uid": "051", "renting": 1, "returning": 1, "last_updated": 1746241858, "slots": 12, "virtual": false}}, {"id": "b2c813f3476d738c055385ad3e90ecff", "name": "Cit\u00e9 Mion", "latitude": 43.601143, "longitude": 3.884373, "timestamp": "2025-05-03T03:15:42.538929+00:00Z", "free_bikes": 2, "empty_slots": 6, "extra": {"uid": "024", "renting": 1, "returning": 1, "last_updated": 1746241842, "slots": 8, "virtual": false}}, {"id": "b43ffe6eedcfaa8bbeaf29fd64316fe5", "name": "P\u00e8re Soulas", "latitude": 43.621983, "longitude": 3.855603, "timestamp": "2025-05-03T03:15:42.539096+00:00Z", "free_bikes": 6, "empty_slots": 2, "extra": {"uid": "046", "renting": 1, "returning": 1, "last_updated": 1746242055, "slots": 8, "virtual": false}}, {"id": "b45a4b88a4472ad672107b54880fbd8a", "name": "Eurom\u00e9decine", "latitude": 43.639119, "longitude": 3.828199, "timestamp": "2025-05-03T03:15:42.539059+00:00Z", "free_bikes": 6, "empty_slots": 2, "extra": {"uid": "041", "renting": 1, "returning": 1, "last_updated": 1746241926, "slots": 8, "virtual": false}}, {"id": "b46e9cbc2594fea63928f460ae85fea9", "name": "Nouveau Saint-Roch", "latitude": 43.599817, "longitude": 3.875757, "timestamp": "2025-05-03T03:15:42.538937+00:00Z", "free_bikes": 6, "empty_slots": 2, "extra": {"uid": "025", "renting": 1, "returning": 1, "last_updated": 1746241836, "slots": 8, "virtual": false}}, {"id": "b5c1f7c8316c45e57548725264c46a62", "name": "Jardin de la Lironde", "latitude": 43.60585, "longitude": 3.911576, "timestamp": "2025-05-03T03:15:42.539089+00:00Z", "free_bikes": 7, "empty_slots": 1, "extra": {"uid": "045", "renting": 1, "returning": 1, "last_updated": 1746241982, "slots": 8, "virtual": false}}, {"id": "b93620586448821632b061cd1675e011", "name": "Tonnelles", "latitude": 43.615155, "longitude": 3.839466, "timestamp": "2025-05-03T03:15:42.539119+00:00Z", "free_bikes": 3, "empty_slots": 5, "extra": {"uid": "049", "renting": 1, "returning": 1, "last_updated": 1746242070, "slots": 8, "virtual": false}}, {"id": "bb53a3b4f9bbe58f3d10bb8bcdc69e70", "name": "M\u00e9diath\u00e8que Emile Zola", "latitude": 43.608218, "longitude": 3.89314, "timestamp": "2025-05-03T03:15:42.538544+00:00Z", "free_bikes": 5, "empty_slots": 11, "extra": {"uid": "017", "renting": 1, "returning": 1, "last_updated": 1746242095, "slots": 16, "virtual": false}}, {"id": "bb9db5483b053c3fb310c68d2d98a7c9", "name": "P\u00e9rols Etang de l'Or", "latitude": 43.558351, "longitude": 3.963412, "timestamp": "2025-05-03T03:15:42.539148+00:00Z", "free_bikes": 47, "empty_slots": 21, "extra": {"uid": "055", "renting": 1, "returning": 1, "last_updated": 1746242114, "slots": 68, "virtual": false}}, {"id": "c09d08978d3fbee780d89fd53b79fe1e", "name": "Plan Cabanes", "latitude": 43.608491, "longitude": 3.868389, "timestamp": "2025-05-03T03:15:42.538497+00:00Z", "free_bikes": 1, "empty_slots": 11, "extra": {"uid": "011", "renting": 1, "returning": 1, "last_updated": 1746241919, "slots": 12, "virtual": false}}, {"id": "c13aa62376d7d0cc37f699e4cec88ec4", "name": "Halles Castellane", "latitude": 43.609935, "longitude": 3.877208, "timestamp": "2025-05-03T03:15:42.538474+00:00Z", "free_bikes": 0, "empty_slots": 11, "extra": {"uid": "008", "renting": 1, "returning": 1, "last_updated": 1746241778, "slots": 12, "virtual": false}}, {"id": "c484c018d4bc1f9e37e9575afd7ac69d", "name": "Gambetta", "latitude": 43.607106, "longitude": 3.870693, "timestamp": "2025-05-03T03:15:42.538895+00:00Z", "free_bikes": 5, "empty_slots": 3, "extra": {"uid": "020", "renting": 1, "returning": 1, "last_updated": 1746241789, "slots": 8, "virtual": false}}, {"id": "c90b9607a6b6858a4eff3e0a6914b9d0", "name": "Com\u00e9die", "latitude": 43.608148, "longitude": 3.878778, "timestamp": "2025-05-03T03:15:42.538431+00:00Z", "free_bikes": 0, "empty_slots": 20, "extra": {"uid": "002", "renting": 1, "returning": 1, "last_updated": 1746242009, "slots": 20, "virtual": false}}, {"id": "c97cc8da349560caef823f0c6247a7ff", "name": "Nombre d'Or", "latitude": 43.607859, "longitude": 3.886644, "timestamp": "2025-05-03T03:15:42.538784+00:00Z", "free_bikes": 8, "empty_slots": 8, "extra": {"uid": "018", "renting": 1, "returning": 1, "last_updated": 1746241596, "slots": 16, "virtual": false}}, {"id": "ce2ffbbb4d1c0f75d12abcec9a8f62d0", "name": "Marie Caizergues", "latitude": 43.619871, "longitude": 3.873812, "timestamp": "2025-05-03T03:15:42.539067+00:00Z", "free_bikes": 3, "empty_slots": 5, "extra": {"uid": "042", "renting": 1, "returning": 1, "last_updated": 1746241933, "slots": 8, "virtual": false}}, {"id": "d3598abe8b76fd07f758a62754b5c242", "name": "Albert 1er - Cath\u00e9drale", "latitude": 43.614005, "longitude": 3.873218, "timestamp": "2025-05-03T03:15:42.539156+00:00Z", "free_bikes": 1, "empty_slots": 11, "extra": {"uid": "056", "renting": 1, "returning": 1, "last_updated": 1746150232, "slots": 12, "virtual": false}}, {"id": "debacf8c5a0429fde432bdf4743dae0a", "name": "Sud De France", "latitude": 43.59562, "longitude": 3.9235, "timestamp": "2025-05-03T03:15:42.539171+00:00Z", "free_bikes": 1, "empty_slots": 7, "extra": {"uid": "059", "renting": 1, "returning": 1, "last_updated": 1746242094, "slots": 8, "virtual": false}}, {"id": "df1b6e6ffd33077555619646aa2eb7d4", "name": "Boutonnet", "latitude": 43.622629, "longitude": 3.868375, "timestamp": "2025-05-03T03:15:42.538505+00:00Z", "free_bikes": 6, "empty_slots": 6, "extra": {"uid": "012", "renting": 1, "returning": 1, "last_updated": 1746242049, "slots": 12, "virtual": false}}, {"id": "e065526cae28891feadd18522fdcefac", "name": "Pr\u00e9s d'Ar\u00e8nes", "latitude": 43.59048, "longitude": 3.884611, "timestamp": "2025-05-03T03:15:42.538992+00:00Z", "free_bikes": 8, "empty_slots": 0, "extra": {"uid": "032", "renting": 1, "returning": 1, "last_updated": 1746242082, "slots": 8, "virtual": false}}, {"id": "f43a061a95929a9c2591c2373b45d84c", "name": "Place Viala", "latitude": 43.616812, "longitude": 3.855075, "timestamp": "2025-05-03T03:15:42.539104+00:00Z", "free_bikes": 7, "empty_slots": 1, "extra": {"uid": "047", "renting": 1, "returning": 1, "last_updated": 1746241895, "slots": 8, "virtual": false}}, {"id": "f9ec0f0ec7a9b6b7011611c9b4be28b4", "name": "Observatoire", "latitude": 43.606301, "longitude": 3.87724, "timestamp": "2025-05-03T03:15:42.538481+00:00Z", "free_bikes": 1, "empty_slots": 7, "extra": {"uid": "009", "renting": 1, "returning": 1, "last_updated": 1746242126, "slots": 8, "virtual": false}}, {"id": "feceb7504031345cb31ee8a9cab6528c", "name": "Beaux-Arts", "latitude": 43.616698, "longitude": 3.884981, "timestamp": "2025-05-03T03:15:42.538521+00:00Z", "free_bikes": 5, "empty_slots": 11, "extra": {"uid": "014", "renting": 1, "returning": 1, "last_updated": 1746241983, "slots": 16, "virtual": false}}]}