{"id": "velo", "name": "V\u00e9l\u00f4", "location": {"latitude": 43.604652, "longitude": 1.444209, "city": "Toulouse", "country": "FR"}, "href": "/v2/networks/velo", "company": ["JCDecaux"], "system": "Cyclocity", "license": {"name": "Open Licence", "url": "https://developer.jcdecaux.com/#/opendata/licence"}, "source": "https://developer.jcdecaux.com", "stations": [{"id": "0100de3346031875734126117061f78d", "name": "00086 - H\u00c9RACL\u00c8S - B\u00c9ARNAIS", "latitude": 43.608004, "longitude": 1.428585, "timestamp": "2025-05-03T03:15:57.017753+00:00Z", "free_bikes": 1, "empty_slots": 17, "extra": {"uid": 86, "address": "23 RUE DU BEARNAIS", "status": "OPEN", "banking": false, "bonus": false, "last_update": "2025-05-03T03:11:39Z", "slots": 20, "has_ebikes": true, "ebikes": 1, "normal_bikes": 0}}, {"id": "014264c2d8ffa0f4ba5e77c7e9853245", "name": "00220 -  MIRAIL UNIVERSIT\u00c9 M\u00c9TRO", "latitude": 43.574466, "longitude": 1.402211, "timestamp": "2025-05-03T03:15:57.017645+00:00Z", "free_bikes": 8, "empty_slots": 10, "extra": {"uid": 220, "address": "3 RUE DE L'UNIVERSITE", "status": "OPEN", "banking": true, "bonus": false, "last_update": "2025-05-03T03:15:25Z", "slots": 19, "has_ebikes": true, "ebikes": 0, "normal_bikes": 8}}, {"id": "014ed640671263a62afd44f55462102e", "name": "00110 - SERRES - CABANEL", "latitude": 43.614227, "longitude": 1.437999, "timestamp": "2025-05-03T03:15:57.017907+00:00Z", "free_bikes": 5, "empty_slots": 11, "extra": {"uid": 110, "address": "16 RUE ALEXANDRE CABANEL", "status": "OPEN", "banking": false, "bonus": false, "last_update": "2025-05-03T03:15:33Z", "slots": 18, "has_ebikes": true, "ebikes": 1, "normal_bikes": 4}}, {"id": "01dc3bd2df858fa39bd07b94b95bf41c", "name": "00125 - BARRIERE DE PARIS M\u00c9TRO", "latitude": 43.627017, "longitude": 1.434129, "timestamp": "2025-05-03T03:15:57.017911+00:00Z", "free_bikes": 4, "empty_slots": 20, "extra": {"uid": 125, "address": "FACE AU 2 BARRIERE DE PARIS", "status": "OPEN", "banking": false, "bonus": false, "last_update": "2025-05-03T03:07:39Z", "slots": 25, "has_ebikes": true, "ebikes": 1, "normal_bikes": 3}}, {"id": "01ff67fc764ff44480f3e1abf45745a3", "name": "00290 - AMIDONNIERS - DEBAT-PONSAN", "latitude": 43.606453, "longitude": 1.420798, "timestamp": "2025-05-03T03:15:57.017543+00:00Z", "free_bikes": 10, "empty_slots": 0, "extra": {"uid": 290, "address": "71, bis rue des amidonniers", "status": "OPEN", "banking": false, "bonus": false, "last_update": "2025-05-03T03:15:26Z", "slots": 13, "has_ebikes": true, "ebikes": 2, "normal_bikes": 8}}, {"id": "02b7fc52417067dfc0675007b7488415", "name": "00111 - BD DES MINIMES - PASSERELLE", "latitude": 43.615273, "longitude": 1.442937, "timestamp": "2025-05-03T03:15:57.015171+00:00Z", "free_bikes": 5, "empty_slots": 19, "extra": {"uid": 111, "address": "38B BD DES MINIMES", "status": "OPEN", "banking": false, "bonus": false, "last_update": "2025-05-03T03:10:34Z", "slots": 27, "has_ebikes": true, "ebikes": 2, "normal_bikes": 3}}, {"id": "0485cffa1697967429eeee748bd5548a", "name": "00123 - HOTEL DE POLICE", "latitude": 43.61497, "longitude": 1.432909, "timestamp": "2025-05-03T03:15:57.015748+00:00Z", "free_bikes": 0, "empty_slots": 23, "extra": {"uid": 123, "address": "1 RUE DE CHAUSSAS", "status": "OPEN", "banking": false, "bonus": false, "last_update": "2025-05-03T03:08:20Z", "slots": 23, "has_ebikes": true, "ebikes": 0, "normal_bikes": 0}}, {"id": "05d1409f13973fe07e2da92469b1ed4f", "name": "00047 -  LANGUEDOC - NAZARETH", "latitude": 43.595247, "longitude": 1.445416, "timestamp": "2025-05-03T03:15:57.015990+00:00Z", "free_bikes": 1, "empty_slots": 28, "extra": {"uid": 47, "address": "12 RUE DU LANGUEDOC", "status": "OPEN", "banking": false, "bonus": false, "last_update": "2025-05-03T03:12:42Z", "slots": 30, "has_ebikes": true, "ebikes": 0, "normal_bikes": 0}}, {"id": "05ea78f45dfa19e7af5149cb7490da77", "name": "00212 - CHIRAC - CHAUMIERE", "latitude": 43.6152, "longitude": 1.465444, "timestamp": "2025-05-03T03:15:57.015822+00:00Z", "free_bikes": 0, "empty_slots": 17, "extra": {"uid": 212, "address": "RUE DE LA CHAUMIERE / 50 M APRES RD-PT DU CAPITAINE DREYFUS", "status": "OPEN", "banking": false, "bonus": false, "last_update": "2025-05-03T03:07:08Z", "slots": 17, "has_ebikes": true, "ebikes": 0, "normal_bikes": 0}}, {"id": "06dc527657e1a32b8e1da7268fd441ce", "name": "00242 - RIMBAUD - COLETTE / PADER - FRONTON", "latitude": 43.63639, "longitude": 1.433072, "timestamp": "2025-05-03T03:15:57.015128+00:00Z", "free_bikes": 10, "empty_slots": 6, "extra": {"uid": 242, "address": "8 RUE HILAIRE PADER", "status": "OPEN", "banking": false, "bonus": false, "last_update": "2025-05-03T03:07:13Z", "slots": 16, "has_ebikes": true, "ebikes": 3, "normal_bikes": 7}}, {"id": "07646da903a41b60c3cd7cddc7db6c71", "name": "00012 - PARGAMINIERES - LAKANAL", "latitude": 43.60459, "longitude": 1.44002, "timestamp": "2025-05-03T03:15:57.017803+00:00Z", "free_bikes": 0, "empty_slots": 10, "extra": {"uid": 12, "address": "66 RUE PARGAMINIERES", "status": "OPEN", "banking": false, "bonus": false, "last_update": "2025-05-03T03:07:15Z", "slots": 11, "has_ebikes": true, "ebikes": 0, "normal_bikes": 0}}, {"id": "07f6da5ed4da85ef4061346276e5e098", "name": "00286 - FONTAINES - BRUN", "latitude": 43.600241, "longitude": 1.42564, "timestamp": "2025-05-03T03:15:57.017576+00:00Z", "free_bikes": 0, "empty_slots": 11, "extra": {"uid": 286, "address": "40, rue des Fontaines", "status": "OPEN", "banking": false, "bonus": false, "last_update": "2025-05-03T03:11:29Z", "slots": 13, "has_ebikes": true, "ebikes": 0, "normal_bikes": 0}}, {"id": "07f857cefffb95b872cbe0572f3a914c", "name": "00179 - PLANA - CASSAING", "latitude": 43.616938, "longitude": 1.473616, "timestamp": "2025-05-03T03:15:57.015853+00:00Z", "free_bikes": 3, "empty_slots": 14, "extra": {"uid": 179, "address": "5 CH CASSAING", "status": "OPEN", "banking": false, "bonus": false, "last_update": "2025-05-03T03:15:00Z", "slots": 17, "has_ebikes": true, "ebikes": 2, "normal_bikes": 1}}, {"id": "087161e585d1ad25eb784a122168c2c4", "name": "00141 - FONTAINE LESTANG METRO", "latitude": 43.587389, "longitude": 1.417918, "timestamp": "2025-05-03T03:15:57.015703+00:00Z", "free_bikes": 10, "empty_slots": 5, "extra": {"uid": 141, "address": "237 RUE HENRI DESBALS", "status": "OPEN", "banking": false, "bonus": false, "last_update": "2025-05-03T03:15:16Z", "slots": 18, "has_ebikes": true, "ebikes": 2, "normal_bikes": 8}}, {"id": "088c6e43b76b8c5225a5b7ce2488d416", "name": "00302 - JARDIN DU BARRY", "latitude": 43.601379, "longitude": 1.403879, "timestamp": "2025-05-03T03:15:57.016077+00:00Z", "free_bikes": 4, "empty_slots": 7, "extra": {"uid": 302, "address": "Carrefour rue du Docteur Suzanne Noel / Voie du TOEC, face jardins du Barry", "status": "OPEN", "banking": false, "bonus": false, "last_update": "2025-05-03T03:07:57Z", "slots": 13, "has_ebikes": true, "ebikes": 0, "normal_bikes": 4}}, {"id": "090f3667778c626587f297145fbde4f6", "name": "00057  ARCOLE - MERLY", "latitude": 43.6103, "longitude": 1.442975, "timestamp": "2025-05-03T03:15:57.017470+00:00Z", "free_bikes": 1, "empty_slots": 13, "extra": {"uid": 57, "address": "15 RUE MERLY", "status": "OPEN", "banking": false, "bonus": false, "last_update": "2025-05-03T03:12:31Z", "slots": 15, "has_ebikes": true, "ebikes": 1, "normal_bikes": 0}}, {"id": "095d4b32a8728e5eaad1fa1691d46aee", "name": "00131 - ROUTE DE BLAGNAC - BERNIES", "latitude": 43.611584, "longitude": 1.414669, "timestamp": "2025-05-03T03:15:57.015335+00:00Z", "free_bikes": 17, "empty_slots": 1, "extra": {"uid": 131, "address": "15 RUE PAUL BERNIES", "status": "OPEN", "banking": true, "bonus": false, "last_update": "2025-05-03T03:13:28Z", "slots": 19, "has_ebikes": true, "ebikes": 6, "normal_bikes": 11}}, {"id": "09f2f083207fb3ca124fdaf333fc3d7a", "name": "00207 - MAL CLABEL - AUDE", "latitude": 43.583202, "longitude": 1.481757, "timestamp": "2025-05-03T03:15:57.015620+00:00Z", "free_bikes": 5, "empty_slots": 12, "extra": {"uid": 207, "address": "FACE 25 RUE DE L AUDE", "status": "OPEN", "banking": false, "bonus": false, "last_update": "2025-05-03T03:12:22Z", "slots": 17, "has_ebikes": true, "ebikes": 4, "normal_bikes": 1}}, {"id": "0a1dc4e20dee1eb9bf2551eb18c05abe", "name": "00053 - PLACE SAINT-JULIEN", "latitude": 43.608639, "longitude": 1.436965, "timestamp": "2025-05-03T03:15:57.015283+00:00Z", "free_bikes": 1, "empty_slots": 23, "extra": {"uid": 53, "address": "PLACE SAINT JULIEN", "status": "OPEN", "banking": false, "bonus": false, "last_update": "2025-05-03T03:08:27Z", "slots": 25, "has_ebikes": true, "ebikes": 1, "normal_bikes": 0}}, {"id": "0af354f0cf3e0d308b351c24ed340ea0", "name": "00396 - FOURNIER - JARDINERIE", "latitude": 43.606486, "longitude": 1.36915, "timestamp": "2025-05-03T03:15:57.015506+00:00Z", "free_bikes": 1, "empty_slots": 11, "extra": {"uid": 396, "address": "Rue Alain Fournier", "status": "OPEN", "banking": false, "bonus": false, "last_update": "2025-05-03T03:11:25Z", "slots": 13, "has_ebikes": true, "ebikes": 0, "normal_bikes": 1}}, {"id": "0b94f682ec6b6c69d36abbf1a2a49182", "name": "00084 - BRIENNE - MANUFACTURE", "latitude": 43.605381, "longitude": 1.432485, "timestamp": "2025-05-03T03:15:57.015328+00:00Z", "free_bikes": 1, "empty_slots": 23, "extra": {"uid": 84, "address": "19T ALL DE BRIENNE", "status": "OPEN", "banking": true, "bonus": false, "last_update": "2025-05-03T03:09:18Z", "slots": 24, "has_ebikes": true, "ebikes": 1, "normal_bikes": 0}}, {"id": "0be30d8039afe82df6015e7d2159e45b", "name": "00003 - ALSACE - LORRAINE - POMME", "latitude": 43.603302, "longitude": 1.445454, "timestamp": "2025-05-03T03:15:57.015251+00:00Z", "free_bikes": 0, "empty_slots": 15, "extra": {"uid": 3, "address": "62 RUE DE LA POMME", "status": "OPEN", "banking": false, "bonus": false, "last_update": "2025-05-03T03:11:26Z", "slots": 18, "has_ebikes": true, "ebikes": 0, "normal_bikes": 0}}, {"id": "0c09d07f4107a8d9721b2829ef874e92", "name": "00384 GUILHERMY - LAS BRUGUES", "latitude": 43.567628, "longitude": 1.371151, "timestamp": "2025-05-03T03:15:57.015182+00:00Z", "free_bikes": 11, "empty_slots": 2, "extra": {"uid": 384, "address": "", "status": "OPEN", "banking": false, "bonus": false, "last_update": "2025-05-03T03:09:57Z", "slots": 13, "has_ebikes": true, "ebikes": 6, "normal_bikes": 4}}, {"id": "0c3ec9d3d8e4cf48dc1874e781261502", "name": "00130 - BILLIERES - PATTE D'OIE", "latitude": 43.596716, "longitude": 1.424382, "timestamp": "2025-05-03T03:15:57.017800+00:00Z", "free_bikes": 1, "empty_slots": 13, "extra": {"uid": 130, "address": "66 TER AV ETIENNE BILLIERES", "status": "OPEN", "banking": true, "bonus": false, "last_update": "2025-05-03T03:14:24Z", "slots": 15, "has_ebikes": true, "ebikes": 1, "normal_bikes": 0}}, {"id": "0c7895a69d39e49553cf17c5957de71b", "name": "00172 - NETWILLER - EBELOT", "latitude": 43.642859, "longitude": 1.461124, "timestamp": "2025-05-03T03:15:57.015669+00:00Z", "free_bikes": 9, "empty_slots": 10, "extra": {"uid": 172, "address": "RD-PT DE L'ABBE LAFFORGUE ANGLE RUE HENRI EBELOT", "status": "OPEN", "banking": false, "bonus": false, "last_update": "2025-05-03T03:15:21Z", "slots": 20, "has_ebikes": true, "ebikes": 5, "normal_bikes": 4}}, {"id": "0d503dfaf76aa41130334dbe3c716c82", "name": "00036 - PLACE ROBERT SCHUMAN", "latitude": 43.609622, "longitude": 1.449431, "timestamp": "2025-05-03T03:15:57.015271+00:00Z", "free_bikes": 1, "empty_slots": 17, "extra": {"uid": 36, "address": "5 PL ROBERT SCHUMAN", "status": "OPEN", "banking": true, "bonus": false, "last_update": "2025-05-03T03:12:00Z", "slots": 19, "has_ebikes": true, "ebikes": 0, "normal_bikes": 1}}, {"id": "0d6e5979f6ad614551b0bd207461975b", "name": "00271 - ANCELY TRAMWAY", "latitude": 43.619301, "longitude": 1.396986, "timestamp": "2025-05-03T03:15:57.015657+00:00Z", "free_bikes": 15, "empty_slots": 4, "extra": {"uid": 271, "address": "FACE 151 AV DES ARENES ROMAINES", "status": "OPEN", "banking": false, "bonus": false, "last_update": "2025-05-03T03:09:41Z", "slots": 20, "has_ebikes": true, "ebikes": 6, "normal_bikes": 9}}, {"id": "0eb345e6f71d36f6907a3dd3816b91f7", "name": "00208 - BAROUX - LIMAYRAC", "latitude": 43.591603, "longitude": 1.479018, "timestamp": "2025-05-03T03:15:57.015332+00:00Z", "free_bikes": 6, "empty_slots": 12, "extra": {"uid": 208, "address": "Avenue Lucien Baroux, face parking Place Auguste Albert", "status": "OPEN", "banking": false, "bonus": false, "last_update": "2025-05-03T03:13:17Z", "slots": 18, "has_ebikes": true, "ebikes": 4, "normal_bikes": 2}}, {"id": "0fcbd6f2f53d09495ab3219b3201471e", "name": "00264 - PLACE DES GLI\u00c8RES", "latitude": 43.565027, "longitude": 1.410324, "timestamp": "2025-05-03T03:15:57.018140+00:00Z", "free_bikes": 16, "empty_slots": 1, "extra": {"uid": 264, "address": "PLACE DES GLIERES", "status": "OPEN", "banking": true, "bonus": false, "last_update": "2025-05-03T03:09:25Z", "slots": 18, "has_ebikes": true, "ebikes": 0, "normal_bikes": 16}}, {"id": "0ffd62c7b370457f819114cbac168fd1", "name": "00231 - NARBONNE - DURAND", "latitude": 43.557264, "longitude": 1.46541, "timestamp": "2025-05-03T03:15:57.015997+00:00Z", "free_bikes": 10, "empty_slots": 9, "extra": {"uid": 231, "address": "FACE 215 RTE DE NARBONNE ANGLE ALL EMILE DURAND", "status": "OPEN", "banking": false, "bonus": false, "last_update": "2025-05-03T03:06:28Z", "slots": 20, "has_ebikes": true, "ebikes": 6, "normal_bikes": 4}}, {"id": "113bd27681c3be229967cc80dd7ad1b7", "name": "00008 - VIDAL - SAINT - JEROME", "latitude": 43.603205, "longitude": 1.448118, "timestamp": "2025-05-03T03:15:57.015925+00:00Z", "free_bikes": 1, "empty_slots": 23, "extra": {"uid": 8, "address": "19 RUE PAUL VIDAL", "status": "OPEN", "banking": false, "bonus": false, "last_update": "2025-05-03T03:14:08Z", "slots": 25, "has_ebikes": true, "ebikes": 1, "normal_bikes": 0}}, {"id": "115c34618b8a8c823b20ff17d82e1626", "name": "00265 - RTE DE SEYSSES - LONDRES", "latitude": 43.568038, "longitude": 1.413363, "timestamp": "2025-05-03T03:15:57.017749+00:00Z", "free_bikes": 14, "empty_slots": 1, "extra": {"uid": 265, "address": "PASSAGE DU CANAL DE BORDELONGUE FACE 251 RTE DE SEYSSES", "status": "OPEN", "banking": false, "bonus": false, "last_update": "2025-05-03T03:15:06Z", "slots": 18, "has_ebikes": true, "ebikes": 11, "normal_bikes": 3}}, {"id": "11678f06c6a76cc341ba622e5be85b54", "name": "00068  PALAIS DE JUSTICE - METRO", "latitude": 43.592782, "longitude": 1.444726, "timestamp": "2025-05-03T03:15:57.015462+00:00Z", "free_bikes": 1, "empty_slots": 11, "extra": {"uid": 68, "address": "1 BIS ALLEE JULES GUESDE", "status": "OPEN", "banking": true, "bonus": false, "last_update": "2025-05-03T03:15:19Z", "slots": 16, "has_ebikes": true, "ebikes": 0, "normal_bikes": 1}}, {"id": "116cefef659c8c73ed444291cfeaca43", "name": "00277 - ZAMENHOF", "latitude": 43.585431, "longitude": 1.377279, "timestamp": "2025-05-03T03:15:57.015933+00:00Z", "free_bikes": 5, "empty_slots": 11, "extra": {"uid": 277, "address": "10/12 RUE ZAMENHOF", "status": "OPEN", "banking": false, "bonus": false, "last_update": "2025-05-03T03:12:21Z", "slots": 18, "has_ebikes": true, "ebikes": 3, "normal_bikes": 2}}, {"id": "11848110e32a0302de9f3778e8952418", "name": "00074 - LAGANNE - TEINTURIERS", "latitude": 43.596667, "longitude": 1.436229, "timestamp": "2025-05-03T03:15:57.015228+00:00Z", "free_bikes": 0, "empty_slots": 18, "extra": {"uid": 74, "address": "37 RUE LAGANNE", "status": "OPEN", "banking": false, "bonus": false, "last_update": "2025-05-03T03:09:20Z", "slots": 18, "has_ebikes": true, "ebikes": 0, "normal_bikes": 0}}, {"id": "11c185f2936de80a53daf6d81eec48b4", "name": "00077 - SAINT-CYPRIEN - METRO VI\u00c9", "latitude": 43.59778, "longitude": 1.431619, "timestamp": "2025-05-03T03:15:57.015202+00:00Z", "free_bikes": 0, "empty_slots": 12, "extra": {"uid": 77, "address": "2 PL INTERIEURE SAINT-CYPRIEN", "status": "OPEN", "banking": false, "bonus": false, "last_update": "2025-05-03T03:12:20Z", "slots": 13, "has_ebikes": true, "ebikes": 0, "normal_bikes": 0}}, {"id": "1294f5d80491afa3aacfe1f6083d13ec", "name": "00289 - BIARRITZ - CASSELARDIT", "latitude": 43.607189, "longitude": 1.409324, "timestamp": "2025-05-03T03:15:57.017902+00:00Z", "free_bikes": 10, "empty_slots": 2, "extra": {"uid": 289, "address": "18, avenue de Biarritz", "status": "OPEN", "banking": false, "bonus": false, "last_update": "2025-05-03T03:14:33Z", "slots": 13, "has_ebikes": true, "ebikes": 1, "normal_bikes": 9}}, {"id": "12cef950a2fdaa63daaa82786ae81ee1", "name": "00004 - GAMBETTA - SAINTE - URSULE", "latitude": 43.602671, "longitude": 1.442031, "timestamp": "2025-05-03T03:15:57.017547+00:00Z", "free_bikes": 1, "empty_slots": 15, "extra": {"uid": 4, "address": "15 RUE SAINTE-URSULE", "status": "OPEN", "banking": false, "bonus": false, "last_update": "2025-05-03T03:09:21Z", "slots": 20, "has_ebikes": true, "ebikes": 0, "normal_bikes": 1}}, {"id": "133fb5772ac6bc3867f0d0aef1283103", "name": "00021 - CARNOT - LABEDA", "latitude": 43.604079, "longitude": 1.450158, "timestamp": "2025-05-03T03:15:57.015533+00:00Z", "free_bikes": 0, "empty_slots": 24, "extra": {"uid": 21, "address": "63 BD LAZARE CARNOT", "status": "OPEN", "banking": false, "bonus": false, "last_update": "2025-05-03T03:06:18Z", "slots": 25, "has_ebikes": true, "ebikes": 0, "normal_bikes": 0}}, {"id": "142d2f2567278a4b8b17e505ee799493", "name": "00337 -CHIRAC - HEREDIA", "latitude": 43.612555, "longitude": 1.467544, "timestamp": "2025-05-03T03:15:57.017660+00:00Z", "free_bikes": 4, "empty_slots": 8, "extra": {"uid": 337, "address": "1, rue David Elbaz", "status": "OPEN", "banking": false, "bonus": false, "last_update": "2025-05-03T03:12:14Z", "slots": 13, "has_ebikes": true, "ebikes": 1, "normal_bikes": 3}}, {"id": "1492b0f268f219541ef68b1324c6b0ba", "name": "00010 - PLACE ESQUIROL", "latitude": 43.600348, "longitude": 1.444659, "timestamp": "2025-05-03T03:15:57.015960+00:00Z", "free_bikes": 1, "empty_slots": 37, "extra": {"uid": 10, "address": "15 PL ETIENNE ESQUIROL", "status": "OPEN", "banking": true, "bonus": false, "last_update": "2025-05-03T03:07:52Z", "slots": 44, "has_ebikes": true, "ebikes": 0, "normal_bikes": 1}}, {"id": "14bcd45926574d2e7f85008608a8f306", "name": "00341 - SOUPETARD - GEN\u00caTS", "latitude": 43.610183, "longitude": 1.472401, "timestamp": "2025-05-03T03:15:57.015450+00:00Z", "free_bikes": 6, "empty_slots": 7, "extra": {"uid": 341, "address": "42, rue Soupetard", "status": "OPEN", "banking": false, "bonus": false, "last_update": "2025-05-03T03:13:24Z", "slots": 13, "has_ebikes": true, "ebikes": 6, "normal_bikes": 0}}, {"id": "14be4f019b601d6e5df9ba5374f8fd3b", "name": "00335 - COLONNE - REILLE", "latitude": 43.609218, "longitude": 1.459543, "timestamp": "2025-05-03T03:15:57.017733+00:00Z", "free_bikes": 1, "empty_slots": 12, "extra": {"uid": 335, "address": "Face 5, rue Mar\u00e9chal Honor\u00e9 Reille", "status": "OPEN", "banking": false, "bonus": false, "last_update": "2025-05-03T03:10:12Z", "slots": 13, "has_ebikes": true, "ebikes": 0, "normal_bikes": 1}}, {"id": "15dadfd8830de2552c40d4744bcf48af", "name": "00149 -BD DES MINIMES - RAISIN", "latitude": 43.61539, "longitude": 1.448573, "timestamp": "2025-05-03T03:15:57.017678+00:00Z", "free_bikes": 4, "empty_slots": 17, "extra": {"uid": 149, "address": "FACE 2 CHEMIN DU RAISIN", "status": "OPEN", "banking": false, "bonus": false, "last_update": "2025-05-03T03:14:39Z", "slots": 22, "has_ebikes": true, "ebikes": 0, "normal_bikes": 4}}, {"id": "16b68b282caa9967f69ae9719020519e", "name": "00246 - WAGNER - BRUNHES", "latitude": 43.603842, "longitude": 1.420002, "timestamp": "2025-05-03T03:15:57.017694+00:00Z", "free_bikes": 17, "empty_slots": 2, "extra": {"uid": 246, "address": "29 BD RICHARD WAGNER ANGLE BD JEAN BRUNHES", "status": "OPEN", "banking": false, "bonus": false, "last_update": "2025-05-03T03:11:30Z", "slots": 20, "has_ebikes": true, "ebikes": 2, "normal_bikes": 15}}, {"id": "16e89e517b9fc796e1546b09be89c69f", "name": "00162 - PLACE D'ITALIE", "latitude": 43.580296, "longitude": 1.45486, "timestamp": "2025-05-03T03:15:57.016009+00:00Z", "free_bikes": 7, "empty_slots": 10, "extra": {"uid": 162, "address": "FACE 49 AV D' ITALIE", "status": "OPEN", "banking": false, "bonus": false, "last_update": "2025-05-03T03:07:54Z", "slots": 17, "has_ebikes": true, "ebikes": 2, "normal_bikes": 5}}, {"id": "175e555352c97c0fcd018d59d4cd3b7f", "name": "00243 - \u00c9TATS-UNIS - FERRY", "latitude": 43.632734, "longitude": 1.431732, "timestamp": "2025-05-03T03:15:57.015178+00:00Z", "free_bikes": 11, "empty_slots": 6, "extra": {"uid": 243, "address": "FACE 97 AV DES ETATS-UNIS ANGLE JULES FERRY", "status": "OPEN", "banking": false, "bonus": false, "last_update": "2025-05-03T03:08:23Z", "slots": 17, "has_ebikes": true, "ebikes": 0, "normal_bikes": 11}}, {"id": "1871e0ffdc17669c980455f004e9b50e", "name": "00377 - MONLONG - LOUP", "latitude": 43.554796, "longitude": 1.387295, "timestamp": "2025-05-03T03:15:57.016116+00:00Z", "free_bikes": 11, "empty_slots": 2, "extra": {"uid": 377, "address": "Face 55, bis chemin du loup", "status": "OPEN", "banking": false, "bonus": false, "last_update": "2025-05-03T03:12:32Z", "slots": 13, "has_ebikes": true, "ebikes": 6, "normal_bikes": 5}}, {"id": "1878c0ad2c965dfdf45db435c411d994", "name": "00135 - BONNEFOY - LEMAITRE", "latitude": 43.622963, "longitude": 1.458647, "timestamp": "2025-05-03T03:15:57.015398+00:00Z", "free_bikes": 13, "empty_slots": 5, "extra": {"uid": 135, "address": "179 RUE DU FAUBOURG BONNEFOY", "status": "OPEN", "banking": false, "bonus": false, "last_update": "2025-05-03T03:11:56Z", "slots": 18, "has_ebikes": true, "ebikes": 3, "normal_bikes": 10}}, {"id": "18b8b474e263a381a7384ac650648ad5", "name": "00283 - TROIS COCUS M\u00c9TRO", "latitude": 43.638055, "longitude": 1.444344, "timestamp": "2025-05-03T03:15:57.017737+00:00Z", "free_bikes": 3, "empty_slots": 16, "extra": {"uid": 283, "address": "12 RUE DU COL PAUL PAILLOLE PL MICOULEAU", "status": "OPEN", "banking": false, "bonus": false, "last_update": "2025-05-03T03:08:54Z", "slots": 20, "has_ebikes": true, "ebikes": 0, "normal_bikes": 2}}, {"id": "1a00348be6d8dee5c90cd3c46caff988", "name": "00235 - LA VACHE M\u00c9TRO", "latitude": 43.633454, "longitude": 1.435519, "timestamp": "2025-05-03T03:15:57.015635+00:00Z", "free_bikes": 0, "empty_slots": 18, "extra": {"uid": 235, "address": "FACE AU 8 RUE PAUL VERLAINE", "status": "OPEN", "banking": true, "bonus": false, "last_update": "2025-05-03T03:10:46Z", "slots": 19, "has_ebikes": true, "ebikes": 0, "normal_bikes": 0}}, {"id": "1b2055fdb999e1a56d1f060f01e80242", "name": "00274 - GALLIENI GARE", "latitude": 43.573998, "longitude": 1.419495, "timestamp": "2025-05-03T03:15:57.015744+00:00Z", "free_bikes": 14, "empty_slots": 0, "extra": {"uid": 274, "address": "FACE 296 RTE DE SEYSSES / HALTE SNCF GALLIENI - CANCEROPOLE", "status": "OPEN", "banking": false, "bonus": false, "last_update": "2025-05-03T03:09:32Z", "slots": 18, "has_ebikes": true, "ebikes": 1, "normal_bikes": 13}}, {"id": "1b6adeb478d30b261c62e12c34e7cb73", "name": "00217 - AMOUROUX - ST-TROPEZ", "latitude": 43.629655, "longitude": 1.466259, "timestamp": "2025-05-03T03:15:57.015684+00:00Z", "free_bikes": 10, "empty_slots": 7, "extra": {"uid": 217, "address": "42 CHEMIN AMOUROUX", "status": "OPEN", "banking": false, "bonus": false, "last_update": "2025-05-03T03:12:03Z", "slots": 18, "has_ebikes": true, "ebikes": 4, "normal_bikes": 6}}, {"id": "1c2d706cd9250e4705af6231b52a878f", "name": "00140 - PLACE EMILE MALE", "latitude": 43.591661, "longitude": 1.418768, "timestamp": "2025-05-03T03:15:57.017539+00:00Z", "free_bikes": 7, "empty_slots": 18, "extra": {"uid": 140, "address": "PLACE EMILE MALE", "status": "OPEN", "banking": true, "bonus": false, "last_update": "2025-05-03T03:06:13Z", "slots": 29, "has_ebikes": true, "ebikes": 0, "normal_bikes": 7}}, {"id": "1c842dba462d607d7dc3bc31758d42a7", "name": "00204 - PLACE ROGER ARNAUD", "latitude": 43.586859, "longitude": 1.463178, "timestamp": "2025-05-03T03:15:57.015857+00:00Z", "free_bikes": 16, "empty_slots": 0, "extra": {"uid": 204, "address": "PL ROGER ARNAUD", "status": "OPEN", "banking": true, "bonus": false, "last_update": "2025-05-03T03:12:13Z", "slots": 18, "has_ebikes": true, "ebikes": 6, "normal_bikes": 10}}, {"id": "1cdbbb0515513c483d823a9e280b1845", "name": "00397 - N\u00c9GO SAOUMOS - ZIEGLER", "latitude": 43.605637, "longitude": 1.364053, "timestamp": "2025-05-03T03:15:57.015317+00:00Z", "free_bikes": 4, "empty_slots": 6, "extra": {"uid": 397, "address": "50m avant 5, rue N\u00e9go Saoumos", "status": "OPEN", "banking": false, "bonus": false, "last_update": "2025-05-03T03:12:16Z", "slots": 13, "has_ebikes": true, "ebikes": 2, "normal_bikes": 2}}, {"id": "1d062a3257de00f6c5e317b769f0edc0", "name": "00218 - AMOUROUX - STE - AUGUSTINE", "latitude": 43.627643, "longitude": 1.461861, "timestamp": "2025-05-03T03:15:57.017860+00:00Z", "free_bikes": 3, "empty_slots": 15, "extra": {"uid": 218, "address": "24 BIS CHE AMOUROUX", "status": "OPEN", "banking": false, "bonus": false, "last_update": "2025-05-03T03:13:39Z", "slots": 18, "has_ebikes": true, "ebikes": 0, "normal_bikes": 3}}, {"id": "1d2bf8a471c69c7b10a10c9cf5f86578", "name": "00371 - REYNERIE - LONDRES", "latitude": 43.569148, "longitude": 1.408256, "timestamp": "2025-05-03T03:15:57.015232+00:00Z", "free_bikes": 8, "empty_slots": 4, "extra": {"uid": 371, "address": "9, rue de Londres", "status": "OPEN", "banking": false, "bonus": false, "last_update": "2025-05-03T03:13:44Z", "slots": 13, "has_ebikes": true, "ebikes": 3, "normal_bikes": 5}}, {"id": "1e747dcd57fb510e5a3d23faa23ad878", "name": "00119 - BRIENNE - CHAPOU", "latitude": 43.610005, "longitude": 1.419568, "timestamp": "2025-05-03T03:15:57.017773+00:00Z", "free_bikes": 19, "empty_slots": 3, "extra": {"uid": 119, "address": "129 ALL DE BRIENNE", "status": "OPEN", "banking": false, "bonus": false, "last_update": "2025-05-03T03:14:34Z", "slots": 24, "has_ebikes": true, "ebikes": 1, "normal_bikes": 18}}, {"id": "1e99547c530753dbb936c7ec28452e77", "name": "00255 - SELLIER - MOUETTES", "latitude": 43.576893, "longitude": 1.440049, "timestamp": "2025-05-03T03:15:57.015522+00:00Z", "free_bikes": 6, "empty_slots": 10, "extra": {"uid": 255, "address": "2 RUE DES MOUETTES / ANGLE ALL HENRI SELLIER", "status": "OPEN", "banking": false, "bonus": false, "last_update": "2025-05-03T03:11:02Z", "slots": 16, "has_ebikes": true, "ebikes": 2, "normal_bikes": 4}}, {"id": "1eea8c2ddd69be40ddf71b331d61af06", "name": "00183 - RUE DE CUGNAUX - GRAVETTE", "latitude": 43.593147, "longitude": 1.424313, "timestamp": "2025-05-03T03:15:57.015510+00:00Z", "free_bikes": 10, "empty_slots": 5, "extra": {"uid": 183, "address": "RUE DE CUGNAUX", "status": "OPEN", "banking": false, "bonus": false, "last_update": "2025-05-03T03:09:07Z", "slots": 18, "has_ebikes": true, "ebikes": 0, "normal_bikes": 10}}, {"id": "2063944c59eae2b5d79ffe106267f876", "name": "00209 - BAROUX - DARASSE", "latitude": 43.589557, "longitude": 1.4789, "timestamp": "2025-05-03T03:15:57.017648+00:00Z", "free_bikes": 5, "empty_slots": 13, "extra": {"uid": 209, "address": "4 AV LUCIEN BAROUX", "status": "OPEN", "banking": false, "bonus": false, "last_update": "2025-05-03T03:14:30Z", "slots": 18, "has_ebikes": true, "ebikes": 3, "normal_bikes": 2}}, {"id": "22724df9e80e9689687ea478139217c2", "name": "00005 - MARENGO - LEDUC", "latitude": 43.611386, "longitude": 1.456729, "timestamp": "2025-05-03T03:15:57.017899+00:00Z", "free_bikes": 0, "empty_slots": 19, "extra": {"uid": 5, "address": "FACE AU 5 RUE RENE LEDUC", "status": "OPEN", "banking": false, "bonus": false, "last_update": "2025-05-03T03:10:26Z", "slots": 19, "has_ebikes": true, "ebikes": 0, "normal_bikes": 0}}, {"id": "23caee417588cffccca70077f1c5700a", "name": "00118 - PLACE DU BUSCA", "latitude": 43.588588, "longitude": 1.451003, "timestamp": "2025-05-03T03:15:57.015439+00:00Z", "free_bikes": 9, "empty_slots": 5, "extra": {"uid": 118, "address": "PLACE DU BUSCA / FACE ECOLE JEAN JAURES", "status": "OPEN", "banking": false, "bonus": false, "last_update": "2025-05-03T03:13:30Z", "slots": 16, "has_ebikes": true, "ebikes": 4, "normal_bikes": 5}}, {"id": "26b75814a481912f061602b1cd463b44", "name": "00076 - RECLUSANE - PLACE OLIVIER", "latitude": 43.598478, "longitude": 1.434043, "timestamp": "2025-05-03T03:15:57.015884+00:00Z", "free_bikes": 1, "empty_slots": 11, "extra": {"uid": 76, "address": "PLACE OLIVIER, DEVANT N\u00b01 RUE  RECLUSANE", "status": "OPEN", "banking": false, "bonus": false, "last_update": "2025-05-03T03:11:28Z", "slots": 16, "has_ebikes": true, "ebikes": 0, "normal_bikes": 1}}, {"id": "27dc7071a4543bd4d7831757e4f7016a", "name": "00037 - STE - LUCIE - ARCS ST - CYPRIEN", "latitude": 43.593516, "longitude": 1.430039, "timestamp": "2025-05-03T03:15:57.015350+00:00Z", "free_bikes": 9, "empty_slots": 9, "extra": {"uid": 37, "address": "53 RUE SAINTE-LUCIE", "status": "OPEN", "banking": false, "bonus": false, "last_update": "2025-05-03T03:12:08Z", "slots": 18, "has_ebikes": true, "ebikes": 0, "normal_bikes": 9}}, {"id": "284c6b463d2556ecfac5df691d157e0f", "name": "00310 - DALI-BONIN", "latitude": 43.626244, "longitude": 1.411083, "timestamp": "2025-05-03T03:15:57.017656+00:00Z", "free_bikes": 9, "empty_slots": 3, "extra": {"uid": 310, "address": "3, rue Louis Bonin", "status": "OPEN", "banking": false, "bonus": false, "last_update": "2025-05-03T03:08:41Z", "slots": 13, "has_ebikes": true, "ebikes": 2, "normal_bikes": 7}}, {"id": "28c674a66c2972f3db00a24021f99223", "name": "00139 - BARRIERE DE LOMBEZ", "latitude": 43.595503, "longitude": 1.418503, "timestamp": "2025-05-03T03:15:57.015259+00:00Z", "free_bikes": 9, "empty_slots": 13, "extra": {"uid": 139, "address": "39 BIS AV DE LOMBEZ", "status": "OPEN", "banking": false, "bonus": false, "last_update": "2025-05-03T03:15:01Z", "slots": 25, "has_ebikes": true, "ebikes": 0, "normal_bikes": 9}}, {"id": "2a2d32d2337680fae0ffa749e9a60c34", "name": "00184 - MICHOUN - HYERES", "latitude": 43.62724, "longitude": 1.469293, "timestamp": "2025-05-03T03:15:57.015654+00:00Z", "free_bikes": 14, "empty_slots": 4, "extra": {"uid": 184, "address": "70 CHEMIN MICHOUN", "status": "OPEN", "banking": false, "bonus": false, "last_update": "2025-05-03T03:15:33Z", "slots": 20, "has_ebikes": true, "ebikes": 6, "normal_bikes": 8}}, {"id": "2a81ce5c2f099f4d5b70f18d992a3217", "name": "00257 - CH\u00c2T DE L'HERS - FONTANELLES", "latitude": 43.600712, "longitude": 1.48356, "timestamp": "2025-05-03T03:15:57.015760+00:00Z", "free_bikes": 15, "empty_slots": 0, "extra": {"uid": 257, "address": "CH DU CHATEAU DE L'HERS / ANGLE CH FONTANELLES", "status": "OPEN", "banking": false, "bonus": false, "last_update": "2025-05-03T03:13:06Z", "slots": 16, "has_ebikes": true, "ebikes": 7, "normal_bikes": 8}}, {"id": "2b56bbf5f74cad52b949cdbef64fc0c2", "name": "00301 - LARDENNE - BROMBACH", "latitude": 43.592951, "longitude": 1.40379, "timestamp": "2025-05-03T03:15:57.016085+00:00Z", "free_bikes": 5, "empty_slots": 4, "extra": {"uid": 301, "address": "50 avenue de Lardenne", "status": "OPEN", "banking": false, "bonus": false, "last_update": "2025-05-03T03:06:40Z", "slots": 13, "has_ebikes": true, "ebikes": 2, "normal_bikes": 3}}, {"id": "2c23d1ca5ed758246ffb1f400511d9ea", "name": "00373 - REYNERIE - LIZOP", "latitude": 43.566932, "longitude": 1.400526, "timestamp": "2025-05-03T03:15:57.015132+00:00Z", "free_bikes": 10, "empty_slots": 1, "extra": {"uid": 373, "address": "", "status": "OPEN", "banking": false, "bonus": false, "last_update": "2025-05-03T03:10:51Z", "slots": 13, "has_ebikes": true, "ebikes": 5, "normal_bikes": 5}}, {"id": "2c5ce257bf2d1050913d77ffa373cc05", "name": "00332 - PLACE ROSINE BET", "latitude": 43.623355, "longitude": 1.467742, "timestamp": "2025-05-03T03:15:57.015771+00:00Z", "free_bikes": 4, "empty_slots": 7, "extra": {"uid": 332, "address": "4, place Rosine Bet", "status": "OPEN", "banking": false, "bonus": false, "last_update": "2025-05-03T03:12:26Z", "slots": 13, "has_ebikes": true, "ebikes": 3, "normal_bikes": 1}}, {"id": "2d0ae73a21255315c1025ef73f939aa1", "name": "00263 - LA CEPI\u00c8RE - BAYLET", "latitude": 43.584444, "longitude": 1.398745, "timestamp": "2025-05-03T03:15:57.016051+00:00Z", "free_bikes": 5, "empty_slots": 10, "extra": {"uid": 263, "address": "87 AV JEAN BAYLET / ANGLE CHEMIN CEPIERES SUR PARKING LYCEE POLYVALENT", "status": "OPEN", "banking": false, "bonus": false, "last_update": "2025-05-03T03:08:31Z", "slots": 18, "has_ebikes": true, "ebikes": 5, "normal_bikes": 0}}, {"id": "2d31e637c6e0a32eea44101c1d5b6cf6", "name": "00045 - OZENNE - NAZARETH", "latitude": 43.596314, "longitude": 1.447081, "timestamp": "2025-05-03T03:15:57.015978+00:00Z", "free_bikes": 1, "empty_slots": 14, "extra": {"uid": 45, "address": "10 RUE THEODORE OZENNE", "status": "OPEN", "banking": false, "bonus": false, "last_update": "2025-05-03T03:11:06Z", "slots": 19, "has_ebikes": true, "ebikes": 0, "normal_bikes": 1}}, {"id": "2e7c59a08701fac12c3d3fffc040452b", "name": "00188 - AV. DE MURET - LAFAGE", "latitude": 43.584339, "longitude": 1.427597, "timestamp": "2025-05-03T03:15:57.015435+00:00Z", "free_bikes": 3, "empty_slots": 14, "extra": {"uid": 188, "address": "121 AVENUE DE MURET", "status": "OPEN", "banking": false, "bonus": false, "last_update": "2025-05-03T03:15:35Z", "slots": 20, "has_ebikes": true, "ebikes": 2, "normal_bikes": 1}}, {"id": "2e924e8d3d9e8584ce37c1fed62b2dae", "name": "00256 - CIT\u00c9 DE L'HERS - ROTONDE", "latitude": 43.596636, "longitude": 1.483995, "timestamp": "2025-05-03T03:15:57.018145+00:00Z", "free_bikes": 10, "empty_slots": 7, "extra": {"uid": 256, "address": "4 RUE DE CARCASSONNE", "status": "OPEN", "banking": false, "bonus": false, "last_update": "2025-05-03T03:13:56Z", "slots": 18, "has_ebikes": true, "ebikes": 10, "normal_bikes": 0}}, {"id": "2f2c0092f92a8829175390b75ff28df5", "name": "00364 - ESPAGNE - GIRONIS", "latitude": 43.563741, "longitude": 1.425433, "timestamp": "2025-05-03T03:15:57.017926+00:00Z", "free_bikes": 2, "empty_slots": 11, "extra": {"uid": 364, "address": "Rond-point H\u00e9l\u00e8ne Rouch \u2013 route d\u2019Espagne face clinique M\u00e9dip\u00f4le", "status": "OPEN", "banking": false, "bonus": false, "last_update": "2025-05-03T03:09:26Z", "slots": 13, "has_ebikes": true, "ebikes": 1, "normal_bikes": 1}}, {"id": "2fbba32e4eb33f87d2f545a4359bb83d", "name": "00194 - LOMBEZ - HIPPODROME", "latitude": 43.593979, "longitude": 1.410311, "timestamp": "2025-05-03T03:15:57.016035+00:00Z", "free_bikes": 5, "empty_slots": 13, "extra": {"uid": 194, "address": "FACE 140 AV DE LOMBEZ", "status": "OPEN", "banking": false, "bonus": false, "last_update": "2025-05-03T03:13:21Z", "slots": 20, "has_ebikes": true, "ebikes": 2, "normal_bikes": 3}}, {"id": "2fcd34fbf0a740df64ff584041b0fe91", "name": "00089 - COMPANS - CAFFARELLI M\u00c9TRO", "latitude": 43.611073, "longitude": 1.436704, "timestamp": "2025-05-03T03:15:57.015907+00:00Z", "free_bikes": 1, "empty_slots": 20, "extra": {"uid": 89, "address": "1 ESP COMPANS-CAFFARELLI", "status": "OPEN", "banking": false, "bonus": false, "last_update": "2025-05-03T03:14:20Z", "slots": 22, "has_ebikes": true, "ebikes": 0, "normal_bikes": 1}}, {"id": "30baeea4db13e7efe02c26773482fd42", "name": "00258 - ATLANTA - CAMBARD", "latitude": 43.629395, "longitude": 1.476186, "timestamp": "2025-05-03T03:15:57.016089+00:00Z", "free_bikes": 14, "empty_slots": 3, "extra": {"uid": 258, "address": "BD ATLANTA / ANGLE RUE CAMBARD", "status": "OPEN", "banking": false, "bonus": false, "last_update": "2025-05-03T03:13:15Z", "slots": 18, "has_ebikes": true, "ebikes": 2, "normal_bikes": 12}}, {"id": "319bad8da58c065958cef2638c3e1177", "name": "00336 - COLONNE - SALONIQUE", "latitude": 43.610556, "longitude": 1.464953, "timestamp": "2025-05-03T03:15:57.015492+00:00Z", "free_bikes": 4, "empty_slots": 7, "extra": {"uid": 336, "address": "Face 90, avenue de la Colonne, 30 m apr\u00e8s angle rue de Caillibens", "status": "OPEN", "banking": false, "bonus": false, "last_update": "2025-05-03T03:11:35Z", "slots": 13, "has_ebikes": true, "ebikes": 4, "normal_bikes": 0}}, {"id": "3224e16734fa12eac93b1f07c5372ede", "name": "00211 - LA TERRASSE - LEDORMEUR", "latitude": 43.583511, "longitude": 1.487795, "timestamp": "2025-05-03T03:15:57.017826+00:00Z", "free_bikes": 7, "empty_slots": 8, "extra": {"uid": 211, "address": "9 RUE LE DORMEUR", "status": "OPEN", "banking": false, "bonus": false, "last_update": "2025-05-03T03:15:03Z", "slots": 18, "has_ebikes": true, "ebikes": 7, "normal_bikes": 0}}, {"id": "339aad2c01f42da94f5213c7f7572594", "name": "00087 - LASCROSSES - LECLERC", "latitude": 43.609277, "longitude": 1.432157, "timestamp": "2025-05-03T03:15:57.015297+00:00Z", "free_bikes": 0, "empty_slots": 25, "extra": {"uid": 87, "address": "47 BD LASCROSSES", "status": "OPEN", "banking": false, "bonus": false, "last_update": "2025-05-03T03:12:24Z", "slots": 25, "has_ebikes": true, "ebikes": 0, "normal_bikes": 0}}, {"id": "33cfd51336edf0d5782066b363a877ed", "name": "00189 - AV. DE MURET - BOUTINON", "latitude": 43.581793, "longitude": 1.425738, "timestamp": "2025-05-03T03:15:57.018156+00:00Z", "free_bikes": 8, "empty_slots": 10, "extra": {"uid": 189, "address": "46 AVENUE DE MURET", "status": "OPEN", "banking": false, "bonus": false, "last_update": "2025-05-03T03:14:20Z", "slots": 19, "has_ebikes": true, "ebikes": 2, "normal_bikes": 6}}, {"id": "342aa19b9d830802f102c01004ead59e", "name": "00241 - ESPAGNE - CHARPENTIER", "latitude": 43.575101, "longitude": 1.424227, "timestamp": "2025-05-03T03:15:57.015899+00:00Z", "free_bikes": 14, "empty_slots": 6, "extra": {"uid": 241, "address": "57 RTE D'ESPAGNE", "status": "OPEN", "banking": false, "bonus": false, "last_update": "2025-05-03T03:06:34Z", "slots": 20, "has_ebikes": true, "ebikes": 5, "normal_bikes": 9}}, {"id": "34419a773bbc8e7bc38e8e12c467147d", "name": "00174 - BOURGES - MAUNOURY - M\u00c9LAT", "latitude": 43.63694, "longitude": 1.452615, "timestamp": "2025-05-03T03:15:57.015190+00:00Z", "free_bikes": 11, "empty_slots": 8, "extra": {"uid": 174, "address": "41 AV MAURICE BOURGES MAUNOURY", "status": "OPEN", "banking": false, "bonus": false, "last_update": "2025-05-03T03:09:08Z", "slots": 19, "has_ebikes": true, "ebikes": 2, "normal_bikes": 9}}, {"id": "34757ce25cf6c9a1e6161d017ad8d792", "name": "00387 - CORIOLIS - DUPOUY", "latitude": 43.578809, "longitude": 1.379975, "timestamp": "2025-05-03T03:15:57.017876+00:00Z", "free_bikes": 6, "empty_slots": 6, "extra": {"uid": 387, "address": "Avenue Gaspard Coriolis carrefour rue du professeur Gaston Dupouy", "status": "OPEN", "banking": false, "bonus": false, "last_update": "2025-05-03T03:12:31Z", "slots": 13, "has_ebikes": true, "ebikes": 5, "normal_bikes": 1}}, {"id": "37799e07c79bbd7a504ec80730ed3565", "name": "00331 - LAVAUR - DALOU", "latitude": 43.622578, "longitude": 1.462668, "timestamp": "2025-05-03T03:15:57.015714+00:00Z", "free_bikes": 4, "empty_slots": 9, "extra": {"uid": 331, "address": "41, rue Jules Dalou - Angle avenue Lavaur", "status": "OPEN", "banking": false, "bonus": false, "last_update": "2025-05-03T03:15:08Z", "slots": 13, "has_ebikes": true, "ebikes": 3, "normal_bikes": 1}}, {"id": "3a32bd7c8663b77c2a92b4d9d859a9db", "name": "00320 PARC DE LA VIOLETTE", "latitude": 43.654363, "longitude": 1.438131, "timestamp": "2025-05-03T03:15:57.017584+00:00Z", "free_bikes": 11, "empty_slots": 0, "extra": {"uid": 320, "address": "Face 14, rue Virginia Wolf", "status": "OPEN", "banking": false, "bonus": false, "last_update": "2025-05-03T03:14:58Z", "slots": 13, "has_ebikes": true, "ebikes": 4, "normal_bikes": 7}}, {"id": "3a413c02255426c36047ed5935dc961d", "name": "00017 - STRASBOURG - AUSTERLITZ", "latitude": 43.606499, "longitude": 1.44769, "timestamp": "2025-05-03T03:15:57.017846+00:00Z", "free_bikes": 0, "empty_slots": 22, "extra": {"uid": 17, "address": "7 BD DE STRASBOURG", "status": "OPEN", "banking": true, "bonus": false, "last_update": "2025-05-03T03:12:39Z", "slots": 23, "has_ebikes": true, "ebikes": 0, "normal_bikes": 0}}, {"id": "3a801198e36db46f895dd15fc176b8a8", "name": "00230 - UT3 - CHAMPS MAGNETIQUES", "latitude": 43.567307, "longitude": 1.467715, "timestamp": "2025-05-03T03:15:57.017668+00:00Z", "free_bikes": 2, "empty_slots": 15, "extra": {"uid": 230, "address": "141 AV DE RANGUEIL", "status": "OPEN", "banking": false, "bonus": false, "last_update": "2025-05-03T03:15:32Z", "slots": 20, "has_ebikes": true, "ebikes": 2, "normal_bikes": 0}}, {"id": "3c969d0c993f29e2bc4888afd40515b2", "name": "00134 - EGLISE BONNEFOY", "latitude": 43.619031, "longitude": 1.456759, "timestamp": "2025-05-03T03:15:57.015880+00:00Z", "free_bikes": 7, "empty_slots": 12, "extra": {"uid": 134, "address": "8 ALLEE DE L'EGLISE BONNEFOY", "status": "OPEN", "banking": true, "bonus": false, "last_update": "2025-05-03T03:09:27Z", "slots": 19, "has_ebikes": true, "ebikes": 3, "normal_bikes": 4}}, {"id": "3cb1e41aab3cf58e351c99bcf36526d4", "name": "00150 - CURIE - CAMPISTRON", "latitude": 43.62563, "longitude": 1.439513, "timestamp": "2025-05-03T03:15:57.015647+00:00Z", "free_bikes": 5, "empty_slots": 11, "extra": {"uid": 150, "address": "78 BD PIERRE ET MARIE CURIE", "status": "OPEN", "banking": false, "bonus": false, "last_update": "2025-05-03T03:15:23Z", "slots": 18, "has_ebikes": true, "ebikes": 0, "normal_bikes": 5}}, {"id": "3cca71e94f0417e722248b0c58ca2313", "name": "00348 - REVEL - LABEGE", "latitude": 43.570862, "longitude": 1.49832, "timestamp": "2025-05-03T03:15:57.015213+00:00Z", "free_bikes": 0, "empty_slots": 13, "extra": {"uid": 348, "address": ", Rond-point route de Revel / route de Lab\u00e8ge face Jardiland et Midas,", "status": "CLOSED", "banking": false, "bonus": false, "last_update": "2025-04-01T06:04:01Z", "slots": 13, "has_ebikes": true, "ebikes": 0, "normal_bikes": 0}}, {"id": "3cd2eabe3932dc7ccef0e705e59470a7", "name": "00375 - LESTAND - PERGAUD", "latitude": 43.564715, "longitude": 1.395886, "timestamp": "2025-05-03T03:15:57.015428+00:00Z", "free_bikes": 4, "empty_slots": 7, "extra": {"uid": 375, "address": "32, chemin de Lestang \u2013 passage Louis Pergaud", "status": "OPEN", "banking": false, "bonus": false, "last_update": "2025-05-03T03:14:06Z", "slots": 13, "has_ebikes": true, "ebikes": 2, "normal_bikes": 2}}, {"id": "3db2c19bd213fddcbd0c1a294220058c", "name": "00075 - CHATEAU D'EAU", "latitude": 43.59859, "longitude": 1.436594, "timestamp": "2025-05-03T03:15:57.015409+00:00Z", "free_bikes": 0, "empty_slots": 20, "extra": {"uid": 75, "address": "12 PLACE LAGANNE", "status": "OPEN", "banking": true, "bonus": false, "last_update": "2025-05-03T03:10:17Z", "slots": 21, "has_ebikes": true, "ebikes": 0, "normal_bikes": 0}}, {"id": "3e02ea88115a95402f1d1bf53c613489", "name": "00161 - AV . DE RANGUEIL  - BEDOUCE", "latitude": 43.576773, "longitude": 1.454742, "timestamp": "2025-05-03T03:15:57.015665+00:00Z", "free_bikes": 6, "empty_slots": 8, "extra": {"uid": 161, "address": "35 AV DE RANGUEIL", "status": "OPEN", "banking": false, "bonus": false, "last_update": "2025-05-03T03:06:09Z", "slots": 15, "has_ebikes": true, "ebikes": 1, "normal_bikes": 5}}, {"id": "3e5c810e09ac735cfed962b99c00fa2e", "name": "00132 - MINIMES - BAQU\u00c9", "latitude": 43.622966, "longitude": 1.434449, "timestamp": "2025-05-03T03:15:57.017883+00:00Z", "free_bikes": 8, "empty_slots": 7, "extra": {"uid": 132, "address": "101 AVENUES DES MINIMES", "status": "OPEN", "banking": false, "bonus": false, "last_update": "2025-05-03T03:15:34Z", "slots": 19, "has_ebikes": true, "ebikes": 0, "normal_bikes": 8}}, {"id": "3f309f3892133f5d460e8e949b403c9b", "name": "00240 - PLACE JOB", "latitude": 43.616945, "longitude": 1.408383, "timestamp": "2025-05-03T03:15:57.017769+00:00Z", "free_bikes": 15, "empty_slots": 1, "extra": {"uid": 240, "address": "FACE 103 BIS ROUTE DE BLAGNAC", "status": "OPEN", "banking": false, "bonus": false, "last_update": "2025-05-03T03:15:21Z", "slots": 18, "has_ebikes": true, "ebikes": 3, "normal_bikes": 12}}, {"id": "3fc83499b43e9d49e4fe36c01361bfa0", "name": "00023 - CARNOT - IDRAC", "latitude": 43.601372, "longitude": 1.452038, "timestamp": "2025-05-03T03:15:57.015499+00:00Z", "free_bikes": 0, "empty_slots": 21, "extra": {"uid": 23, "address": "6 BD LAZARE CARNOT", "status": "OPEN", "banking": true, "bonus": false, "last_update": "2025-05-03T03:15:20Z", "slots": 26, "has_ebikes": true, "ebikes": 0, "normal_bikes": 0}}, {"id": "40057c073bf93a5a28ce408ed1af0419", "name": "00199 - DELTOUR - RIEUX", "latitude": 43.591484, "longitude": 1.470014, "timestamp": "2025-05-03T03:15:57.015949+00:00Z", "free_bikes": 0, "empty_slots": 22, "extra": {"uid": 199, "address": "4 BD DELTOUR", "status": "OPEN", "banking": false, "bonus": false, "last_update": "2025-05-03T03:14:29Z", "slots": 22, "has_ebikes": true, "ebikes": 0, "normal_bikes": 0}}, {"id": "40c60119322027c1e9db1512c0aac841", "name": "00389 - EGLISE - LARDENNE", "latitude": 43.591193, "longitude": 1.384961, "timestamp": "2025-05-03T03:15:57.015767+00:00Z", "free_bikes": 2, "empty_slots": 11, "extra": {"uid": 389, "address": "199, avenue de Lardenne", "status": "OPEN", "banking": false, "bonus": false, "last_update": "2025-05-03T03:14:19Z", "slots": 13, "has_ebikes": true, "ebikes": 2, "normal_bikes": 0}}, {"id": "40d4d181e0e6aba601c9a557feaef478", "name": "00168 - PLACE BILA", "latitude": 43.626597, "longitude": 1.458835, "timestamp": "2025-05-03T03:15:57.015849+00:00Z", "free_bikes": 9, "empty_slots": 8, "extra": {"uid": 168, "address": "FACE 3 PL BILA", "status": "OPEN", "banking": false, "bonus": false, "last_update": "2025-05-03T03:13:31Z", "slots": 20, "has_ebikes": true, "ebikes": 6, "normal_bikes": 3}}, {"id": "4144faa28a0d894102ce3f72d9b6b09e", "name": "00112  BRANLY - PLACE RUSSELL", "latitude": 43.585409, "longitude": 1.453014, "timestamp": "2025-05-03T03:15:57.015888+00:00Z", "free_bikes": 16, "empty_slots": 1, "extra": {"uid": 112, "address": "47 ALLEE BRANLY", "status": "OPEN", "banking": false, "bonus": false, "last_update": "2025-05-03T03:07:20Z", "slots": 20, "has_ebikes": true, "ebikes": 3, "normal_bikes": 13}}, {"id": "422e4ec79242c3c42ed4c13d24e757c8", "name": "00093 - BD MATABIAU - INGRES", "latitude": 43.614574, "longitude": 1.443571, "timestamp": "2025-05-03T03:15:57.015256+00:00Z", "free_bikes": 10, "empty_slots": 6, "extra": {"uid": 93, "address": "57 RUE DU PRINTEMPS", "status": "OPEN", "banking": false, "bonus": false, "last_update": "2025-05-03T03:08:22Z", "slots": 17, "has_ebikes": true, "ebikes": 1, "normal_bikes": 9}}, {"id": "4237e84b6f061e1e98cca09fd2ff1281", "name": "00173 - BOURGES - MAUNOURY - S\u00c9GLA", "latitude": 43.633171, "longitude": 1.450638, "timestamp": "2025-05-03T03:15:57.015695+00:00Z", "free_bikes": 11, "empty_slots": 8, "extra": {"uid": 173, "address": "25 AV MAURICE BOURGES MAUNOURY", "status": "OPEN", "banking": false, "bonus": false, "last_update": "2025-05-03T03:12:20Z", "slots": 19, "has_ebikes": true, "ebikes": 2, "normal_bikes": 9}}, {"id": "42bf7f4ff093a4e91115a7464d58a4de", "name": "00287 - STADE TOULOUSAIN", "latitude": 43.620607, "longitude": 1.415125, "timestamp": "2025-05-03T03:15:57.015818+00:00Z", "free_bikes": 12, "empty_slots": 17, "extra": {"uid": 287, "address": "114 RUE DES TROENES / ANGLE STADE ERNEST WALLON", "status": "OPEN", "banking": true, "bonus": false, "last_update": "2025-05-03T03:12:06Z", "slots": 30, "has_ebikes": true, "ebikes": 4, "normal_bikes": 8}}, {"id": "43401f46c067c067b0c359f132d913dc", "name": "00237 - BELIN - CNES", "latitude": 43.562273, "longitude": 1.480912, "timestamp": "2025-05-03T03:15:57.017563+00:00Z", "free_bikes": 18, "empty_slots": 0, "extra": {"uid": 237, "address": "16 BIS AV EDOUARD BELIN FACE CNRS", "status": "OPEN", "banking": false, "bonus": false, "last_update": "2025-05-03T03:13:30Z", "slots": 20, "has_ebikes": true, "ebikes": 8, "normal_bikes": 10}}, {"id": "45d935998727add4e2367991595eccd1", "name": "00195 - RIEUX - CHANT DU MERLE", "latitude": 43.597355, "longitude": 1.459063, "timestamp": "2025-05-03T03:15:57.015098+00:00Z", "free_bikes": 9, "empty_slots": 7, "extra": {"uid": 195, "address": "FACE 15 RUE PIERRE LAROUSSE", "status": "OPEN", "banking": false, "bonus": false, "last_update": "2025-05-03T03:10:44Z", "slots": 18, "has_ebikes": true, "ebikes": 2, "normal_bikes": 7}}, {"id": "45f63619db1e72038d95e272e8499d6f", "name": "00370 - PLACE DES TIBAOUS", "latitude": 43.550424, "longitude": 1.386158, "timestamp": "2025-05-03T03:15:57.015583+00:00Z", "free_bikes": 8, "empty_slots": 1, "extra": {"uid": 370, "address": "Face 11 et 13, rue Missak Manouchian", "status": "OPEN", "banking": false, "bonus": false, "last_update": "2025-05-03T03:08:59Z", "slots": 13, "has_ebikes": true, "ebikes": 5, "normal_bikes": 3}}, {"id": "46db191f85615c6dc8efa853db24054e", "name": "00104 - AV. DE MURET TRAMWAY", "latitude": 43.589126, "longitude": 1.431449, "timestamp": "2025-05-03T03:15:57.015802+00:00Z", "free_bikes": 17, "empty_slots": 1, "extra": {"uid": 104, "address": "219 AV DE MURET", "status": "OPEN", "banking": false, "bonus": false, "last_update": "2025-05-03T03:09:52Z", "slots": 18, "has_ebikes": true, "ebikes": 0, "normal_bikes": 17}}, {"id": "47fb42819c620ee038e000c573bf9cd3", "name": "00313 - RUE DE FENOUILLET - VERNE", "latitude": 43.628271, "longitude": 1.425653, "timestamp": "2025-05-03T03:15:57.017519+00:00Z", "free_bikes": 13, "empty_slots": 0, "extra": {"uid": 313, "address": "58, rue de Fenouillet", "status": "OPEN", "banking": false, "bonus": false, "last_update": "2025-05-03T03:08:32Z", "slots": 13, "has_ebikes": true, "ebikes": 4, "normal_bikes": 9}}, {"id": "4828c8304919047adf6f9703829c79a9", "name": "00293 - TASSIGNY - MOMBIOLA", "latitude": 43.578537, "longitude": 1.438375, "timestamp": "2025-05-03T03:15:57.017588+00:00Z", "free_bikes": 10, "empty_slots": 2, "extra": {"uid": 293, "address": "Face 11, rue Maria Mombiola / 50m avant l\u2019annexe Mairie Empalot (\u00ab La brique rouge \u00bb )", "status": "OPEN", "banking": false, "bonus": false, "last_update": "2025-05-03T03:08:17Z", "slots": 13, "has_ebikes": true, "ebikes": 0, "normal_bikes": 10}}, {"id": "48aa5b4dccee9d7f2ed78f93ff108bdc", "name": "00096 - M\u00c9DIATH\u00c8QUE JOS\u00c9 CABANIS", "latitude": 43.609757, "longitude": 1.455212, "timestamp": "2025-05-03T03:15:57.015152+00:00Z", "free_bikes": 1, "empty_slots": 21, "extra": {"uid": 96, "address": "50 RUE DU GENERAL COMPANS", "status": "OPEN", "banking": true, "bonus": false, "last_update": "2025-05-03T03:12:09Z", "slots": 25, "has_ebikes": true, "ebikes": 0, "normal_bikes": 1}}, {"id": "48ccc5637e9132856996866ba5408bab", "name": "00120 - BARCELONE - SANIERES", "latitude": 43.610343, "longitude": 1.420407, "timestamp": "2025-05-03T03:15:57.015677+00:00Z", "free_bikes": 16, "empty_slots": 2, "extra": {"uid": 120, "address": "152 ALL DE BARCELONE", "status": "OPEN", "banking": false, "bonus": false, "last_update": "2025-05-03T03:15:21Z", "slots": 18, "has_ebikes": true, "ebikes": 0, "normal_bikes": 16}}, {"id": "49c8405c4cb18ae41bb2dd526aea54b7", "name": "00117 - BILLIERES - ROGUET", "latitude": 43.596889, "longitude": 1.426109, "timestamp": "2025-05-03T03:15:57.017807+00:00Z", "free_bikes": 1, "empty_slots": 19, "extra": {"uid": 117, "address": "39 AVENUE ETIENNE BILLIERES", "status": "OPEN", "banking": false, "bonus": false, "last_update": "2025-05-03T03:12:36Z", "slots": 20, "has_ebikes": true, "ebikes": 0, "normal_bikes": 1}}, {"id": "4a1d6f5e757ae23e2e089e07a6de61f4", "name": "00214 - CASTRES - ACHIARY", "latitude": 43.600828, "longitude": 1.473579, "timestamp": "2025-05-03T03:15:57.015937+00:00Z", "free_bikes": 3, "empty_slots": 14, "extra": {"uid": 214, "address": "48 AV DE CASTRES", "status": "OPEN", "banking": false, "bonus": false, "last_update": "2025-05-03T03:14:21Z", "slots": 17, "has_ebikes": true, "ebikes": 3, "normal_bikes": 0}}, {"id": "4a5166626ebb57de8f53915fab810a11", "name": "00186 - DESBALS - BOUALAM", "latitude": 43.579171, "longitude": 1.410939, "timestamp": "2025-05-03T03:15:57.015631+00:00Z", "free_bikes": 10, "empty_slots": 8, "extra": {"uid": 186, "address": "1 IMPASSE BACHAGA BOUALAM", "status": "OPEN", "banking": false, "bonus": false, "last_update": "2025-05-03T03:11:17Z", "slots": 18, "has_ebikes": true, "ebikes": 2, "normal_bikes": 8}}, {"id": "4acd0b368fdca24a685d681303acd41c", "name": "00316 - FRONTON - HAON", "latitude": 43.656202, "longitude": 1.432254, "timestamp": "2025-05-03T03:15:57.017464+00:00Z", "free_bikes": 12, "empty_slots": 0, "extra": {"uid": 316, "address": "Rond-point Maurice Espitalier - carrefour avenue de Fronton, rue Andr\u00e9 Haon", "status": "OPEN", "banking": false, "bonus": false, "last_update": "2025-05-03T03:11:50Z", "slots": 13, "has_ebikes": true, "ebikes": 2, "normal_bikes": 10}}, {"id": "4bdaf57f4e6bb69d37619a2750aeb444", "name": "00223 - BELIN - ROCHE", "latitude": 43.565079, "longitude": 1.478297, "timestamp": "2025-05-03T03:15:57.015952+00:00Z", "free_bikes": 0, "empty_slots": 22, "extra": {"uid": 223, "address": "7 AV EDOUARD BELIN ANGLE AV ROCHE RD-PT GUY DU MERLE", "status": "OPEN", "banking": true, "bonus": false, "last_update": "2025-05-03T03:08:18Z", "slots": 22, "has_ebikes": true, "ebikes": 0, "normal_bikes": 0}}, {"id": "4c2406841824ffe948ac82ce4b559682", "name": "00067 - GUESDE - OZENNE", "latitude": 43.594812, "longitude": 1.449176, "timestamp": "2025-05-03T03:15:57.015432+00:00Z", "free_bikes": 0, "empty_slots": 21, "extra": {"uid": 67, "address": "35 ALL JULES GUESDE", "status": "OPEN", "banking": false, "bonus": false, "last_update": "2025-05-03T03:12:08Z", "slots": 22, "has_ebikes": true, "ebikes": 0, "normal_bikes": 0}}, {"id": "4c3225f588055f98270cf041ca883cde", "name": "00215 - ARGOULETS M\u00c9TRO", "latitude": 43.623823, "longitude": 1.475935, "timestamp": "2025-05-03T03:15:57.015918+00:00Z", "free_bikes": 1, "empty_slots": 18, "extra": {"uid": 215, "address": "FACE 8 RUE DE GAILLAC", "status": "OPEN", "banking": true, "bonus": false, "last_update": "2025-05-03T03:10:34Z", "slots": 20, "has_ebikes": true, "ebikes": 1, "normal_bikes": 0}}, {"id": "4c3c6cf5cc9e89db51a14edd9289e020", "name": "00392 - CASSELARDIT - DUCIS", "latitude": 43.609739, "longitude": 1.406035, "timestamp": "2025-05-03T03:15:57.015982+00:00Z", "free_bikes": 3, "empty_slots": 10, "extra": {"uid": 392, "address": "", "status": "OPEN", "banking": false, "bonus": false, "last_update": "2025-05-03T03:07:12Z", "slots": 13, "has_ebikes": true, "ebikes": 0, "normal_bikes": 3}}, {"id": "4d535cc8e83d3d3f8b7bbe34908538fd", "name": "00198 - DELTOUR - LAFILAIRE", "latitude": 43.596193, "longitude": 1.473375, "timestamp": "2025-05-03T03:15:57.016081+00:00Z", "free_bikes": 2, "empty_slots": 16, "extra": {"uid": 198, "address": "FACE 25 CHEMIN LAFILAIRE", "status": "OPEN", "banking": false, "bonus": false, "last_update": "2025-05-03T03:13:46Z", "slots": 20, "has_ebikes": true, "ebikes": 2, "normal_bikes": 0}}, {"id": "4d84321008affe6644291b3db560c45d", "name": "00234 - RAYNAL - LOUIN", "latitude": 43.628145, "longitude": 1.451413, "timestamp": "2025-05-03T03:15:57.015372+00:00Z", "free_bikes": 15, "empty_slots": 0, "extra": {"uid": 234, "address": "50M APRES 4 RUE PIERRETTE LOUIN", "status": "OPEN", "banking": false, "bonus": false, "last_update": "2025-05-03T03:14:32Z", "slots": 15, "has_ebikes": true, "ebikes": 9, "normal_bikes": 6}}, {"id": "4e1a3b113a13e0d12814df4b72291869", "name": "00170 - ALBI - NICOL", "latitude": 43.635586, "longitude": 1.464289, "timestamp": "2025-05-03T03:15:57.015740+00:00Z", "free_bikes": 7, "empty_slots": 10, "extra": {"uid": 170, "address": "FACE 163 CHE NICOL", "status": "OPEN", "banking": true, "bonus": false, "last_update": "2025-05-03T03:15:18Z", "slots": 17, "has_ebikes": true, "ebikes": 4, "normal_bikes": 3}}, {"id": "4e7f4dde26d9d1404c44bc58d7de9d87", "name": "00013 - LOIS - ESQUILE", "latitude": 43.606146, "longitude": 1.44135, "timestamp": "2025-05-03T03:15:57.015810+00:00Z", "free_bikes": 1, "empty_slots": 13, "extra": {"uid": 13, "address": "1 RUE DE L ESQUILE", "status": "OPEN", "banking": false, "bonus": false, "last_update": "2025-05-03T03:12:39Z", "slots": 15, "has_ebikes": true, "ebikes": 1, "normal_bikes": 0}}, {"id": "4ed9ca96720d91138b5c003d154a3a6a", "name": "00312 - BASE DE LOISIRS SESQUIERES", "latitude": 43.651836, "longitude": 1.419854, "timestamp": "2025-05-03T03:15:57.015868+00:00Z", "free_bikes": 3, "empty_slots": 7, "extra": {"uid": 312, "address": "Lac de Sesqui\u00e8res  - Devant l'entr\u00e9e Wam Park", "status": "OPEN", "banking": false, "bonus": false, "last_update": "2025-05-03T03:07:25Z", "slots": 13, "has_ebikes": true, "ebikes": 0, "normal_bikes": 3}}, {"id": "4fe8783fed8f7f90afe07fc75838c91a", "name": "00175 - BORDEROUGE - M\u00c9TRO", "latitude": 43.639633, "longitude": 1.452569, "timestamp": "2025-05-03T03:15:57.015382+00:00Z", "free_bikes": 4, "empty_slots": 24, "extra": {"uid": 175, "address": "FACE 52 AV BOURGES MAUNOURY", "status": "OPEN", "banking": true, "bonus": false, "last_update": "2025-05-03T03:10:44Z", "slots": 30, "has_ebikes": true, "ebikes": 2, "normal_bikes": 2}}, {"id": "5114e78cd433d126fe04353ee2566be9", "name": "00192 - RE DE ST - SIMON - PRADO", "latitude": 43.587845, "longitude": 1.409785, "timestamp": "2025-05-03T03:15:57.015375+00:00Z", "free_bikes": 10, "empty_slots": 9, "extra": {"uid": 192, "address": "355 ROUTE DE SAINT-SIMON", "status": "OPEN", "banking": false, "bonus": false, "last_update": "2025-05-03T03:07:23Z", "slots": 20, "has_ebikes": true, "ebikes": 0, "normal_bikes": 10}}, {"id": "516b6c94535c52cdb155cf7004162221", "name": "00015 - PORT SAINT SAUVEUR - SEEL", "latitude": 43.596411, "longitude": 1.456584, "timestamp": "2025-05-03T03:15:57.015873+00:00Z", "free_bikes": 1, "empty_slots": 19, "extra": {"uid": 15, "address": "FACE AU 5 PORT SAINT-SAUVEUR", "status": "OPEN", "banking": false, "bonus": false, "last_update": "2025-05-03T03:11:16Z", "slots": 20, "has_ebikes": true, "ebikes": 0, "normal_bikes": 1}}, {"id": "5306c16a53fb9d66ba5aeed3fb371494", "name": "00148 - COLLIGNON - RAISIN", "latitude": 43.617712, "longitude": 1.445142, "timestamp": "2025-05-03T03:15:57.017730+00:00Z", "free_bikes": 8, "empty_slots": 9, "extra": {"uid": 148, "address": "16 AV DE COLLIGNON", "status": "OPEN", "banking": false, "bonus": false, "last_update": "2025-05-03T03:13:50Z", "slots": 19, "has_ebikes": true, "ebikes": 4, "normal_bikes": 4}}, {"id": "542f7e2cfbf88d3501d35f8518b4f45f", "name": "00152 - TH\u00c9ATRE DES MAZADES", "latitude": 43.624114, "longitude": 1.438463, "timestamp": "2025-05-03T03:15:57.015174+00:00Z", "free_bikes": 12, "empty_slots": 6, "extra": {"uid": 152, "address": "10 AV DES MAZADES", "status": "OPEN", "banking": false, "bonus": false, "last_update": "2025-05-03T03:07:54Z", "slots": 20, "has_ebikes": true, "ebikes": 6, "normal_bikes": 6}}, {"id": "5495de2d268373528e5e89742f83c2a4", "name": "00262 - ARTHAUD - NETWILLER", "latitude": 43.643358, "longitude": 1.455501, "timestamp": "2025-05-03T03:15:57.015480+00:00Z", "free_bikes": 11, "empty_slots": 7, "extra": {"uid": 262, "address": "RON?D-POINT NETWILLER - BORDEROUGE", "status": "OPEN", "banking": false, "bonus": false, "last_update": "2025-05-03T03:09:03Z", "slots": 18, "has_ebikes": true, "ebikes": 1, "normal_bikes": 10}}, {"id": "549827cc8a1648ce50d8c0adb87bdea5", "name": "00381 - LIFFARD - REGUELONGUE", "latitude": 43.55978, "longitude": 1.37828, "timestamp": "2025-05-03T03:15:57.015320+00:00Z", "free_bikes": 4, "empty_slots": 9, "extra": {"uid": 381, "address": "Liffard - R\u00e8guelongue", "status": "OPEN", "banking": false, "bonus": false, "last_update": "2025-05-03T03:06:16Z", "slots": 13, "has_ebikes": true, "ebikes": 1, "normal_bikes": 3}}, {"id": "562debf52b36e2d878ca9cf74287e478", "name": "00060 - PLACE ROQUELAINE", "latitude": 43.612615, "longitude": 1.448286, "timestamp": "2025-05-03T03:15:57.015267+00:00Z", "free_bikes": 2, "empty_slots": 18, "extra": {"uid": 60, "address": "32 PL ROQUELAINE", "status": "OPEN", "banking": false, "bonus": false, "last_update": "2025-05-03T03:15:05Z", "slots": 24, "has_ebikes": true, "ebikes": 0, "normal_bikes": 2}}, {"id": "566af7b449e96f30cd1641a1ae94c686", "name": "00326 - EBELOT - PUJIBET", "latitude": 43.638044, "longitude": 1.457716, "timestamp": "2025-05-03T03:15:57.017852+00:00Z", "free_bikes": 11, "empty_slots": 0, "extra": {"uid": 326, "address": "Face 55, rue Henri Ebelot (sur le rond-point)", "status": "OPEN", "banking": false, "bonus": false, "last_update": "2025-05-03T03:11:35Z", "slots": 13, "has_ebikes": true, "ebikes": 2, "normal_bikes": 9}}, {"id": "5676a0fe05c7b106ed110ba52ce94710", "name": "00083 - S\u00c9JOURN\u00c9 - AMIDONNIERS", "latitude": 43.605687, "longitude": 1.428225, "timestamp": "2025-05-03T03:15:57.015986+00:00Z", "free_bikes": 2, "empty_slots": 14, "extra": {"uid": 83, "address": "2 AV PAUL SEJOURNE", "status": "OPEN", "banking": false, "bonus": false, "last_update": "2025-05-03T03:09:11Z", "slots": 17, "has_ebikes": true, "ebikes": 0, "normal_bikes": 2}}, {"id": "580e5399822da2b3434a0d6e4e2065da", "name": "00328 - NICOL - VASSEUR", "latitude": 43.633437, "longitude": 1.469891, "timestamp": "2025-05-03T03:15:57.016013+00:00Z", "free_bikes": 11, "empty_slots": 1, "extra": {"uid": 328, "address": "2, rue Vasseur", "status": "OPEN", "banking": false, "bonus": false, "last_update": "2025-05-03T03:14:49Z", "slots": 13, "has_ebikes": true, "ebikes": 3, "normal_bikes": 8}}, {"id": "5948797339d7151c2de6a755c2a60e86", "name": "00145 - GOUNOD - GARROS", "latitude": 43.613881, "longitude": 1.424953, "timestamp": "2025-05-03T03:15:57.017887+00:00Z", "free_bikes": 17, "empty_slots": 2, "extra": {"uid": 145, "address": "29 RUE ROLAND GARROS", "status": "OPEN", "banking": false, "bonus": false, "last_update": "2025-05-03T03:13:43Z", "slots": 20, "has_ebikes": true, "ebikes": 2, "normal_bikes": 15}}, {"id": "598c7936ca8000fbed09cbcb7e745dea", "name": "00014 - PERIGORD", "latitude": 43.60742, "longitude": 1.444699, "timestamp": "2025-05-03T03:15:57.017930+00:00Z", "free_bikes": 0, "empty_slots": 17, "extra": {"uid": 14, "address": "26 RUE DE PERIGORD", "status": "OPEN", "banking": false, "bonus": false, "last_update": "2025-05-03T03:09:24Z", "slots": 17, "has_ebikes": true, "ebikes": 0, "normal_bikes": 0}}, {"id": "5bbf830621edf40f62d41af9ad1f24b5", "name": "00079 - VIGUERIE -  LANGE", "latitude": 43.601016, "longitude": 1.434129, "timestamp": "2025-05-03T03:15:57.015402+00:00Z", "free_bikes": 0, "empty_slots": 20, "extra": {"uid": 79, "address": "1 PL LANGE", "status": "OPEN", "banking": false, "bonus": false, "last_update": "2025-05-03T03:14:08Z", "slots": 20, "has_ebikes": true, "ebikes": 0, "normal_bikes": 0}}, {"id": "5caffcf38433e7d3a19fed11b82502f2", "name": "00069 - FEUGA - PONT SAINT - MICHEL", "latitude": 43.592388, "longitude": 1.442463, "timestamp": "2025-05-03T03:15:57.018148+00:00Z", "free_bikes": 1, "empty_slots": 17, "extra": {"uid": 69, "address": "11 ALL PAUL FEUGA", "status": "OPEN", "banking": false, "bonus": false, "last_update": "2025-05-03T03:14:24Z", "slots": 18, "has_ebikes": true, "ebikes": 0, "normal_bikes": 1}}, {"id": "5d047526f63abde8a76db9e360af6819", "name": "00049 - PLACE DU PONT - NEUF", "latitude": 43.599598, "longitude": 1.440942, "timestamp": "2025-05-03T03:15:57.015779+00:00Z", "free_bikes": 0, "empty_slots": 18, "extra": {"uid": 49, "address": "DEVANT 12 PLACE DU PONT NEUF", "status": "OPEN", "banking": false, "bonus": false, "last_update": "2025-05-03T03:15:08Z", "slots": 24, "has_ebikes": true, "ebikes": 0, "normal_bikes": 0}}, {"id": "5d2108ea5da4b645e19d45cdefa85255", "name": "00090 - LASCROSSES - ARNAUD BERNARD", "latitude": 43.611271, "longitude": 1.438093, "timestamp": "2025-05-03T03:15:57.015458+00:00Z", "free_bikes": 0, "empty_slots": 21, "extra": {"uid": 90, "address": "3B BD LASCROSSES", "status": "OPEN", "banking": false, "bonus": false, "last_update": "2025-05-03T03:15:16Z", "slots": 25, "has_ebikes": true, "ebikes": 0, "normal_bikes": 0}}, {"id": "5df49bea3127887b7c9c0f0d71076100", "name": "00342 - GLOIRE - CHIRAC", "latitude": 43.606975, "longitude": 1.473375, "timestamp": "2025-05-03T03:15:57.015830+00:00Z", "free_bikes": 9, "empty_slots": 3, "extra": {"uid": 342, "address": "Face 2 bis, chemin de Pelleport", "status": "OPEN", "banking": false, "bonus": false, "last_update": "2025-05-03T03:10:43Z", "slots": 13, "has_ebikes": true, "ebikes": 8, "normal_bikes": 1}}, {"id": "5edb9a880d2598ec00d47454dba53692", "name": "00233 - NARBONNE - SAHUQUE", "latitude": 43.566528, "longitude": 1.458648, "timestamp": "2025-05-03T03:15:57.015526+00:00Z", "free_bikes": 5, "empty_slots": 13, "extra": {"uid": 233, "address": "FACE 88 RTE DE NARBONNE STATION ESSO", "status": "OPEN", "banking": false, "bonus": false, "last_update": "2025-05-03T03:08:36Z", "slots": 20, "has_ebikes": true, "ebikes": 3, "normal_bikes": 2}}, {"id": "5fe8aa60cfcde96ec13ecd0fd9b918af", "name": "00064 - PERI - MERCADIER", "latitude": 43.606208, "longitude": 1.455005, "timestamp": "2025-05-03T03:15:57.015248+00:00Z", "free_bikes": 1, "empty_slots": 21, "extra": {"uid": 64, "address": "30 RUE GABRIEL PERI", "status": "OPEN", "banking": false, "bonus": false, "last_update": "2025-05-03T03:09:23Z", "slots": 24, "has_ebikes": true, "ebikes": 0, "normal_bikes": 1}}, {"id": "6125c6cb01ce88e921915b6808e3140e", "name": "00259 - PLACE PAUL RICH\u00c9", "latitude": 43.647504, "longitude": 1.43286, "timestamp": "2025-05-03T03:15:57.015357+00:00Z", "free_bikes": 18, "empty_slots": 0, "extra": {"uid": 259, "address": "PL PAUL RICHE A COTE 231 AV DE FRONTON", "status": "OPEN", "banking": true, "bonus": false, "last_update": "2025-05-03T03:05:46Z", "slots": 20, "has_ebikes": true, "ebikes": 2, "normal_bikes": 16}}, {"id": "61330f88909d10be35668ff5ca281078", "name": "00205 - RIEUX - COTTAGES", "latitude": 43.585924, "longitude": 1.475057, "timestamp": "2025-05-03T03:15:57.017745+00:00Z", "free_bikes": 0, "empty_slots": 17, "extra": {"uid": 205, "address": "58 AV DES COTTAGES", "status": "OPEN", "banking": false, "bonus": false, "last_update": "2025-05-03T03:11:54Z", "slots": 18, "has_ebikes": true, "ebikes": 0, "normal_bikes": 0}}, {"id": "6164c28f4a3ee231036cf180cdbd04d9", "name": "00190 - ESPAGNE - OUSTALOUS", "latitude": 43.577437, "longitude": 1.423953, "timestamp": "2025-05-03T03:15:57.015896+00:00Z", "free_bikes": 2, "empty_slots": 16, "extra": {"uid": 190, "address": "39 RTE D'ESPAGNE", "status": "OPEN", "banking": false, "bonus": false, "last_update": "2025-05-03T03:11:21Z", "slots": 20, "has_ebikes": true, "ebikes": 0, "normal_bikes": 2}}, {"id": "62172d8807fca1e1d4a059f7ababc6e5", "name": "00353 - RODIER - PRANVILLE-N\u00c9GRIN", "latitude": 43.569898, "longitude": 1.485423, "timestamp": "2025-05-03T03:15:57.016039+00:00Z", "free_bikes": 3, "empty_slots": 10, "extra": {"uid": 353, "address": "11, rue Jean Rodier", "status": "OPEN", "banking": false, "bonus": false, "last_update": "2025-05-03T03:08:12Z", "slots": 13, "has_ebikes": true, "ebikes": 2, "normal_bikes": 1}}, {"id": "6378c7f0b3fe5e5fbf36222025e71b58", "name": "00275 - PLACE DES PRADETTES", "latitude": 43.58144, "longitude": 1.388774, "timestamp": "2025-05-03T03:15:57.017781+00:00Z", "free_bikes": 4, "empty_slots": 12, "extra": {"uid": 275, "address": "41 AV LOUIS ARISTE PASSERIEU / PL DES PRADETTES", "status": "OPEN", "banking": true, "bonus": false, "last_update": "2025-05-03T03:11:59Z", "slots": 17, "has_ebikes": true, "ebikes": 2, "normal_bikes": 2}}, {"id": "657ac87786255b08443f8d5651e77045", "name": "00327 - ROSTAND - EIDENBENZ", "latitude": 43.644197, "longitude": 1.463566, "timestamp": "2025-05-03T03:15:57.015845+00:00Z", "free_bikes": 11, "empty_slots": 2, "extra": {"uid": 327, "address": "32, 34 rue Edmond Rostand", "status": "OPEN", "banking": false, "bonus": false, "last_update": "2025-05-03T03:13:45Z", "slots": 13, "has_ebikes": true, "ebikes": 9, "normal_bikes": 2}}, {"id": "65c4aed3bf0bb80c567f3b909b8f2e36", "name": "00306 - DEODAT - ARCS SAINT CYPRIEN", "latitude": 43.590111, "longitude": 1.423003, "timestamp": "2025-05-03T03:15:57.016070+00:00Z", "free_bikes": 10, "empty_slots": 1, "extra": {"uid": 306, "address": "13 et 15, rue des Arcs Saint-Cyprien", "status": "OPEN", "banking": false, "bonus": false, "last_update": "2025-05-03T03:11:40Z", "slots": 13, "has_ebikes": true, "ebikes": 3, "normal_bikes": 7}}, {"id": "67559c1404887d7ea4744db4e3c2b3d2", "name": "00052 - DUPORTAL - RAYMOND V", "latitude": 43.608571, "longitude": 1.434762, "timestamp": "2025-05-03T03:15:57.015798+00:00Z", "free_bikes": 0, "empty_slots": 21, "extra": {"uid": 52, "address": "39 BD ARMAND DUPORTAL", "status": "OPEN", "banking": false, "bonus": false, "last_update": "2025-05-03T03:07:09Z", "slots": 21, "has_ebikes": true, "ebikes": 0, "normal_bikes": 0}}, {"id": "68b5261c1d13d75d39c0e965345e1dc8", "name": "00295 - PLACE GUY HERSANT", "latitude": 43.577461, "longitude": 1.442964, "timestamp": "2025-05-03T03:15:57.015209+00:00Z", "free_bikes": 6, "empty_slots": 6, "extra": {"uid": 295, "address": "Place Guy Hersant, angle rue Alfred Rambaud", "status": "OPEN", "banking": false, "bonus": false, "last_update": "2025-05-03T03:14:48Z", "slots": 13, "has_ebikes": true, "ebikes": 4, "normal_bikes": 2}}, {"id": "692e891a275cc383f157fcd88e48f5cc", "name": "00020 - CARNOT - TROIS JOURNEES", "latitude": 43.604677, "longitude": 1.449586, "timestamp": "2025-05-03T03:15:57.017942+00:00Z", "free_bikes": 0, "empty_slots": 23, "extra": {"uid": 20, "address": "69 BD LAZARE CARNOT", "status": "OPEN", "banking": false, "bonus": false, "last_update": "2025-05-03T03:15:19Z", "slots": 26, "has_ebikes": true, "ebikes": 0, "normal_bikes": 0}}, {"id": "69586c46ef9ca1d3a0f31a77b0981247", "name": "00236 - TOEC - LEMIRE", "latitude": 43.597322, "longitude": 1.403694, "timestamp": "2025-05-03T03:15:57.015163+00:00Z", "free_bikes": 12, "empty_slots": 4, "extra": {"uid": 236, "address": "RUE DE L'ABBE JULES LEMIRE ANGLE VOIE DU TOEC", "status": "OPEN", "banking": false, "bonus": false, "last_update": "2025-05-03T03:12:24Z", "slots": 20, "has_ebikes": true, "ebikes": 4, "normal_bikes": 8}}, {"id": "6b09890211fc842f7ab224baab04537e", "name": "00081 - JARDIN RAYMOND VI", "latitude": 43.599797, "longitude": 1.429521, "timestamp": "2025-05-03T03:15:57.015264+00:00Z", "free_bikes": 2, "empty_slots": 31, "extra": {"uid": 81, "address": "ALLEE CHARLES DE FITTE / FACE JARDIN RAYMOND VI", "status": "OPEN", "banking": false, "bonus": false, "last_update": "2025-05-03T03:06:23Z", "slots": 33, "has_ebikes": true, "ebikes": 0, "normal_bikes": 2}}, {"id": "6b258b4e7b10d0c7f1292fa730d2f9b9", "name": "00206 - RIEUX - LEYGUE", "latitude": 43.594117, "longitude": 1.465197, "timestamp": "2025-05-03T03:15:57.017593+00:00Z", "free_bikes": 1, "empty_slots": 17, "extra": {"uid": 206, "address": "20 AV ARMAND LEYGUE", "status": "OPEN", "banking": true, "bonus": false, "last_update": "2025-05-03T03:14:20Z", "slots": 18, "has_ebikes": true, "ebikes": 1, "normal_bikes": 0}}, {"id": "6b30a5310bea86d1f4f7ff3bd2717fd2", "name": "00154 - HOTEL DE REGION", "latitude": 43.589928, "longitude": 1.441706, "timestamp": "2025-05-03T03:15:57.015148+00:00Z", "free_bikes": 9, "empty_slots": 10, "extra": {"uid": 154, "address": "50 M AVANT 4 RUE DES GALLOIS", "status": "OPEN", "banking": false, "bonus": false, "last_update": "2025-05-03T03:09:31Z", "slots": 19, "has_ebikes": true, "ebikes": 1, "normal_bikes": 8}}, {"id": "6be2b885b3ffa0db76c88adfe700d847", "name": "00113 - DUM\u00c9RIL - LAMARCK", "latitude": 43.592349, "longitude": 1.449015, "timestamp": "2025-05-03T03:15:57.017714+00:00Z", "free_bikes": 0, "empty_slots": 20, "extra": {"uid": 113, "address": "FACE 58 RUE DUMERIL", "status": "OPEN", "banking": false, "bonus": false, "last_update": "2025-05-03T03:09:40Z", "slots": 20, "has_ebikes": true, "ebikes": 0, "normal_bikes": 0}}, {"id": "6c3bdb73024f28d0a69dac92ac1e49e2", "name": "00225 - BELIN - ONERA", "latitude": 43.570117, "longitude": 1.473463, "timestamp": "2025-05-03T03:15:57.015313+00:00Z", "free_bikes": 9, "empty_slots": 10, "extra": {"uid": 225, "address": "4 AV EDOUARD BELIN DEVANT ONERA FACE AU CREPS", "status": "OPEN", "banking": false, "bonus": false, "last_update": "2025-05-03T03:10:53Z", "slots": 20, "has_ebikes": true, "ebikes": 4, "normal_bikes": 5}}, {"id": "6ca2ba086d5f069b59612f941c6cb273", "name": "00142 - LYCEE DEODAT DE SEVERAC", "latitude": 43.588046, "longitude": 1.42436, "timestamp": "2025-05-03T03:15:57.017559+00:00Z", "free_bikes": 7, "empty_slots": 12, "extra": {"uid": 142, "address": "FACE AU 65 BD DEODAT DE SEVERAC", "status": "OPEN", "banking": false, "bonus": false, "last_update": "2025-05-03T03:11:32Z", "slots": 20, "has_ebikes": true, "ebikes": 3, "normal_bikes": 4}}, {"id": "6cef85f533ce1e22edafc4a8c1985cdd", "name": "00319 - ROUTE DE LAUNAGUET - DELBO", "latitude": 43.651318, "longitude": 1.438377, "timestamp": "2025-05-03T03:15:57.015627+00:00Z", "free_bikes": 11, "empty_slots": 1, "extra": {"uid": 319, "address": "Rond-point, 50m avant 283, route de Launaguet", "status": "OPEN", "banking": false, "bonus": false, "last_update": "2025-05-03T03:14:42Z", "slots": 13, "has_ebikes": true, "ebikes": 5, "normal_bikes": 6}}, {"id": "6e7f16fd27ed9339c73cedac748cd65c", "name": "00092 - CHALETS - DOUVILL\u00c9", "latitude": 43.613149, "longitude": 1.441326, "timestamp": "2025-05-03T03:15:57.017528+00:00Z", "free_bikes": 8, "empty_slots": 7, "extra": {"uid": 92, "address": "31 RUE DES CHALETS", "status": "OPEN", "banking": false, "bonus": false, "last_update": "2025-05-03T03:11:23Z", "slots": 15, "has_ebikes": true, "ebikes": 0, "normal_bikes": 8}}, {"id": "6ead9994cad8b1183e041b36f9847d62", "name": "00073 - FITTE - TEINTURIERS", "latitude": 43.596294, "longitude": 1.432158, "timestamp": "2025-05-03T03:15:57.017923+00:00Z", "free_bikes": 1, "empty_slots": 15, "extra": {"uid": 73, "address": "40 ALLEE CHARLES DE FITTE", "status": "OPEN", "banking": false, "bonus": false, "last_update": "2025-05-03T03:09:29Z", "slots": 16, "has_ebikes": true, "ebikes": 0, "normal_bikes": 1}}, {"id": "6fb747f30e977b30844c8ef6312aefa3", "name": "00296 - ESPAGNE-LANGLADE", "latitude": 43.571858, "longitude": 1.42447, "timestamp": "2025-05-03T03:15:57.017880+00:00Z", "free_bikes": 7, "empty_slots": 4, "extra": {"uid": 296, "address": "89, route d'Espagne", "status": "OPEN", "banking": false, "bonus": false, "last_update": "2025-05-03T03:12:08Z", "slots": 13, "has_ebikes": true, "ebikes": 3, "normal_bikes": 4}}, {"id": "6fba24c94213020523b7a2834ba5e15b", "name": "00202 - SAINT-EXUPERY - BUTTE", "latitude": 43.581632, "longitude": 1.475865, "timestamp": "2025-05-03T03:15:57.015718+00:00Z", "free_bikes": 5, "empty_slots": 10, "extra": {"uid": 202, "address": "165 AV ANTOINE DE ST EXUPERY", "status": "OPEN", "banking": false, "bonus": false, "last_update": "2025-05-03T03:12:02Z", "slots": 17, "has_ebikes": true, "ebikes": 1, "normal_bikes": 4}}, {"id": "70eb95c305201c96d0f306a6c38fb7b8", "name": "00224 - BELIN - SUPAERO", "latitude": 43.56644, "longitude": 1.475301, "timestamp": "2025-05-03T03:15:57.015136+00:00Z", "free_bikes": 0, "empty_slots": 20, "extra": {"uid": 224, "address": "10 AV EDOUARD BELIN FACE CHATEAU D'EAU CREPS RD-PT JEAN LAGASSE", "status": "OPEN", "banking": false, "bonus": false, "last_update": "2025-05-03T03:13:02Z", "slots": 20, "has_ebikes": true, "ebikes": 0, "normal_bikes": 0}}, {"id": "7178324d7fad78a00271878cef4fa8be", "name": "00369 - ROUTE DE SEYSSES - R\u00c9GIS", "latitude": 43.548387, "longitude": 1.390449, "timestamp": "2025-05-03T03:15:57.016260+00:00Z", "free_bikes": 8, "empty_slots": 5, "extra": {"uid": 369, "address": "", "status": "OPEN", "banking": false, "bonus": false, "last_update": "2025-05-03T03:14:45Z", "slots": 13, "has_ebikes": true, "ebikes": 2, "normal_bikes": 6}}, {"id": "731143f4fad09d900986aea91c7cc3d9", "name": "00351 - L'ENVOL DES PIONNIERS", "latitude": 43.574602, "longitude": 1.476596, "timestamp": "2025-05-03T03:15:57.017777+00:00Z", "free_bikes": 10, "empty_slots": 1, "extra": {"uid": 351, "address": "Sur piste cyclabe, carrefour 7, rue Jacqueline Auriol (Montaudran) / rue Beppo de Massini", "status": "OPEN", "banking": false, "bonus": false, "last_update": "2025-05-03T03:13:24Z", "slots": 13, "has_ebikes": true, "ebikes": 2, "normal_bikes": 7}}, {"id": "7694f60b01846002e96c0292baf7a312", "name": "00383 - PARC DE LA MOUNEDE", "latitude": 43.572131, "longitude": 1.38317, "timestamp": "2025-05-03T03:15:57.015993+00:00Z", "free_bikes": 4, "empty_slots": 7, "extra": {"uid": 383, "address": "8, rue Roger Camboulives", "status": "OPEN", "banking": false, "bonus": false, "last_update": "2025-05-03T03:08:57Z", "slots": 13, "has_ebikes": true, "ebikes": 0, "normal_bikes": 4}}, {"id": "7840bf4da34df25520e5c5e15c035ceb", "name": "00072 - FITTE -  MAGNE", "latitude": 43.59522, "longitude": 1.432503, "timestamp": "2025-05-03T03:15:57.016105+00:00Z", "free_bikes": 5, "empty_slots": 15, "extra": {"uid": 72, "address": "23 ALL CHARLES DE FITTE", "status": "OPEN", "banking": false, "bonus": false, "last_update": "2025-05-03T03:07:19Z", "slots": 20, "has_ebikes": true, "ebikes": 2, "normal_bikes": 3}}, {"id": "79dd231fbf6031bfffa46c8c5341744a", "name": "00159 - SAINT - AGNE GARE", "latitude": 43.578572, "longitude": 1.450234, "timestamp": "2025-05-03T03:15:57.016097+00:00Z", "free_bikes": 4, "empty_slots": 16, "extra": {"uid": 159, "address": "96 AV JULES JULIEN", "status": "OPEN", "banking": false, "bonus": false, "last_update": "2025-05-03T03:15:00Z", "slots": 20, "has_ebikes": true, "ebikes": 0, "normal_bikes": 4}}, {"id": "7a82eadacd24446497363cc3e715deab", "name": "00027 - TOUNIS - PONT NEUF", "latitude": 43.598966, "longitude": 1.440387, "timestamp": "2025-05-03T03:15:57.017641+00:00Z", "free_bikes": 0, "empty_slots": 16, "extra": {"uid": 27, "address": "20 M APRES 122 QUAI DE TOUNIS", "status": "OPEN", "banking": false, "bonus": false, "last_update": "2025-05-03T03:12:10Z", "slots": 22, "has_ebikes": true, "ebikes": 0, "normal_bikes": 0}}, {"id": "7b2f40ea7aad2ad10b60fe4bd1e651a7", "name": "00115 - DUMERIL - SAINT JOSEPH", "latitude": 43.591224, "longitude": 1.452159, "timestamp": "2025-05-03T03:15:57.015417+00:00Z", "free_bikes": 4, "empty_slots": 14, "extra": {"uid": 115, "address": "FACE 104 RUE ALFRED DUMERIL", "status": "OPEN", "banking": false, "bonus": false, "last_update": "2025-05-03T03:15:34Z", "slots": 18, "has_ebikes": true, "ebikes": 1, "normal_bikes": 3}}, {"id": "7b4371197a439bdc89fe5498d625c052", "name": "00345 - CASTRES - LASBORDES", "latitude": 43.594671, "longitude": 1.488444, "timestamp": "2025-05-03T03:15:57.017495+00:00Z", "free_bikes": 7, "empty_slots": 3, "extra": {"uid": 345, "address": "Parking face 241, avenue de Castres", "status": "OPEN", "banking": false, "bonus": false, "last_update": "2025-05-03T03:14:21Z", "slots": 13, "has_ebikes": true, "ebikes": 5, "normal_bikes": 2}}, {"id": "7b938fc8aaaca6ba78e9fa54bb2e43b9", "name": "00254 - VESTREPAIN - LOT", "latitude": 43.583264, "longitude": 1.407055, "timestamp": "2025-05-03T03:15:57.015529+00:00Z", "free_bikes": 14, "empty_slots": 0, "extra": {"uid": 254, "address": "RUE DU LOT / 100M AVANT LA RUE VESTREPAIN", "status": "OPEN", "banking": false, "bonus": false, "last_update": "2025-05-03T03:10:35Z", "slots": 18, "has_ebikes": true, "ebikes": 7, "normal_bikes": 7}}, {"id": "7c8644f6339c40d520bb5b62f133887e", "name": "00029 - VALADE", "latitude": 43.605031, "longitude": 1.437386, "timestamp": "2025-05-03T03:15:57.015104+00:00Z", "free_bikes": 0, "empty_slots": 20, "extra": {"uid": 29, "address": "31 RUE VALADE", "status": "OPEN", "banking": false, "bonus": false, "last_update": "2025-05-03T03:09:03Z", "slots": 21, "has_ebikes": true, "ebikes": 0, "normal_bikes": 0}}, {"id": "7ca19cf006c418a60b761d2e3a133b66", "name": "00160 - THEATRE JULES JULIEN", "latitude": 43.57337, "longitude": 1.452405, "timestamp": "2025-05-03T03:15:57.017792+00:00Z", "free_bikes": 15, "empty_slots": 1, "extra": {"uid": 160, "address": "21 AV DES ECOLES JULES JULIEN", "status": "OPEN", "banking": false, "bonus": false, "last_update": "2025-05-03T03:15:17Z", "slots": 17, "has_ebikes": true, "ebikes": 4, "normal_bikes": 11}}, {"id": "7e3820e535fe3b0e11d0ef026b9f46df", "name": "00354 - DAURAT - CORNEMONT", "latitude": 43.56481, "longitude": 1.488996, "timestamp": "2025-05-03T03:15:57.015443+00:00Z", "free_bikes": 10, "empty_slots": 0, "extra": {"uid": 354, "address": "2, rue Ren\u00e9 Cornemont - Face rond-point Henri Erable", "status": "OPEN", "banking": false, "bonus": false, "last_update": "2025-05-03T03:15:17Z", "slots": 13, "has_ebikes": true, "ebikes": 6, "normal_bikes": 4}}, {"id": "7e3c8e91012a26ec0bddb41e363018db", "name": "00388 - LARDENNE - CALQUET", "latitude": 43.5937364, "longitude": 1.3911254, "timestamp": "2025-05-03T03:15:57.015496+00:00Z", "free_bikes": 8, "empty_slots": 4, "extra": {"uid": 388, "address": "Face au 145, avenue de Lardenne / Chemin de Calquet", "status": "OPEN", "banking": false, "bonus": false, "last_update": "2025-05-03T03:13:13Z", "slots": 13, "has_ebikes": true, "ebikes": 5, "normal_bikes": 3}}, {"id": "7e78b5087b910bfb0eae6cb270b6d721", "name": "00261 - VAN DYCK - RAPHA\u00cbL", "latitude": 43.640631, "longitude": 1.440154, "timestamp": "2025-05-03T03:15:57.016273+00:00Z", "free_bikes": 6, "empty_slots": 9, "extra": {"uid": 261, "address": "DEVANT 6 RUE VAN DICK / FACE RUE RAPHAEL", "status": "OPEN", "banking": false, "bonus": false, "last_update": "2025-05-03T03:13:38Z", "slots": 18, "has_ebikes": true, "ebikes": 4, "normal_bikes": 2}}, {"id": "7f736ca46bd4384e8293ab523e5f475a", "name": "00133 - MINIMES C.NOUGARO M\u00c9TRO", "latitude": 43.620693, "longitude": 1.435612, "timestamp": "2025-05-03T03:15:57.017722+00:00Z", "free_bikes": 12, "empty_slots": 8, "extra": {"uid": 133, "address": "71 AV DES MINIMES", "status": "OPEN", "banking": true, "bonus": false, "last_update": "2025-05-03T03:14:23Z", "slots": 22, "has_ebikes": true, "ebikes": 0, "normal_bikes": 12}}, {"id": "8055f5039ae2a9b6b021aa4564f2e9bd", "name": "00247 - RTE DE LAUNAGUET - AUDIBERT", "latitude": 43.636446, "longitude": 1.438984, "timestamp": "2025-05-03T03:15:57.015876+00:00Z", "free_bikes": 7, "empty_slots": 8, "extra": {"uid": 247, "address": "FACE 112 RTE DE LAUNAGUET", "status": "OPEN", "banking": false, "bonus": false, "last_update": "2025-05-03T03:13:30Z", "slots": 17, "has_ebikes": true, "ebikes": 4, "normal_bikes": 3}}, {"id": "8136680e2ad67d0896644ed4bc0ef3bf", "name": "00018 - STRASBOURG - JAURES", "latitude": 43.606346, "longitude": 1.44813, "timestamp": "2025-05-03T03:15:57.017789+00:00Z", "free_bikes": 0, "empty_slots": 22, "extra": {"uid": 18, "address": "4 BD DE STRASBOURG", "status": "OPEN", "banking": false, "bonus": false, "last_update": "2025-05-03T03:13:28Z", "slots": 24, "has_ebikes": true, "ebikes": 0, "normal_bikes": 0}}, {"id": "82b6bd8b0c4cd9c289edadd682297dd9", "name": "00344 - RIEUX - VAISSE", "latitude": 43.596256, "longitude": 1.462071, "timestamp": "2025-05-03T03:15:57.016043+00:00Z", "free_bikes": 3, "empty_slots": 10, "extra": {"uid": 344, "address": "58, avenue Jean Rieux", "status": "OPEN", "banking": false, "bonus": false, "last_update": "2025-05-03T03:09:27Z", "slots": 13, "has_ebikes": true, "ebikes": 0, "normal_bikes": 3}}, {"id": "83724ef078644ebe2585bc4379839229", "name": "00144 - SUISSE - LAUSANNE", "latitude": 43.615988, "longitude": 1.42163, "timestamp": "2025-05-03T03:15:57.015217+00:00Z", "free_bikes": 12, "empty_slots": 9, "extra": {"uid": 144, "address": "62 BD DE SUISSE", "status": "OPEN", "banking": false, "bonus": false, "last_update": "2025-05-03T03:11:38Z", "slots": 22, "has_ebikes": true, "ebikes": 5, "normal_bikes": 7}}, {"id": "85177b9ffea5f4af8f9cb3b5fbb36168", "name": "00106 - BRIENNE - DELORME", "latitude": 43.608424, "longitude": 1.423848, "timestamp": "2025-05-03T03:15:57.015729+00:00Z", "free_bikes": 14, "empty_slots": 6, "extra": {"uid": 106, "address": "99 ALL DE BRIENNE", "status": "OPEN", "banking": false, "bonus": false, "last_update": "2025-05-03T03:15:03Z", "slots": 21, "has_ebikes": true, "ebikes": 2, "normal_bikes": 12}}, {"id": "855a3c0231c84c5f0b7c6af9cb6c08fd", "name": "00080 - FITTE - VARSI", "latitude": 43.599637, "longitude": 1.429338, "timestamp": "2025-05-03T03:15:57.017450+00:00Z", "free_bikes": 1, "empty_slots": 20, "extra": {"uid": 80, "address": "89B ALLEE CHARLES DE FITTE", "status": "OPEN", "banking": false, "bonus": false, "last_update": "2025-05-03T03:15:20Z", "slots": 22, "has_ebikes": true, "ebikes": 0, "normal_bikes": 1}}, {"id": "857447f7eee03e1ebf532ec790e7b82a", "name": "00276 - MARIN - REBOUL", "latitude": 43.581463, "longitude": 1.379769, "timestamp": "2025-05-03T03:15:57.015197+00:00Z", "free_bikes": 4, "empty_slots": 13, "extra": {"uid": 276, "address": "FACE 1 CHEMIN DU MARIN", "status": "OPEN", "banking": false, "bonus": false, "last_update": "2025-05-03T03:11:14Z", "slots": 18, "has_ebikes": true, "ebikes": 4, "normal_bikes": 0}}, {"id": "8609dec8ba9faae9d2a6d03a7db5621f", "name": "00114 - MONTPLAISIR - DELIEUX", "latitude": 43.592347, "longitude": 1.457491, "timestamp": "2025-05-03T03:15:57.015941+00:00Z", "free_bikes": 7, "empty_slots": 13, "extra": {"uid": 114, "address": "FACE 43 RUE MONTPLAISIR", "status": "OPEN", "banking": false, "bonus": false, "last_update": "2025-05-03T03:09:18Z", "slots": 20, "has_ebikes": true, "ebikes": 2, "normal_bikes": 5}}, {"id": "8616a00251db27070890b95ce1e60a16", "name": "00216 - ARGOULETS - HOUDON", "latitude": 43.622823, "longitude": 1.474083, "timestamp": "2025-05-03T03:15:57.016028+00:00Z", "free_bikes": 3, "empty_slots": 14, "extra": {"uid": 216, "address": "3 RUE JEAN HOUDON", "status": "OPEN", "banking": false, "bonus": false, "last_update": "2025-05-03T03:11:11Z", "slots": 17, "has_ebikes": true, "ebikes": 2, "normal_bikes": 1}}, {"id": "8771ebe67a241e219af03adaf25a1382", "name": "00270 - TRENTIN - VERNE", "latitude": 43.623998, "longitude": 1.427823, "timestamp": "2025-05-03T03:15:57.017838+00:00Z", "free_bikes": 11, "empty_slots": 3, "extra": {"uid": 270, "address": "RUE JULES VERNE / ANGLE FACE 40 BD SILVIO TRENTIN", "status": "OPEN", "banking": false, "bonus": false, "last_update": "2025-05-03T03:15:20Z", "slots": 16, "has_ebikes": true, "ebikes": 2, "normal_bikes": 9}}, {"id": "87b5e23833040d594896991641142fb5", "name": "00166 - RANGUEIL - M\u00c9TRO", "latitude": 43.57421, "longitude": 1.462367, "timestamp": "2025-05-03T03:15:57.015394+00:00Z", "free_bikes": 1, "empty_slots": 17, "extra": {"uid": 166, "address": "23 RUE GUYOU", "status": "OPEN", "banking": false, "bonus": false, "last_update": "2025-05-03T03:11:20Z", "slots": 20, "has_ebikes": true, "ebikes": 0, "normal_bikes": 1}}, {"id": "885b8a676971f8e2ab164620a32cf8e3", "name": "00359 - SALADE PONSAN - SAHUQUE", "latitude": 43.563636, "longitude": 1.45531, "timestamp": "2025-05-03T03:15:57.015787+00:00Z", "free_bikes": 5, "empty_slots": 6, "extra": {"uid": 359, "address": "Face au 49, chemin salade Ponsan", "status": "OPEN", "banking": false, "bonus": false, "last_update": "2025-05-03T03:14:54Z", "slots": 13, "has_ebikes": true, "ebikes": 3, "normal_bikes": 2}}, {"id": "891d7faa2d1d84ad3b901d1af25a428a", "name": "00070 - PLACE DU FER A CHEVAL", "latitude": 43.592366, "longitude": 1.434121, "timestamp": "2025-05-03T03:15:57.015699+00:00Z", "free_bikes": 9, "empty_slots": 9, "extra": {"uid": 70, "address": "5 PLACE DU FER A CHEVAL", "status": "OPEN", "banking": false, "bonus": false, "last_update": "2025-05-03T03:05:39Z", "slots": 18, "has_ebikes": true, "ebikes": 2, "normal_bikes": 7}}, {"id": "8a46c343db9ae93d93b88386d88cb006", "name": "00324 - ROSTAND - DURAND", "latitude": 43.642299, "longitude": 1.4496236, "timestamp": "2025-05-03T03:15:57.016059+00:00Z", "free_bikes": 8, "empty_slots": 2, "extra": {"uid": 324, "address": "Face 113, rue Edmond Rostand", "status": "OPEN", "banking": false, "bonus": false, "last_update": "2025-05-03T03:14:06Z", "slots": 13, "has_ebikes": true, "ebikes": 2, "normal_bikes": 6}}, {"id": "8a7dd927a2805412a6bdcdbbd99306a5", "name": "00309 - ROUTE DE BLAGNAC - ROQUES", "latitude": 43.622042, "longitude": 1.405735, "timestamp": "2025-05-03T03:15:57.016032+00:00Z", "free_bikes": 8, "empty_slots": 3, "extra": {"uid": 309, "address": "Face 149, route de Blagnac / Rond-point Pierre Mounicq", "status": "OPEN", "banking": false, "bonus": false, "last_update": "2025-05-03T03:14:18Z", "slots": 13, "has_ebikes": true, "ebikes": 3, "normal_bikes": 5}}, {"id": "8ac819bc6c08da5f00958be2e83d6674", "name": "00368 - ROUTE DE SEYSSES - BELLEFONTAINE", "latitude": 43.562792, "longitude": 1.406829, "timestamp": "2025-05-03T03:15:57.015339+00:00Z", "free_bikes": 7, "empty_slots": 1, "extra": {"uid": 368, "address": "Face 10, all\u00e9e Bellefontaine", "status": "OPEN", "banking": false, "bonus": false, "last_update": "2025-05-03T03:13:39Z", "slots": 13, "has_ebikes": true, "ebikes": 2, "normal_bikes": 5}}, {"id": "8bb1ee0295995c8752922cdfc6bfd0f5", "name": "00285 - BALMA GRAMONT M\u00c9TRO", "latitude": 43.628659, "longitude": 1.482629, "timestamp": "2025-05-03T03:15:57.017479+00:00Z", "free_bikes": 13, "empty_slots": 4, "extra": {"uid": 285, "address": "METRO GRAMONT / ANGLE RUE SAINT JEAN", "status": "OPEN", "banking": true, "bonus": false, "last_update": "2025-05-03T03:13:13Z", "slots": 18, "has_ebikes": true, "ebikes": 5, "normal_bikes": 8}}, {"id": "8c53392fd395acde1bee36a2d38a80da", "name": "00191 - JARDIN DU PECH", "latitude": 43.590046, "longitude": 1.415246, "timestamp": "2025-05-03T03:15:57.015790+00:00Z", "free_bikes": 12, "empty_slots": 6, "extra": {"uid": 191, "address": "395 ROUTE DE SAINT SIMON", "status": "OPEN", "banking": false, "bonus": false, "last_update": "2025-05-03T03:06:18Z", "slots": 18, "has_ebikes": true, "ebikes": 1, "normal_bikes": 11}}, {"id": "8c58f1e84c6caa35f531055fa444f828", "name": "00386 - BORDEBLANCHE - BROUSSIN", "latitude": 43.582717, "longitude": 1.386115, "timestamp": "2025-05-03T03:15:57.015390+00:00Z", "free_bikes": 4, "empty_slots": 7, "extra": {"uid": 386, "address": "16, chemin de Bordeblanche", "status": "OPEN", "banking": false, "bonus": false, "last_update": "2025-05-03T03:11:36Z", "slots": 13, "has_ebikes": true, "ebikes": 2, "normal_bikes": 2}}, {"id": "8c7f0976343500279e6c143461cc9bcc", "name": "00232 - NARBONNE - CAUBERE", "latitude": 43.569089, "longitude": 1.456292, "timestamp": "2025-05-03T03:15:57.017815+00:00Z", "free_bikes": 11, "empty_slots": 0, "extra": {"uid": 232, "address": "73 RTE DE NARBONNE", "status": "OPEN", "banking": false, "bonus": false, "last_update": "2025-05-03T03:14:39Z", "slots": 15, "has_ebikes": true, "ebikes": 10, "normal_bikes": 1}}, {"id": "8d9994ab855910df1735ff986c49ffe9", "name": "00228 - FAC. DE PHARMACIE M\u00c9TRO", "latitude": 43.568165, "longitude": 1.464353, "timestamp": "2025-05-03T03:15:57.015612+00:00Z", "free_bikes": 1, "empty_slots": 15, "extra": {"uid": 228, "address": "FACE 35 CHEMIN DES MARAICHERS", "status": "OPEN", "banking": true, "bonus": false, "last_update": "2025-05-03T03:13:16Z", "slots": 18, "has_ebikes": true, "ebikes": 0, "normal_bikes": 1}}, {"id": "8ed73165698c3b708d1ea6d6c776a857", "name": "00019 - CARNOT - PERI", "latitude": 43.605571, "longitude": 1.449297, "timestamp": "2025-05-03T03:15:57.015806+00:00Z", "free_bikes": 0, "empty_slots": 22, "extra": {"uid": 19, "address": "1 RUE DES 7 TROUBADOURS", "status": "OPEN", "banking": false, "bonus": false, "last_update": "2025-05-03T03:14:23Z", "slots": 24, "has_ebikes": true, "ebikes": 0, "normal_bikes": 0}}, {"id": "901c6f0f118f8564ab74e292bd358a56", "name": "00098 - DEMOISELLES - CRAMPEL", "latitude": 43.58771, "longitude": 1.459838, "timestamp": "2025-05-03T03:15:57.016047+00:00Z", "free_bikes": 20, "empty_slots": 0, "extra": {"uid": 98, "address": "80 ALL DES DEMOISELLES", "status": "OPEN", "banking": false, "bonus": false, "last_update": "2025-05-03T03:13:15Z", "slots": 21, "has_ebikes": true, "ebikes": 3, "normal_bikes": 17}}, {"id": "90424ce7102692a5d38ae67840c30796", "name": "00390 - CAPELLES - ECOLE VETERINAIRE", "latitude": 43.601523, "longitude": 1.384712, "timestamp": "2025-05-03T03:15:57.015476+00:00Z", "free_bikes": 10, "empty_slots": 2, "extra": {"uid": 390, "address": "", "status": "OPEN", "banking": false, "bonus": false, "last_update": "2025-05-03T03:15:16Z", "slots": 13, "has_ebikes": true, "ebikes": 2, "normal_bikes": 8}}, {"id": "90743290a8dcdb3329db70dc59112077", "name": "00219 - RTE DE BLAGNAC - PUCCINI", "latitude": 43.614514, "longitude": 1.411161, "timestamp": "2025-05-03T03:15:57.017699+00:00Z", "free_bikes": 14, "empty_slots": 3, "extra": {"uid": 219, "address": "35 RUE GIACOMO PUCCINI", "status": "OPEN", "banking": false, "bonus": false, "last_update": "2025-05-03T03:14:37Z", "slots": 18, "has_ebikes": true, "ebikes": 4, "normal_bikes": 9}}, {"id": "907ec393dbde95ac04c5fd77cdc11848", "name": "00250 - 11 NOVEMBRE - N\u00c9GOGOUSSES", "latitude": 43.593052, "longitude": 1.414659, "timestamp": "2025-05-03T03:15:57.015975+00:00Z", "free_bikes": 14, "empty_slots": 1, "extra": {"uid": 250, "address": "RUE DU 11 NOVEMBRE FACE 45 RUE DU 14 JUILLET", "status": "OPEN", "banking": false, "bonus": false, "last_update": "2025-05-03T03:15:24Z", "slots": 18, "has_ebikes": true, "ebikes": 4, "normal_bikes": 10}}, {"id": "90ce74c93ae2c53a75c1142186d9f199", "name": "00238 - HERBETTES - BUTTE", "latitude": 43.579341, "longitude": 1.47313, "timestamp": "2025-05-03T03:15:57.016293+00:00Z", "free_bikes": 8, "empty_slots": 8, "extra": {"uid": 238, "address": "FACE 48/58 CHEMIN DE LA BUTTE", "status": "OPEN", "banking": false, "bonus": false, "last_update": "2025-05-03T03:13:53Z", "slots": 17, "has_ebikes": true, "ebikes": 3, "normal_bikes": 5}}, {"id": "913ecf4b7c159dc646c74437bc830a97", "name": "00171 - ALBI - PELET", "latitude": 43.641034, "longitude": 1.466458, "timestamp": "2025-05-03T03:15:57.016005+00:00Z", "free_bikes": 6, "empty_slots": 10, "extra": {"uid": 171, "address": "191 RTE D'ALBI", "status": "OPEN", "banking": false, "bonus": false, "last_update": "2025-05-03T03:06:54Z", "slots": 17, "has_ebikes": true, "ebikes": 1, "normal_bikes": 5}}, {"id": "927c7a00fb764a3cc8de8332e1675180", "name": "00178 - BRUNAUD - PLANA", "latitude": 43.619291, "longitude": 1.468681, "timestamp": "2025-05-03T03:15:57.015447+00:00Z", "free_bikes": 0, "empty_slots": 20, "extra": {"uid": 178, "address": "FACE 100 AV YVES BRUNAUD", "status": "OPEN", "banking": true, "bonus": false, "last_update": "2025-05-03T03:14:25Z", "slots": 20, "has_ebikes": true, "ebikes": 0, "normal_bikes": 0}}, {"id": "92893a7e386051a43baa9fd8989a9119", "name": "00213 - PUJOL - CHAUBET", "latitude": 43.600704, "longitude": 1.467249, "timestamp": "2025-05-03T03:15:57.015756+00:00Z", "free_bikes": 5, "empty_slots": 11, "extra": {"uid": 213, "address": "129 AV DE CASTRES", "status": "OPEN", "banking": false, "bonus": false, "last_update": "2025-05-03T03:08:31Z", "slots": 17, "has_ebikes": true, "ebikes": 4, "normal_bikes": 1}}, {"id": "93217f893f67ae829f4660cbe0d177d8", "name": "00203 - ST-EXUPERY - PETIT PRINCE", "latitude": 43.58355, "longitude": 1.470033, "timestamp": "2025-05-03T03:15:57.017868+00:00Z", "free_bikes": 14, "empty_slots": 3, "extra": {"uid": 203, "address": "2 AV ANTOINE DE ST EXUPERY", "status": "OPEN", "banking": false, "bonus": false, "last_update": "2025-05-03T03:11:54Z", "slots": 20, "has_ebikes": true, "ebikes": 5, "normal_bikes": 9}}, {"id": "9358262605802f64ecd08d1fed251c31", "name": "00177 - BRUNAUD - BAILLAUD", "latitude": 43.617458, "longitude": 1.465428, "timestamp": "2025-05-03T03:15:57.017919+00:00Z", "free_bikes": 0, "empty_slots": 20, "extra": {"uid": 177, "address": "64 RUE BAILLAUD", "status": "OPEN", "banking": false, "bonus": false, "last_update": "2025-05-03T03:12:56Z", "slots": 20, "has_ebikes": true, "ebikes": 0, "normal_bikes": 0}}, {"id": "93717a5c08f27451e3cccabd48932f54", "name": "00360 - SALADE PONSAN - VALLON", "latitude": 43.560168, "longitude": 1.457394, "timestamp": "2025-05-03T03:15:57.017597+00:00Z", "free_bikes": 2, "empty_slots": 11, "extra": {"uid": 360, "address": "Croisement chemin salade Ponsan / Chemin du Vallon", "status": "OPEN", "banking": false, "bonus": false, "last_update": "2025-05-03T03:05:46Z", "slots": 13, "has_ebikes": true, "ebikes": 1, "normal_bikes": 1}}, {"id": "94d2baaa0decca9265ba561b5eba205c", "name": "00026 - DALBADE - PARADOUX", "latitude": 43.597941, "longitude": 1.443002, "timestamp": "2025-05-03T03:15:57.017664+00:00Z", "free_bikes": 0, "empty_slots": 19, "extra": {"uid": 26, "address": "9 RUE HENRY DE GORSSE", "status": "OPEN", "banking": false, "bonus": false, "last_update": "2025-05-03T03:11:49Z", "slots": 22, "has_ebikes": true, "ebikes": 0, "normal_bikes": 0}}, {"id": "94fbf7c13d4cfed4e307ac2b67d80790", "name": "00372 - REYNERIE M\u00c9TRO", "latitude": 43.571497, "longitude": 1.402857, "timestamp": "2025-05-03T03:15:57.017499+00:00Z", "free_bikes": 7, "empty_slots": 2, "extra": {"uid": 372, "address": "Angle rue Andr\u00e9 Maginot / Place Andr\u00e9 Abbal", "status": "OPEN", "banking": false, "bonus": false, "last_update": "2025-05-03T03:07:34Z", "slots": 13, "has_ebikes": true, "ebikes": 5, "normal_bikes": 2}}, {"id": "95ad0159c14751967fd96c6611f1dd5f", "name": "00099 - METZ - REMPART ST-\u00c9TIENNE", "latitude": 43.6008250248339, "longitude": 1.45065484986121, "timestamp": "2025-05-03T03:15:57.017707+00:00Z", "free_bikes": 1, "empty_slots": 12, "extra": {"uid": 99, "address": "7 RUE DU REMPART ST ETIENNE", "status": "OPEN", "banking": false, "bonus": false, "last_update": "2025-05-03T03:14:29Z", "slots": 16, "has_ebikes": true, "ebikes": 0, "normal_bikes": 1}}, {"id": "967be2a2dcdd6c41128e0085dacb3d55", "name": "00043 - PLACE DUPUY", "latitude": 43.600188, "longitude": 1.454764, "timestamp": "2025-05-03T03:15:57.017811+00:00Z", "free_bikes": 0, "empty_slots": 19, "extra": {"uid": 43, "address": "14 PL DOMINIQUE MARTIN DUPUY", "status": "OPEN", "banking": false, "bonus": false, "last_update": "2025-05-03T03:10:32Z", "slots": 22, "has_ebikes": true, "ebikes": 0, "normal_bikes": 0}}, {"id": "97617378facec70503e0f8a665cce66c", "name": "00163 - BEDOUCE - MARNE", "latitude": 43.581506, "longitude": 1.462341, "timestamp": "2025-05-03T03:15:57.017703+00:00Z", "free_bikes": 12, "empty_slots": 8, "extra": {"uid": 163, "address": "115 AV ALBERT BEDOUCE", "status": "OPEN", "banking": false, "bonus": false, "last_update": "2025-05-03T03:09:37Z", "slots": 20, "has_ebikes": true, "ebikes": 1, "normal_bikes": 11}}, {"id": "97b78a916b55907a78a765a8a17b5d15", "name": "00001 - POIDS DE L'HUILE", "latitude": 43.60419, "longitude": 1.445475, "timestamp": "2025-05-03T03:15:57.015346+00:00Z", "free_bikes": 0, "empty_slots": 17, "extra": {"uid": 1, "address": "12 RUE DU POIDS DE L'HUILE", "status": "OPEN", "banking": false, "bonus": false, "last_update": "2025-05-03T03:08:09Z", "slots": 19, "has_ebikes": true, "ebikes": 0, "normal_bikes": 0}}, {"id": "97cb56c850980cfc7bc8485cc3936439", "name": "00024 - PLACE SAINT-ETIENNE", "latitude": 43.600055, "longitude": 1.449273, "timestamp": "2025-05-03T03:15:57.015592+00:00Z", "free_bikes": 1, "empty_slots": 20, "extra": {"uid": 24, "address": "14 PL SAINT-ETIENNE", "status": "OPEN", "banking": false, "bonus": false, "last_update": "2025-05-03T03:09:30Z", "slots": 22, "has_ebikes": true, "ebikes": 1, "normal_bikes": 0}}, {"id": "97f866169fc5e7039be4aabe37ebd7df", "name": "00244 - RENAN - VITRY", "latitude": 43.635856, "longitude": 1.443828, "timestamp": "2025-05-03T03:15:57.015588+00:00Z", "free_bikes": 6, "empty_slots": 10, "extra": {"uid": 244, "address": "93 RUE ERNEST RENAN ANGLE RUE VITRY", "status": "OPEN", "banking": false, "bonus": false, "last_update": "2025-05-03T03:09:11Z", "slots": 18, "has_ebikes": true, "ebikes": 0, "normal_bikes": 6}},