{"id": "venezia", "name": "Venezia", "location": {"latitude": 45.4408474, "longitude": 12.3155151, "city": "Venezia", "country": "IT"}, "href": "/v2/networks/venezia", "company": ["Comunicare S.r.l."], "system": "Bicincitt\u00e0", "source": "https://www.bicincitta.com/frmLeStazioni.aspx?ID=93", "stations": [{"id": "063509ce4be8296a944fac991dc019a8", "name": "Candiani", "latitude": 45.49495432279469, "longitude": 12.239413261413574, "timestamp": "2025-05-03T03:15:52.212143+00:00Z", "free_bikes": 5, "empty_slots": 3, "extra": {"uid": "625", "number": 15, "status": "offline", "score": 1.1, "reviews": 4}}, {"id": "1591c937d964234717dd18f06ed28143", "name": "Stazione F.S.", "latitude": 45.48255146403347, "longitude": 12.232182025909424, "timestamp": "2025-05-03T03:15:52.211963+00:00Z", "free_bikes": 5, "empty_slots": 3, "extra": {"uid": "613", "number": 1, "status": "offline", "score": 1.4, "reviews": 49}}, {"id": "1889687ee125b7b6f681df5dd18f290e", "name": "Palazzo del Cinema", "latitude": 45.406193875004696, "longitude": 12.365970611572266, "timestamp": "2025-05-03T03:15:52.212120+00:00Z", "free_bikes": 5, "empty_slots": 3, "extra": {"uid": "624", "number": 112, "status": "offline", "score": 2.1, "reviews": 5}}, {"id": "1f01678027a8d1e402ec346204c3e1a4", "name": "C.so del Popolo", "latitude": 45.49065800791365, "longitude": 12.244842052459717, "timestamp": "2025-05-03T03:15:52.212057+00:00Z", "free_bikes": 5, "empty_slots": 3, "extra": {"uid": "619", "number": 7, "status": "offline", "score": 3.1, "reviews": 3}}, {"id": "2046980e557de44f138ab88d918f8a95", "name": "Santa Maria Elisabetta", "latitude": 45.4170696988221, "longitude": 12.36811637878418, "timestamp": "2025-05-03T03:15:52.212110+00:00Z", "free_bikes": 5, "empty_slots": 3, "extra": {"uid": "623", "number": 111, "status": "offline", "score": 1.8, "reviews": 7}}, {"id": "23c719aa5c1944bc64f18d22e4b3ac77", "name": "Santa Maria dei Battuti", "latitude": 45.50308352019468, "longitude": 12.245357036590576, "timestamp": "2025-05-03T03:15:52.212047+00:00Z", "free_bikes": 5, "empty_slots": 3, "extra": {"uid": "618", "number": 6, "status": "offline", "score": 3.0, "reviews": 3}}, {"id": "24d99b68bf76b107a9060378a2d135cf", "name": "Stazione FS 2", "latitude": 45.48274704273072, "longitude": 12.231570482254028, "timestamp": "2025-05-03T03:15:52.212182+00:00Z", "free_bikes": 5, "empty_slots": 3, "extra": {"uid": "789", "number": 14, "status": "offline", "score": 2.8, "reviews": 2}}, {"id": "292b6db93aee774c075df67bca37972a", "name": "Carbonifera", "latitude": 45.484447044345096, "longitude": 12.250785827636719, "timestamp": "2025-05-03T03:15:52.212173+00:00Z", "free_bikes": 5, "empty_slots": 3, "extra": {"uid": "788", "number": 11, "status": "offline", "score": 2.9, "reviews": 6}}, {"id": "34122419728cc2d4f7ed02a19580fbfa", "name": "Circonvallazione", "latitude": 45.49654115008702, "longitude": 12.236103415489197, "timestamp": "2025-05-03T03:15:52.212027+00:00Z", "free_bikes": 5, "empty_slots": 3, "extra": {"uid": "616", "number": 4, "status": "offline", "score": 2.4, "reviews": 6}}, {"id": "69eea00aa5012aa8f840e9e8a57424bf", "name": "Malamocco", "latitude": 45.37160930710871, "longitude": 12.337002754211426, "timestamp": "2025-05-03T03:15:52.212203+00:00Z", "free_bikes": 5, "empty_slots": 3, "extra": {"uid": "1291", "number": 113, "status": "offline", "score": 1.0, "reviews": 1}}, {"id": "6b042dab30d29589ecc992068d7c1762", "name": "Cialdini", "latitude": 45.4935385493275, "longitude": 12.246204614639282, "timestamp": "2025-05-03T03:15:52.212017+00:00Z", "free_bikes": 5, "empty_slots": 3, "extra": {"uid": "615", "number": 3, "status": "offline", "score": 1.2, "reviews": 9}}, {"id": "a413f8d385e84952943d8f97d3021347", "name": "Castellana A", "latitude": 45.498458820079335, "longitude": 12.231377363204956, "timestamp": "2025-05-03T03:15:52.212192+00:00Z", "free_bikes": 5, "empty_slots": 3, "extra": {"uid": "791", "number": 16, "status": "offline", "score": 1.4, "reviews": 3}}, {"id": "a646960ebb503332c53a565d48ee9dac", "name": "Municipio", "latitude": 45.47588633803206, "longitude": 12.224693298339844, "timestamp": "2025-05-03T03:15:52.212067+00:00Z", "free_bikes": 5, "empty_slots": 3, "extra": {"uid": "620", "number": 8, "status": "offline", "score": 2.0, "reviews": 3}}, {"id": "b6535085986845deebfccc934b5def44", "name": "Universita`", "latitude": 45.477783445541654, "longitude": 12.254530234111371, "timestamp": "2025-05-03T03:15:52.212163+00:00Z", "free_bikes": 5, "empty_slots": 3, "extra": {"uid": "638", "number": 12, "status": "offline", "score": 0.2, "reviews": 14}}, {"id": "c1808650e7f9f5c40d711ec47e61bb8d", "name": "Da Vinci", "latitude": 45.48850878738295, "longitude": 12.23874807357788, "timestamp": "2025-05-03T03:15:52.212153+00:00Z", "free_bikes": 5, "empty_slots": 3, "extra": {"uid": "637", "number": 13, "status": "offline", "score": 3.2, "reviews": 7}}, {"id": "caaf4ac3da864b0000f9e789f3f8a439", "name": "Ulloa FS", "latitude": 45.47997878873615, "longitude": 12.230497598648071, "timestamp": "2025-05-03T03:15:52.212038+00:00Z", "free_bikes": 5, "empty_slots": 3, "extra": {"uid": "617", "number": 5, "status": "offline", "score": 2.2, "reviews": 8}}, {"id": "e56027ddcaf16b46de0eae40b5b43fac", "name": "San Girolamo", "latitude": 45.49493552125542, "longitude": 12.243484854698181, "timestamp": "2025-05-03T03:15:52.212077+00:00Z", "free_bikes": 5, "empty_slots": 3, "extra": {"uid": "621", "number": 9, "status": "offline", "score": 1.7, "reviews": 8}}, {"id": "f83bb001f907562e05139f39529623aa", "name": "San Giuliano", "latitude": 45.480926630144666, "longitude": 12.262201309204102, "timestamp": "2025-05-03T03:15:52.212091+00:00Z", "free_bikes": 5, "empty_slots": 3, "extra": {"uid": "622", "number": 10, "status": "offline", "score": 1.7, "reviews": 8}}, {"id": "fa7b5ee5f6c5e64ff2ac4be71db8f87b", "name": "Sicilia", "latitude": 45.49139695980605, "longitude": 12.238866090774536, "timestamp": "2025-05-03T03:15:52.212005+00:00Z", "free_bikes": 5, "empty_slots": 3, "extra": {"uid": "614", "number": 2, "status": "offline", "score": 2.2, "reviews": 8}}]}