{"id": "vercelli", "name": "Vercelli", "location": {"latitude": 45.32022720000001, "longitude": 8.418573499999999, "city": "Vercelli", "country": "IT"}, "href": "/v2/networks/vercelli", "company": ["Comunicare S.r.l."], "system": "Bicincitt\u00e0", "source": "https://www.bicincitta.com/frmLeStazioni.aspx?ID=235", "stations": [{"id": "00fbb63d5309bf6538512139f5fd053c", "name": "Ospedale S. Andrea", "latitude": 45.3183839584586, "longitude": 8.41425287466052, "timestamp": "2025-05-03T03:15:53.883195+00:00Z", "free_bikes": 2, "empty_slots": 12, "extra": {"uid": "1479", "number": 3, "status": "offline", "score": 2.7, "reviews": 3}}, {"id": "07daa4d18ddb161f915286fe405c8936", "name": "Ferrovia", "latitude": 45.329020372840496, "longitude": 8.417585577979253, "timestamp": "2025-05-03T03:15:53.883162+00:00Z", "free_bikes": 5, "empty_slots": 3, "extra": {"uid": "1477", "number": 1, "status": "maintenance", "score": 3.0, "reviews": 8}}, {"id": "83a638782cbb91f29d5e7ab96090c654", "name": "Park Garrone", "latitude": 45.325163756350236, "longitude": 8.429210433798971, "timestamp": "2025-05-03T03:15:53.883215+00:00Z", "free_bikes": 0, "empty_slots": 15, "extra": {"uid": "1481", "number": 5, "status": "offline", "score": 1.1, "reviews": 5}}, {"id": "e57d05ba7117edc6312d072380e069fe", "name": "Paietta", "latitude": 45.32343306844861, "longitude": 8.416345178573579, "timestamp": "2025-05-03T03:15:53.883182+00:00Z", "free_bikes": 0, "empty_slots": 10, "extra": {"uid": "1478", "number": 2, "status": "online", "score": 1.7, "reviews": 6}}, {"id": "e737d4a92619725e8282e5048d8d1727", "name": "Mazzini", "latitude": 45.32176265956099, "longitude": 8.426543842327874, "timestamp": "2025-05-03T03:15:53.883205+00:00Z", "free_bikes": 0, "empty_slots": 18, "extra": {"uid": "1480", "number": 4, "status": "offline", "score": 3.1, "reviews": 5}}]}