{"id": "vlille", "name": "V'Lille", "location": {"latitude": 50.62925, "longitude": 3.057256, "city": "Lille", "country": "FR"}, "href": "/v2/networks/vlille", "company": ["Keolis"], "system": "Keolis", "source": "https://data.lillemetropole.fr/catalogue/dataset/c8166e8f-36a2-40ca-af1a-a00ab1fb20f7", "stations": [{"id": "00f10566e38fcb8655f598b6c6b0bfe6", "name": "MERCURE", "latitude": 50.704693, "longitude": 3.160515, "timestamp": "2025-05-03T03:15:32.667293+00:00Z", "free_bikes": 5, "empty_slots": 13, "extra": {"status": "EN SERVICE", "uid": "vlille_temps_reel.259", "city": "Tourcoing", "address": "Face au 330 boulevard Gambetta", "last_update": "2025-05-03T05:15:08.452+00:00", "online": true, "payment-terminal": true}}, {"id": "0257185921d3e68260dd13f4119064e7", "name": "ROUBAIX MAIRIE", "latitude": 50.69184, "longitude": 3.173925, "timestamp": "2025-05-03T03:15:32.666991+00:00Z", "free_bikes": 8, "empty_slots": 22, "extra": {"status": "EN SERVICE", "uid": "vlille_temps_reel.221", "city": "Roubaix", "address": "1 Contour de l'\u00c9glise St-Martin", "last_update": "2025-05-03T05:15:08.443+00:00", "online": true, "payment-terminal": true}}, {"id": "02af2ecbfedafa736b58bba89f950f7a", "name": "BLANCHEMAILLE", "latitude": 50.696909, "longitude": 3.168664, "timestamp": "2025-05-03T03:15:32.666943+00:00Z", "free_bikes": 3, "empty_slots": 5, "extra": {"status": "EN SERVICE", "uid": "vlille_temps_reel.268", "city": "Roubaix", "address": "55 rue de Blanchemaille", "last_update": "2025-05-03T05:15:08.453+00:00", "online": true, "payment-terminal": true}}, {"id": "02bed95a9d5409d6b885780b3379ab02", "name": "MARBRERIE", "latitude": 50.63041, "longitude": 3.097037, "timestamp": "2025-05-03T03:15:32.666599+00:00Z", "free_bikes": 6, "empty_slots": 12, "extra": {"status": "EN SERVICE", "uid": "vlille_temps_reel.95", "city": "Lille Hellemmes", "address": "280 rue Pierre Legrand", "last_update": "2025-05-03T05:15:08.402+00:00", "online": true, "payment-terminal": true}}, {"id": "0390b2ea485d0642446d8bcb38826f43", "name": "UNIVERSITE CATHOLIQUE", "latitude": 50.632233, "longitude": 3.046134, "timestamp": "2025-05-03T03:15:32.667228+00:00Z", "free_bikes": 3, "empty_slots": 28, "extra": {"status": "EN SERVICE", "uid": "vlille_temps_reel.2", "city": "Lille", "address": "64 Boulevard Vauban", "last_update": "2025-05-03T05:15:08.358+00:00", "online": true, "payment-terminal": true}}, {"id": "03ed28db702ace422a7d2eea52d99a3c", "name": "PLACE COLETTE BESSON", "latitude": 50.62276, "longitude": 3.063799, "timestamp": "2025-05-03T03:15:32.666695+00:00Z", "free_bikes": 18, "empty_slots": 4, "extra": {"status": "EN SERVICE", "uid": "vlille_temps_reel.52", "city": "Lille", "address": "37 rue de Wazemmes", "last_update": "2025-05-03T05:15:08.389+00:00", "online": true, "payment-terminal": true}}, {"id": "052b1ab9ff21069d8631936adf0de07b", "name": "JB LEBAS", "latitude": 50.62482, "longitude": 3.068689, "timestamp": "2025-05-03T03:15:32.667217+00:00Z", "free_bikes": 0, "empty_slots": 40, "extra": {"status": "EN SERVICE", "uid": "vlille_temps_reel.51", "city": "Lille", "address": "76 boulevard Jean-Baptiste Lebas", "last_update": "2025-05-03T05:15:08.388+00:00", "online": true, "payment-terminal": true}}, {"id": "05693e3cc20a815cf081158ddf0d6d00", "name": "SAINT MAUR", "latitude": 50.651638, "longitude": 3.081625, "timestamp": "2025-05-03T03:15:32.666624+00:00Z", "free_bikes": 15, "empty_slots": 9, "extra": {"status": "EN SERVICE", "uid": "vlille_temps_reel.100", "city": "La Madeleine", "address": "260 Avenue de la R\u00e9publique", "last_update": "2025-05-03T05:15:08.403+00:00", "online": true, "payment-terminal": true}}, {"id": "06371a8b86a7e0fe11282a6bf2d3ae1c", "name": "LOUISE DE BETTIGNIES", "latitude": 50.64144, "longitude": 3.064974, "timestamp": "2025-05-03T03:15:32.667211+00:00Z", "free_bikes": 6, "empty_slots": 24, "extra": {"status": "EN SERVICE", "uid": "vlille_temps_reel.22", "city": "Lille", "address": "2 avenue du Peuple Belge", "last_update": "2025-05-03T05:15:08.364+00:00", "online": true, "payment-terminal": true}}, {"id": "06806aaeed95a09f3f73b428e912ef2a", "name": "ZENITH", "latitude": 50.632965, "longitude": 3.076437, "timestamp": "2025-05-03T03:15:32.666723+00:00Z", "free_bikes": 1, "empty_slots": 29, "extra": {"status": "EN SERVICE", "uid": "vlille_temps_reel.62", "city": "Lille", "address": "Boulevard \u00c9mile Dubuisson (face au Z\u00e9nith)", "last_update": "2025-05-03T05:15:08.392+00:00", "online": true, "payment-terminal": true}}, {"id": "080074857a12f8235d6ae632042b3e87", "name": "MUSEE ART ET INDUSTRIE", "latitude": 50.693768, "longitude": 3.167666, "timestamp": "2025-05-03T03:15:32.666988+00:00Z", "free_bikes": 0, "empty_slots": 14, "extra": {"status": "EN SERVICE", "uid": "vlille_temps_reel.220", "city": "Roubaix", "address": "101 avenue Jean-Baptiste Lebas", "last_update": "2025-05-03T05:15:08.443+00:00", "online": true, "payment-terminal": true}}, {"id": "0816c3865aef69b6672556d0f2229669", "name": "ALFRED MONGY", "latitude": 50.688015, "longitude": 3.174815, "timestamp": "2025-05-03T03:15:32.666454+00:00Z", "free_bikes": 6, "empty_slots": 10, "extra": {"status": "EN SERVICE", "uid": "vlille_temps_reel.206", "city": "Roubaix", "address": "3 boulevard du G\u00e9n\u00e9ral Leclerc", "last_update": "2025-05-03T05:15:08.440+00:00", "online": true, "payment-terminal": true}}, {"id": "089b4ede12442902910fac6cac06e20d", "name": "PONT DE NEUVILLE", "latitude": 50.73682, "longitude": 3.1712308, "timestamp": "2025-05-03T03:15:32.667056+00:00Z", "free_bikes": 4, "empty_slots": 8, "extra": {"status": "EN SERVICE", "uid": "vlille_temps_reel.256", "city": "Tourcoing", "address": "251 Rue du Pont de Neuville", "last_update": "2025-05-03T05:15:08.451+00:00", "online": true, "payment-terminal": true}}, {"id": "08c640cdb620765a6d93517378755c34", "name": "PORT DE LILLE", "latitude": 50.63022, "longitude": 3.035681, "timestamp": "2025-05-03T03:15:32.666309+00:00Z", "free_bikes": 15, "empty_slots": 11, "extra": {"status": "EN SERVICE", "uid": "vlille_temps_reel.33", "city": "Lille", "address": "Rue de Lille (m\u00e9tro Port de Lille)", "last_update": "2025-05-03T05:15:08.378+00:00", "online": true, "payment-terminal": true}}, {"id": "08cf3367c120cef2ac72efbe020ce03d", "name": "PLACE AUX BLEUETS", "latitude": 50.64142, "longitude": 3.067873, "timestamp": "2025-05-03T03:15:32.666304+00:00Z", "free_bikes": 2, "empty_slots": 14, "extra": {"status": "EN SERVICE", "uid": "vlille_temps_reel.32", "city": "Lille", "address": "15 place aux Bleuets", "last_update": "2025-05-03T05:15:08.377+00:00", "online": true, "payment-terminal": true}}, {"id": "0a64d4b19dca049f35e9b0e9ef53a4ef", "name": "SADI CARNOT", "latitude": 50.611307, "longitude": 2.994654, "timestamp": "2025-05-03T03:15:32.667332+00:00Z", "free_bikes": 9, "empty_slots": 11, "extra": {"status": "EN SERVICE", "uid": "vlille_temps_reel.308", "city": "Haubourdin", "address": "178 rue Sadi Carnot", "last_update": "2025-05-03T05:15:08.457+00:00", "online": true, "payment-terminal": true}}, {"id": "0b4a20e79b98057fe617a6649a645277", "name": "PLACE CASQUETTE", "latitude": 50.62429, "longitude": 3.045321, "timestamp": "2025-05-03T03:15:32.666329+00:00Z", "free_bikes": 14, "empty_slots": 4, "extra": {"status": "EN SERVICE", "uid": "vlille_temps_reel.38", "city": "Lille", "address": "1 rue d'Haubourdin", "last_update": "2025-05-03T05:15:08.379+00:00", "online": true, "payment-terminal": true}}, {"id": "0be87fc4af3afa8db7d6079dd38ebc47", "name": "JARDIN VAUBAN", "latitude": 50.636093, "longitude": 3.050447, "timestamp": "2025-05-03T03:15:32.667231+00:00Z", "free_bikes": 0, "empty_slots": 18, "extra": {"status": "EN SERVICE", "uid": "vlille_temps_reel.3", "city": "Lille", "address": "19 Boulevard Vauban", "last_update": "2025-05-03T05:15:08.358+00:00", "online": true, "payment-terminal": true}}, {"id": "0c04b7b66195ffd6eb890b0598c630ad", "name": "CIMETIERE DU SUD", "latitude": 50.61295, "longitude": 3.047268, "timestamp": "2025-05-03T03:15:32.666871+00:00Z", "free_bikes": 4, "empty_slots": 16, "extra": {"status": "EN SERVICE", "uid": "vlille_temps_reel.79", "city": "Lille", "address": "Place Martin Luther King", "last_update": "2025-05-03T05:15:08.398+00:00", "online": true, "payment-terminal": true}}, {"id": "0c0a12e3daac57f070a3730e408b186d", "name": "FACULT\u00c9 DE M\u00c9DECINE", "latitude": 50.604499, "longitude": 3.031421, "timestamp": "2025-05-03T03:15:32.666857+00:00Z", "free_bikes": 0, "empty_slots": 16, "extra": {"status": "EN SERVICE", "uid": "vlille_temps_reel.176", "city": "LOOS", "address": "310 Avenue Eug\u00e8ne Avin\u00e9e", "last_update": "2025-05-03T05:15:08.429+00:00", "online": true, "payment-terminal": true}}, {"id": "0d34283ee6980e623cdd797374d82a8a", "name": "METRO TRIOLO", "latitude": 50.61682, "longitude": 3.140808, "timestamp": "2025-05-03T03:15:32.666834+00:00Z", "free_bikes": 7, "empty_slots": 17, "extra": {"status": "EN SERVICE", "uid": "vlille_temps_reel.141", "city": "Villeneuve d'Ascq", "address": "11 rue Traversi\u00e8re", "last_update": "2025-05-03T05:15:08.420+00:00", "online": true, "payment-terminal": true}}, {"id": "0dc1eebdba94644934884b5e3ffa6a8b", "name": "HOTEL DE REGION", "latitude": 50.629738, "longitude": 3.078224, "timestamp": "2025-05-03T03:15:32.666726+00:00Z", "free_bikes": 4, "empty_slots": 28, "extra": {"status": "EN SERVICE", "uid": "vlille_temps_reel.63", "city": "Lille", "address": "151 Avenue du Pr\u00e9sident Hoover", "last_update": "2025-05-03T05:15:08.392+00:00", "online": true, "payment-terminal": true}}, {"id": "0e2c305fdfd9a22663f84d49db6e3a13", "name": "JEMMAPES", "latitude": 50.644685, "longitude": 3.057953, "timestamp": "2025-05-03T03:15:32.666804+00:00Z", "free_bikes": 14, "empty_slots": 8, "extra": {"status": "EN SERVICE", "uid": "vlille_temps_reel.169", "city": "Lille", "address": "59 Rue de Jemmapes", "last_update": "2025-05-03T05:15:08.428+00:00", "online": true, "payment-terminal": true}}, {"id": "0e89b99fa1d1765167dc7e062e8aa90f", "name": "RUE CORNEILLE", "latitude": 50.623795, "longitude": 3.144815, "timestamp": "2025-05-03T03:15:32.666773+00:00Z", "free_bikes": 0, "empty_slots": 14, "extra": {"status": "R\u00c9FORM\u00c9", "uid": "vlille_temps_reel.140", "city": "VILLENEUVE D'ASCQ", "address": "RUE CORNEILLE", "last_update": "2024-04-18T14:46:09.093+00:00", "online": false, "payment-terminal": true}}, {"id": "0eba64e15ad90580b8377ed5be9a32e0", "name": "PLACE SPRIET", "latitude": 50.67392, "longitude": 3.18514, "timestamp": "2025-05-03T03:15:32.666562+00:00Z", "free_bikes": 0, "empty_slots": 24, "extra": {"status": "R\u00c9FORM\u00c9", "uid": "vlille_temps_reel.218", "city": "ROUBAIX", "address": "PLACE CHARLES SPRIET", "last_update": "2022-11-29T10:47:16.198+00:00", "online": false, "payment-terminal": true}}, {"id": "0ebd0ca72fda28e6dc37c446494cdbd2", "name": "CENTRE COMMERCIAL V2", "latitude": 50.61606, "longitude": 3.132006, "timestamp": "2025-05-03T03:15:32.666353+00:00Z", "free_bikes": 0, "empty_slots": 19, "extra": {"status": "EN SERVICE", "uid": "vlille_temps_reel.132", "city": "Villeneuve d'Ascq", "address": "51 Boulevard de Valmy", "last_update": "2025-05-03T05:15:08.412+00:00", "online": true, "payment-terminal": true}}, {"id": "0f46eddf307ce81f0edf976fdda5d36d", "name": "BOULEVARD LOUIS XIV", "latitude": 50.62816, "longitude": 3.069797, "timestamp": "2025-05-03T03:15:32.666504+00:00Z", "free_bikes": 0, "empty_slots": 26, "extra": {"status": "EN SERVICE", "uid": "vlille_temps_reel.47", "city": "Lille", "address": "4 Boulevard Louis XIV", "last_update": "2025-05-03T05:15:08.387+00:00", "online": true, "payment-terminal": true}}, {"id": "0f53e30d00c2073313820a546f1aa16c", "name": "P.I. DE DOUAI", "latitude": 50.612194, "longitude": 3.074952, "timestamp": "2025-05-03T03:15:32.666907+00:00Z", "free_bikes": 20, "empty_slots": 0, "extra": {"status": "EN SERVICE", "uid": "vlille_temps_reel.148", "city": "Lille", "address": "79 Rue du Faubourg de Douai", "last_update": "2025-05-03T05:15:08.421+00:00", "online": true, "payment-terminal": true}}, {"id": "0f74dea862c104e7f42b03bb5fd2a65e", "name": "PISCINE DE MARCQ", "latitude": 50.666033, "longitude": 3.087591, "timestamp": "2025-05-03T03:15:32.666674+00:00Z", "free_bikes": 11, "empty_slots": 5, "extra": {"status": "EN SERVICE", "uid": "vlille_temps_reel.122", "city": "Marcq en Bar\u0153ul", "address": "319 Avenue du Mar\u00e9chal De Lattre De Tassigny", "last_update": "2025-05-03T05:15:08.410+00:00", "online": true, "payment-terminal": true}}, {"id": "0fd75b849b37239aa5d11adb0b214d50", "name": "STADE BALLET", "latitude": 50.628918, "longitude": 3.088147, "timestamp": "2025-05-03T03:15:32.666596+00:00Z", "free_bikes": 18, "empty_slots": 0, "extra": {"status": "EN SERVICE", "uid": "vlille_temps_reel.93", "city": "Lille", "address": "81 rue du Long Pot", "last_update": "2025-05-03T05:15:08.402+00:00", "online": true, "payment-terminal": true}}, {"id": "10817f255b8bf4d96da69b27c0071a2c", "name": "BOULEVARD DE VALMY", "latitude": 50.61915, "longitude": 3.126501, "timestamp": "2025-05-03T03:15:32.666817+00:00Z", "free_bikes": 9, "empty_slots": 9, "extra": {"status": "EN SERVICE", "uid": "vlille_temps_reel.133", "city": "Villeneuve d'Ascq", "address": "233 boulevard de Valmy", "last_update": "2025-05-03T05:15:08.418+00:00", "online": true, "payment-terminal": true}}, {"id": "10bae5a7cd6055a3eebab1483506e1ab", "name": "RUE DES ANGES", "latitude": 50.719803, "longitude": 3.156338, "timestamp": "2025-05-03T03:15:32.666997+00:00Z", "free_bikes": 2, "empty_slots": 4, "extra": {"status": "EN SERVICE", "uid": "vlille_temps_reel.237", "city": "Tourcoing", "address": "22 Rue des Anges", "last_update": "2025-05-03T05:15:08.446+00:00", "online": true, "payment-terminal": true}}, {"id": "10d758d119ba87d050a99856de0a8f16", "name": "HOPITAL VICTOR PROVO", "latitude": 50.67869, "longitude": 3.172558, "timestamp": "2025-05-03T03:15:32.666981+00:00Z", "free_bikes": 3, "empty_slots": 13, "extra": {"status": "EN SERVICE", "uid": "vlille_temps_reel.217", "city": "Roubaix", "address": "12 boulevard Lacordaire", "last_update": "2025-05-03T05:15:08.443+00:00", "online": true, "payment-terminal": true}}, {"id": "1203451d874561326d24e6c67e18dbbe", "name": "PETIT MAROC", "latitude": 50.61989, "longitude": 3.084357, "timestamp": "2025-05-03T03:15:32.666874+00:00Z", "free_bikes": 5, "empty_slots": 25, "extra": {"status": "EN SERVICE", "uid": "vlille_temps_reel.80", "city": "Lille", "address": "Rue du Professeur Langevin (entr\u00e9e du BTWIN Village)", "last_update": "2025-05-03T05:15:08.399+00:00", "online": true, "payment-terminal": true}}, {"id": "124857e3dc849c21d1f813de43d6f85e", "name": "RUE DE GAND", "latitude": 50.64297, "longitude": 3.067375, "timestamp": "2025-05-03T03:15:32.667115+00:00Z", "free_bikes": 3, "empty_slots": 16, "extra": {"status": "EN SERVICE", "uid": "vlille_temps_reel.30", "city": "Lille", "address": "8 place de Gand", "last_update": "2025-05-03T05:15:08.376+00:00", "online": true, "payment-terminal": true}}, {"id": "1255de3c978255112d702d5370d94137", "name": "GARE JEAN LEBAS", "latitude": 50.695563, "longitude": 3.164242, "timestamp": "2025-05-03T03:15:32.666985+00:00Z", "free_bikes": 1, "empty_slots": 16, "extra": {"status": "EN SERVICE", "uid": "vlille_temps_reel.219", "city": "Roubaix", "address": "12 Place de la Gare", "last_update": "2025-05-03T05:15:08.443+00:00", "online": true, "payment-terminal": true}}, {"id": "13ad5cce0406da24b8cf2301aea27e64", "name": "PLACE TACQ", "latitude": 50.621128, "longitude": 3.035483, "timestamp": "2025-05-03T03:15:32.666732+00:00Z", "free_bikes": 16, "empty_slots": 2, "extra": {"status": "EN SERVICE", "uid": "vlille_temps_reel.65", "city": "Lille", "address": "72 Rue de Loos", "last_update": "2025-05-03T05:15:08.393+00:00", "online": true, "payment-terminal": true}}, {"id": "13e3cc04b4cc52f5c336136c565d2e13", "name": "MITTERIE", "latitude": 50.64697, "longitude": 3.00768, "timestamp": "2025-05-03T03:15:32.667163+00:00Z", "free_bikes": 0, "empty_slots": 16, "extra": {"status": "HORS SERVICE", "uid": "vlille_temps_reel.319", "city": "Lomme", "address": "Parvis m\u00e9tro Mitterie", "last_update": "2025-05-03T05:15:08.460+00:00", "online": false, "payment-terminal": true}}, {"id": "140a4aa644e08cabd6909870713fa558", "name": "CHEMIN ROUGE", "latitude": 50.610582, "longitude": 3.065103, "timestamp": "2025-05-03T03:15:32.666917+00:00Z", "free_bikes": 8, "empty_slots": 8, "extra": {"status": "EN SERVICE", "uid": "vlille_temps_reel.152", "city": "Faches Thumesnil", "address": "2 Chemin Rouge", "last_update": "2025-05-03T05:15:08.422+00:00", "online": true, "payment-terminal": true}}, {"id": "14c41e8dbb755befb903067115cbf62f", "name": "FLANDRES EURALILLE", "latitude": 50.637078, "longitude": 3.070774, "timestamp": "2025-05-03T03:15:32.667095+00:00Z", "free_bikes": 1, "empty_slots": 39, "extra": {"status": "EN SERVICE", "uid": "vlille_temps_reel.24", "city": "Lille", "address": "Place des Buisses", "last_update": "2025-05-03T05:15:08.374+00:00", "online": true, "payment-terminal": true}}, {"id": "14fc6d2421bfef3d1b146d769d8a56d5", "name": "COLLEGE LAVOISIER", "latitude": 50.641834, "longitude": 3.022364, "timestamp": "2025-05-03T03:15:32.666531+00:00Z", "free_bikes": 0, "empty_slots": 0, "extra": {"status": "R\u00c9FORM\u00c9", "uid": "vlille_temps_reel.118", "city": "LAMBERSART", "address": "56, RUE PAUL VAILLANT", "last_update": "2022-11-29T10:47:16.185+00:00", "online": false, "payment-terminal": true}}, {"id": "16fb372f452834459f66dec71d23cd92", "name": "QUAI 22", "latitude": 50.662941, "longitude": 3.057167, "timestamp": "2025-05-03T03:15:32.666401+00:00Z", "free_bikes": 0, "empty_slots": 0, "extra": {"status": "EN SERVICE", "uid": "vlille_temps_reel.190", "city": "Saint Andr\u00e9 Lez Lille", "address": "149 rue Sadi Carnot", "last_update": "2025-05-03T05:15:08.433+00:00", "online": true, "payment-terminal": true}}, {"id": "18b227904ef85a8be6a2e3e5c64b9a41", "name": "FOSSE AUX CHENES", "latitude": 50.699734, "longitude": 3.174347, "timestamp": "2025-05-03T03:15:32.666479+00:00Z", "free_bikes": 6, "empty_slots": 8, "extra": {"status": "EN SERVICE", "uid": "vlille_temps_reel.232", "city": "Roubaix", "address": "13 Place de la Fosse aux Ch\u00eanes", "last_update": "2025-05-03T05:15:08.445+00:00", "online": true, "payment-terminal": true}}, {"id": "19aa2b4c0ad7bdc92867c0af1177a125", "name": "EDHEC", "latitude": 50.673699, "longitude": 3.163373, "timestamp": "2025-05-03T03:15:32.666844+00:00Z", "free_bikes": 15, "empty_slots": 15, "extra": {"status": "EN SERVICE", "uid": "vlille_temps_reel.201", "city": "Croix", "address": "370 rue Verte", "last_update": "2025-05-03T05:15:08.439+00:00", "online": true, "payment-terminal": true}}, {"id": "19b3452bd6914bbc7ebb44d4d9f0e6d8", "name": "PHALEMPINS", "latitude": 50.732406, "longitude": 3.157764, "timestamp": "2025-05-03T03:15:32.667300+00:00Z", "free_bikes": 1, "empty_slots": 13, "extra": {"status": "EN SERVICE", "uid": "vlille_temps_reel.261", "city": "Tourcoing", "address": "Place des Phalempins", "last_update": "2025-05-03T05:15:08.452+00:00", "online": true, "payment-terminal": true}}, {"id": "1ab10226fae479c36d20fa13f15aece1", "name": "LOMMELET", "latitude": 50.665968, "longitude": 3.049462, "timestamp": "2025-05-03T03:15:32.666415+00:00Z", "free_bikes": 12, "empty_slots": 8, "extra": {"status": "EN SERVICE", "uid": "vlille_temps_reel.194", "city": "Saint Andr\u00e9 Lez Lille", "address": "185 rue du G\u00e9n\u00e9ral Leclerc", "last_update": "2025-05-03T05:15:08.434+00:00", "online": true, "payment-terminal": true}}, {"id": "1abc8da7e8f755bff0a4fd051a277fed", "name": "ESPLANADE", "latitude": 50.6449, "longitude": 3.050645, "timestamp": "2025-05-03T03:15:32.667188+00:00Z", "free_bikes": 2, "empty_slots": 22, "extra": {"status": "EN SERVICE", "uid": "vlille_temps_reel.15", "city": "Lille", "address": "Pont du Petit Paradis", "last_update": "2025-05-03T05:15:08.362+00:00", "online": true, "payment-terminal": true}}, {"id": "1af3d5ecd96c20bbe1d2e71bd0c9b249", "name": "FAUBOURG DE ROUBAIX", "latitude": 50.641238, "longitude": 3.083175, "timestamp": "2025-05-03T03:15:32.666860+00:00Z", "free_bikes": 20, "empty_slots": 0, "extra": {"status": "EN SERVICE", "uid": "vlille_temps_reel.74", "city": "Lille", "address": "110 rue du Faubourg de Roubaix", "last_update": "2025-05-03T05:15:08.396+00:00", "online": true, "payment-terminal": true}}, {"id": "1af9936132175d01f5379d23a4d64dfb", "name": "BUISSON", "latitude": 50.656487, "longitude": 3.088004, "timestamp": "2025-05-03T03:15:32.666357+00:00Z", "free_bikes": 10, "empty_slots": 6, "extra": {"status": "EN SERVICE", "uid": "vlille_temps_reel.41", "city": "Lille", "address": "685 avenue de la R\u00e9publique", "last_update": "2025-05-03T05:15:08.384+00:00", "online": true, "payment-terminal": true}}, {"id": "1bbf3b9d4e852f1fc2ce1358cdce5943", "name": "PONT SUPERIEUR", "latitude": 50.644855, "longitude": 3.013238, "timestamp": "2025-05-03T03:15:32.666671+00:00Z", "free_bikes": 13, "empty_slots": 3, "extra": {"status": "EN SERVICE", "uid": "vlille_temps_reel.121", "city": "Lomme", "address": "518 Avenue de Dunkerque", "last_update": "2025-05-03T05:15:08.410+00:00", "online": true, "payment-terminal": true}}, {"id": "1cd238bb933dc990b2d499e51144053f", "name": "PONT NEUF", "latitude": 50.644264, "longitude": 3.062935, "timestamp": "2025-05-03T03:15:32.666295+00:00Z", "free_bikes": 0, "empty_slots": 20, "extra": {"status": "EN SERVICE", "uid": "vlille_temps_reel.31", "city": "Lille", "address": "38 bis rue du Pont Neuf", "last_update": "2025-05-03T05:15:08.377+00:00", "online": true, "payment-terminal": true}}, {"id": "1d4cd6a27c84316be74dc2746bf09b2a", "name": "NATIONS UNIES", "latitude": 50.692368, "longitude": 3.185092, "timestamp": "2025-05-03T03:15:32.666472+00:00Z", "free_bikes": 10, "empty_slots": 8, "extra": {"status": "EN SERVICE", "uid": "vlille_temps_reel.229", "city": "Roubaix", "address": "158 Boulevard Gambetta", "last_update": "2025-05-03T05:15:08.445+00:00", "online": true, "payment-terminal": true}}, {"id": "1f2c710188e09aee5080a6889d5a419b", "name": "HELLEMMES CIMETIERE", "latitude": 50.62486, "longitude": 3.116677, "timestamp": "2025-05-03T03:15:32.666653+00:00Z", "free_bikes": 11, "empty_slots": 1, "extra": {"status": "EN SERVICE", "uid": "vlille_temps_reel.111", "city": "Lille Hellemmes", "address": "320 rue Roger Salengro", "last_update": "2025-05-03T05:15:08.407+00:00", "online": true, "payment-terminal": true}}, {"id": "203bb0dd2f12245ab55afc09acd7dab2", "name": "PAV\u00c9 DE LILLE", "latitude": 50.664211, "longitude": 3.130098, "timestamp": "2025-05-03T03:15:32.666950+00:00Z", "free_bikes": 19, "empty_slots": 1, "extra": {"status": "EN SERVICE", "uid": "vlille_temps_reel.270", "city": "Wasquehal", "address": "101 Avenue de Flandre", "last_update": "2025-05-03T05:15:08.454+00:00", "online": true, "payment-terminal": true}}, {"id": "205d4f8027bc142c59047ec3db237335", "name": "PLACE DU MARCHE", "latitude": 50.6549, "longitude": 3.068756, "timestamp": "2025-05-03T03:15:32.666894+00:00Z", "free_bikes": 7, "empty_slots": 13, "extra": {"status": "EN SERVICE", "uid": "vlille_temps_reel.98", "city": "La Madeleine", "address": "Place des Fusill\u00e9s et D\u00e9port\u00e9s", "last_update": "2025-05-03T05:15:08.403+00:00", "online": true, "payment-terminal": true}}, {"id": "20cd643e0659a15fe9e1fe9c07ca0a60", "name": "EUROTELEPORT", "latitude": 50.691323, "longitude": 3.17974, "timestamp": "2025-05-03T03:15:32.666956+00:00Z", "free_bikes": 15, "empty_slots": 15, "extra": {"status": "EN SERVICE", "uid": "vlille_temps_reel.207", "city": "Roubaix", "address": "4 boulevard Gambetta (parvis Eurot\u00e9l\u00e9port)", "last_update": "2025-05-03T05:15:08.440+00:00", "online": true, "payment-terminal": true}}, {"id": "23dc2d4e88f8a32758f95a2879e30149", "name": "CENTRE NAUTIQUE", "latitude": 50.691406, "longitude": 3.162704, "timestamp": "2025-05-03T03:15:32.666458+00:00Z", "free_bikes": 2, "empty_slots": 12, "extra": {"status": "EN SERVICE", "uid": "vlille_temps_reel.224", "city": "Roubaix", "address": "Place de l'Abreuvoir", "last_update": "2025-05-03T05:15:08.444+00:00", "online": true, "payment-terminal": true}}, {"id": "24dc0b773ddef5dfd4c059d967566a2f", "name": "STATION MOBILE", "latitude": 50.61487204991714, "longitude": 3.086592765398914, "timestamp": "2025-05-03T03:15:32.667166+00:00Z", "free_bikes": 0, "empty_slots": 20, "extra": {"status": "HORS SERVICE", "uid": "vlille_temps_reel.995", "city": "Lille", "address": "4 Rue du Professeur Langevin", "last_update": "2025-05-03T05:15:08.460+00:00", "online": false, "payment-terminal": true}}, {"id": "259d1689642a7275081c1ee1ef4a7e49", "name": "NOTEBART", "latitude": 50.630678, "longitude": 3.013423, "timestamp": "2025-05-03T03:15:32.666421+00:00Z", "free_bikes": 6, "empty_slots": 14, "extra": {"status": "EN SERVICE", "uid": "vlille_temps_reel.197", "city": "Lomme", "address": "236 Avenue Arthur Notebart", "last_update": "2025-05-03T05:15:08.438+00:00", "online": true, "payment-terminal": true}}, {"id": "269cd64a6e183a999435b1df093a0d0d", "name": "ALSACE", "latitude": 50.7004, "longitude": 3.161378, "timestamp": "2025-05-03T03:15:32.666482+00:00Z", "free_bikes": 7, "empty_slots": 9, "extra": {"status": "EN SERVICE", "uid": "vlille_temps_reel.234", "city": "Roubaix", "address": "96 boulevard d'Armenti\u00e8res", "last_update": "2025-05-03T05:15:08.446+00:00", "online": true, "payment-terminal": true}}, {"id": "26d61c52ca13918f4152424c5ac4653d", "name": "PORTE D'ARRAS", "latitude": 50.617847, "longitude": 3.061758, "timestamp": "2025-05-03T03:15:32.666706+00:00Z", "free_bikes": 6, "empty_slots": 18, "extra": {"status": "EN SERVICE", "uid": "vlille_temps_reel.55", "city": "Lille", "address": "3 place Jacques Febvrier", "last_update": "2025-05-03T05:15:08.390+00:00", "online": true, "payment-terminal": true}}, {"id": "2923c074dd0734c7619fddfcecf82f5d", "name": "PORTE DE VALENCIENNES", "latitude": 50.62073, "longitude": 3.07895, "timestamp": "2025-05-03T03:15:32.667266+00:00Z", "free_bikes": 1, "empty_slots": 19, "extra": {"status": "EN SERVICE", "uid": "vlille_temps_reel.58", "city": "Lille", "address": "1 boulevard de Belfort", "last_update": "2025-05-03T05:15:08.391+00:00", "online": true, "payment-terminal": true}}, {"id": "29b969b67976c6c1c70eb5fc1282811a", "name": "TEST CYKLEO LILLE", "latitude": 50.6151322, "longitude": 3.0863797, "timestamp": "2025-05-03T03:15:32.667082+00:00Z", "free_bikes": 0, "empty_slots": 2, "extra": {"status": "EN SERVICE", "uid": "vlille_temps_reel.299", "city": "LILLE", "address": "4 rue du Professeur Langevin", "last_update": "2025-05-03T05:15:08.455+00:00", "online": true, "payment-terminal": true}}, {"id": "2acff5f5c297457f22403fb29e25ea47", "name": "BOIS HABITE", "latitude": 50.62651, "longitude": 3.079211, "timestamp": "2025-05-03T03:15:32.667269+00:00Z", "free_bikes": 13, "empty_slots": 4, "extra": {"status": "EN SERVICE", "uid": "vlille_temps_reel.114", "city": "Lille", "address": "Face au 533 avenue du Pr\u00e9sident Hoover", "last_update": "2025-05-03T05:15:08.408+00:00", "online": true, "payment-terminal": true}}, {"id": "2b977d99bf315903afd28cb80a5c9a37", "name": "RONCHIN MAIRIE", "latitude": 50.60548, "longitude": 3.077622, "timestamp": "2025-05-03T03:15:32.666913+00:00Z", "free_bikes": 7, "empty_slots": 17, "extra": {"status": "EN SERVICE", "uid": "vlille_temps_reel.150", "city": "Ronchin", "address": "105 avenue Jean Jaur\u00e8s", "last_update": "2025-05-03T05:15:08.422+00:00", "online": true, "payment-terminal": true}}, {"id": "2bbac866657fe9a454d3e3fde7448ce5", "name": "METRO WAZEMMES", "latitude": 50.62338, "longitude": 3.051565, "timestamp": "2025-05-03T03:15:32.666702+00:00Z", "free_bikes": 16, "empty_slots": 4, "extra": {"status": "EN SERVICE", "uid": "vlille_temps_reel.54", "city": "Lille", "address": "94 rue Racine", "last_update": "2025-05-03T05:15:08.389+00:00", "online": true, "payment-terminal": true}}, {"id": "2d745844d139ea3ccac2ffdb927c2790", "name": "MOTTE BOSSUT", "latitude": 50.689762, "longitude": 3.177179, "timestamp": "2025-05-03T03:15:32.666572+00:00Z", "free_bikes": 0, "empty_slots": 10, "extra": {"status": "R\u00c9FORM\u00c9", "uid": "vlille_temps_reel.231", "city": "ROUBAIX", "address": "ROND POINT DE L'EUROPE", "last_update": "2022-11-29T10:47:16.199+00:00", "online": false, "payment-terminal": true}}, {"id": "2dec5119dd64eacbf9b7ed6c06cb5cee", "name": "HAUBOURDIN MAIRIE", "latitude": 50.610949, "longitude": 2.983879, "timestamp": "2025-05-03T03:15:32.667319+00:00Z", "free_bikes": 9, "empty_slots": 15, "extra": {"status": "EN SERVICE", "uid": "vlille_temps_reel.309", "city": "Haubourdin", "address": "23 rue Sadi Carnot", "last_update": "2025-05-03T05:15:08.457+00:00", "online": true, "payment-terminal": true}}, {"id": "2e49a0fdb980c402a2642f1158fe6c45", "name": "RUE SAINT BLAISE", "latitude": 50.728798, "longitude": 3.158835, "timestamp": "2025-05-03T03:15:32.667033+00:00Z", "free_bikes": 1, "empty_slots": 5, "extra": {"status": "EN SERVICE", "uid": "vlille_temps_reel.248", "city": "Tourcoing", "address": "85 Rue de Gand", "last_update": "2025-05-03T05:15:08.449+00:00", "online": true, "payment-terminal": true}}, {"id": "2e69013ad516dec416cd967c360ffcb0", "name": "RIHOUR", "latitude": 50.63589, "longitude": 3.062471, "timestamp": "2025-05-03T03:15:32.667256+00:00Z", "free_bikes": 1, "empty_slots": 31, "extra": {"status": "EN SERVICE", "uid": "vlille_temps_reel.10", "city": "Lille", "address": "28 place Rihour", "last_update": "2025-05-03T05:15:08.360+00:00", "online": true, "payment-terminal": true}}, {"id": "30a4b7136e820e34502bfa91bcac22b5", "name": "TROIS PONTS", "latitude": 50.684593, "longitude": 3.200799, "timestamp": "2025-05-03T03:15:32.666558+00:00Z", "free_bikes": 0, "empty_slots": 0, "extra": {"status": "R\u00c9FORM\u00c9", "uid": "vlille_temps_reel.215", "city": "ROUBAIX", "address": "186, AVENUE JULIEN LAGACHE", "last_update": "2022-11-29T10:47:16.198+00:00", "online": false, "payment-terminal": true}}, {"id": "31469df2294eb27f54e690d51132b705", "name": "GEORGES HANNART", "latitude": 50.67756, "longitude": 3.14019, "timestamp": "2025-05-03T03:15:32.667316+00:00Z", "free_bikes": 12, "empty_slots": 8, "extra": {"status": "EN SERVICE", "uid": "vlille_temps_reel.276", "city": "Croix", "address": "141 Rue de la Gare", "last_update": "2025-05-03T05:15:08.455+00:00", "online": true, "payment-terminal": true}}, {"id": "31bbebe3f3e1d78c3e24e76277e0f47c", "name": "JEANNE D'ARC", "latitude": 50.625597, "longitude": 3.064497, "timestamp": "2025-05-03T03:15:32.667118+00:00Z", "free_bikes": 9, "empty_slots": 11, "extra": {"status": "EN SERVICE", "uid": "vlille_temps_reel.163", "city": "Lille", "address": "33 rue Jeanne d'Arc", "last_update": "2025-05-03T05:15:08.426+00:00", "online": true, "payment-terminal": true}}, {"id": "3210b94b6fef8fc0f5e31c7358feff7c", "name": "LOMME MAIRIE", "latitude": 50.63899, "longitude": 3.01154, "timestamp": "2025-05-03T03:15:32.666667+00:00Z", "free_bikes": 5, "empty_slots": 13, "extra": {"status": "EN SERVICE", "uid": "vlille_temps_reel.120", "city": "Lomme", "address": "72 avenue de la R\u00e9publique", "last_update": "2025-05-03T05:15:08.410+00:00", "online": true, "payment-terminal": true}}, {"id": "3212aca4329dc3ebeb67701915f3d6bd", "name": "FAUBOURG D'ARRAS", "latitude": 50.614052, "longitude": 3.062195, "timestamp": "2025-05-03T03:15:32.666903+00:00Z", "free_bikes": 6, "empty_slots": 10, "extra": {"status": "EN SERVICE", "uid": "vlille_temps_reel.147", "city": "Lille", "address": "2 rue Marcel H\u00e9naux", "last_update": "2025-05-03T05:15:08.421+00:00", "online": true, "payment-terminal": true}}, {"id": "3239c7d5193b44e3a992459684ab9877", "name": "EUGENE JACQUET", "latitude": 50.637337, "longitude": 3.084894, "timestamp": "2025-05-03T03:15:32.666864+00:00Z", "free_bikes": 20, "empty_slots": 1, "extra": {"status": "EN SERVICE", "uid": "vlille_temps_reel.75", "city": "Lille", "address": "78 rue Eug\u00e8ne Jacquet", "last_update": "2025-05-03T05:15:08.397+00:00", "online": true, "payment-terminal": true}}, {"id": "3264aeaddcf34f670d2d00a679f9e720", "name": "HAUT DE MONS", "latitude": 50.646432, "longitude": 3.106626, "timestamp": "2025-05-03T03:15:32.666398+00:00Z", "free_bikes": 2, "empty_slots": 14, "extra": {"status": "EN SERVICE", "uid": "vlille_temps_reel.189", "city": "Mons en baroeul", "address": "225 rue du g\u00e9n\u00e9ral de Gaulle", "last_update": "2025-05-03T05:15:08.433+00:00", "online": true, "payment-terminal": true}}, {"id": "33c121589edd8e0e40f5bbcc672e0769", "name": "LOUVIERE", "latitude": 50.64569, "longitude": 3.0858226, "timestamp": "2025-05-03T03:15:32.666348+00:00Z", "free_bikes": 14, "empty_slots": 6, "extra": {"status": "EN SERVICE", "uid": "vlille_temps_reel.90", "city": "Lille", "address": "94 rue de la Louvi\u00e8re", "last_update": "2025-05-03T05:15:08.401+00:00", "online": true, "payment-terminal": true}}, {"id": "341cd053dd65c53aeb3342ecc88d31cf", "name": "RECHERCHE", "latitude": 50.60301, "longitude": 3.038779, "timestamp": "2025-05-03T03:15:32.666854+00:00Z", "free_bikes": 5, "empty_slots": 11, "extra": {"status": "EN SERVICE", "uid": "vlille_temps_reel.175", "city": "Loos", "address": "977 Avenue Eug\u00e8ne Avin\u00e9e", "last_update": "2025-05-03T05:15:08.429+00:00", "online": true, "payment-terminal": true}}, {"id": "3477a3d657e4d5cbfb0f5d7d33dca9e1", "name": "RUE DES VICTOIRES", "latitude": 50.6221, "longitude": 3.131706, "timestamp": "2025-05-03T03:15:32.666548+00:00Z", "free_bikes": 0, "empty_slots": 0, "extra": {"status": "R\u00c9FORM\u00c9", "uid": "vlille_temps_reel.134", "city": "VILLENEUVE D'ASCQ", "address": "76, BOULEVARD VAN GOGH", "last_update": "2022-11-29T10:47:16.186+00:00", "online": false, "payment-terminal": true}}, {"id": "36608fa9d1c4e3e360fc2a58d5ea690b", "name": "STATION MOBILE 2", "latitude": 50.614968, "longitude": 3.088049, "timestamp": "2025-05-03T03:15:32.667172+00:00Z", "free_bikes": 0, "empty_slots": 20, "extra": {"status": "HORS SERVICE", "uid": "vlille_temps_reel.997", "city": "Lille", "address": "4 Rue du Professeur Langevin", "last_update": "2025-05-03T05:15:08.460+00:00", "online": false, "payment-terminal": true}}, {"id": "371583b7aebff56f15c22310969efe7c", "name": "GRANDS MOULINS DE PARIS", "latitude": 50.671436, "longitude": 3.055025, "timestamp": "2025-05-03T03:15:32.667137+00:00Z", "free_bikes": 2, "empty_slots": 18, "extra": {"status": "EN SERVICE", "uid": "vlille_temps_reel.311", "city": "Marquette Lez Lille", "address": "11 Square du Pont \u00e0 Bascule", "last_update": "2025-05-03T05:15:08.458+00:00", "online": true, "payment-terminal": true}}, {"id": "372b905b6a873e3c7edc2a5482d2f223", "name": "CAVELL", "latitude": 50.72271, "longitude": 3.163794, "timestamp": "2025-05-03T03:15:32.667027+00:00Z", "free_bikes": 2, "empty_slots": 4, "extra": {"status": "EN SERVICE", "uid": "vlille_temps_reel.246", "city": "Tourcoing", "address": "49 Rue de la Cloche", "last_update": "2025-05-03T05:15:08.448+00:00", "online": true, "payment-terminal": true}}, {"id": "37ae7930f9bbb3c3968def35b7c137b0", "name": "RUE DE LONDRES", "latitude": 50.616763, "longitude": 3.023032, "timestamp": "2025-05-03T03:15:32.666364+00:00Z", "free_bikes": 11, "empty_slots": 3, "extra": {"status": "EN SERVICE", "uid": "vlille_temps_reel.177", "city": "Loos", "address": "2 Rue du Mar\u00e9chal Foch", "last_update": "2025-05-03T05:15:08.430+00:00", "online": true, "payment-terminal": true}}, {"id": "37f809e59fcb265b10100e4160c14774", "name": "CHASSEURS DE DRIANT", "latitude": 50.61893, "longitude": 3.032539, "timestamp": "2025-05-03T03:15:32.666750+00:00Z", "free_bikes": 10, "empty_slots": 12, "extra": {"status": "EN SERVICE", "uid": "vlille_temps_reel.69", "city": "Lille", "address": "11 Avenue Verhaeren", "last_update": "2025-05-03T05:15:08.395+00:00", "online": true, "payment-terminal": true}}, {"id": "37fa1b768bcc99eab8669004db96da88", "name": "CLEMENCEAU HIPPODROME", "latitude": 50.6618, "longitude": 3.096235, "timestamp": "2025-05-03T03:15:32.666677+00:00Z", "free_bikes": 9, "empty_slots": 9, "extra": {"status": "EN SERVICE", "uid": "vlille_temps_reel.124", "city": "Marcq en Bar\u0153ul", "address": "920 Avenue de la R\u00e9publique", "last_update": "2025-05-03T05:15:08.411+00:00", "online": true, "payment-terminal": true}}, {"id": "38be686de1a2f245530215c5ace0f1a5", "name": "ROUSSEAU", "latitude": 50.64466, "longitude": 3.03027, "timestamp": "2025-05-03T03:15:32.667085+00:00Z", "free_bikes": 11, "empty_slots": 9, "extra": {"status": "EN SERVICE", "uid": "vlille_temps_reel.300", "city": "Lambersart", "address": "13 Avenue Henri Delecaux", "last_update": "2025-05-03T05:15:08.455+00:00", "online": true, "payment-terminal": true}}, {"id": "3baac67a33a69d2155a3db81de195917", "name": "TREVISE", "latitude": 50.621185, "longitude": 3.072363, "timestamp": "2025-05-03T03:15:32.666716+00:00Z", "free_bikes": 3, "empty_slots": 17, "extra": {"status": "EN SERVICE", "uid": "vlille_temps_reel.60", "city": "Lille", "address": "116 Rue de Douai", "last_update": "2025-05-03T05:15:08.391+00:00", "online": true, "payment-terminal": true}}, {"id": "3c25531eabe6ec5573dfb8981e7aa0d2", "name": "CHARLES DE GAULLE", "latitude": 50.68645, "longitude": 3.170006, "timestamp": "2025-05-03T03:15:32.666465+00:00Z", "free_bikes": 3, "empty_slots": 13, "extra": {"status": "EN SERVICE", "uid": "vlille_temps_reel.226", "city": "Roubaix", "address": "72 Rue de Lille", "last_update": "2025-05-03T05:15:08.444+00:00", "online": true, "payment-terminal": true}}, {"id": "3c25f818042868eace59689e29e773a1", "name": "WATTRELOS PLACE", "latitude": 50.701187, "longitude": 3.215011, "timestamp": "2025-05-03T03:15:32.666585+00:00Z", "free_bikes": 0, "empty_slots": 1, "extra": {"status": "R\u00c9FORM\u00c9", "uid": "vlille_temps_reel.262", "city": "WATTRELOS", "address": "2-10, D660", "last_update": "2022-11-29T10:47:16.201+00:00", "online": false, "payment-terminal": true}}, {"id": "3cbc6a8f69efdd22de732363b94af38a", "name": "VOLTAIRE", "latitude": 50.6428, "longitude": 3.055932, "timestamp": "2025-05-03T03:15:32.667197+00:00Z", "free_bikes": 4, "empty_slots": 10, "extra": {"status": "EN SERVICE", "uid": "vlille_temps_reel.18", "city": "Lille", "address": "91 Rue Royale", "last_update": "2025-05-03T05:15:08.363+00:00", "online": true, "payment-terminal": true}}, {"id": "3cd198a0f2fec3108ae6003fc549467b", "name": "TANNEURS", "latitude": 50.635014, "longitude": 3.064802, "timestamp": "2025-05-03T03:15:32.667105+00:00Z", "free_bikes": 0, "empty_slots": 36, "extra": {"status": "EN SERVICE", "uid": "vlille_temps_reel.27", "city": "Lille", "address": "5 rue des Tanneurs", "last_update": "2025-05-03T05:15:08.376+00:00", "online": true, "payment-terminal": true}}, {"id": "3d91e5c7edcdf745a745ae95b3cf3721", "name": "PARVIS ROTTERDAM", "latitude": 50.637709, "longitude": 3.077478, "timestamp": "2025-05-03T03:15:32.667069+00:00Z", "free_bikes": 9, "empty_slots": 11, "extra": {"status": "EN SERVICE", "uid": "vlille_temps_reel.160", "city": "Lille", "address": "Parvis Rotterdam", "last_update": "2025-05-03T05:15:08.425+00:00", "online": true, "payment-terminal": true}}, {"id": "3e79ef3f5b6c8ca988e57a41bcc4ff06", "name": "LILLE GRAND PALAIS", "latitude": 50.629246, "longitude": 3.075218, "timestamp": "2025-05-03T03:15:32.666719+00:00Z", "free_bikes": 5, "empty_slots": 19, "extra": {"status": "EN SERVICE", "uid": "vlille_temps_reel.61", "city": "Lille", "address": "15 boulevard du Mar\u00e9chal Vaillant", "last_update": "2025-05-03T05:15:08.392+00:00", "online": true, "payment-terminal": true}}, {"id": "3eebbdd73d4fab682717a76fd25a6ca6", "name": "VICTOR PROVO", "latitude": 50.68079, "longitude": 3.167454, "timestamp": "2025-05-03T03:15:32.666443+00:00Z", "free_bikes": 1, "empty_slots": 15, "extra": {"status": "EN SERVICE", "uid": "vlille_temps_reel.203", "city": "Roubaix", "address": "Face au 122 boulevard du G\u00e9n\u00e9ral de Gaulle", "last_update": "2025-05-03T05:15:08.439+00:00", "online": true, "payment-terminal": true}}, {"id": "3f10c17d36ea6f9cb510d816f5531ce6", "name": "HALLE AUX SUCRES", "latitude": 50.644695, "longitude": 3.060867, "timestamp": "2025-05-03T03:15:32.667194+00:00Z", "free_bikes": 1, "empty_slots": 18, "extra": {"status": "EN SERVICE", "uid": "vlille_temps_reel.17", "city": "Lille", "address": "33 avenue du Peuple Belge", "last_update": "2025-05-03T05:15:08.362+00:00", "online": true, "payment-terminal": true}}, {"id": "4040e6475f4f338af089625c041dc9c2", "name": "TISSERAND", "latitude": 50.631135, "longitude": 3.008346, "timestamp": "2025-05-03T03:15:32.666953+00:00Z", "free_bikes": 11, "empty_slots": 9, "extra": {"status": "EN SERVICE", "uid": "vlille_temps_reel.195", "city": "Lomme", "address": "51 Rue Victor Hugo", "last_update": "2025-05-03T05:15:08.434+00:00", "online": true, "payment-terminal": true}}, {"id": "40a96510be5861f6fc12d1dfc0193530", "name": "MARCHE DE WAZEMMES", "latitude": 50.627674, "longitude": 3.050173, "timestamp": "2025-05-03T03:15:32.666333+00:00Z", "free_bikes": 6, "empty_slots": 21, "extra": {"status": "EN SERVICE", "uid": "vlille_temps_reel.39", "city": "Lille", "address": "298 rue L\u00e9on Gambetta", "last_update": "2025-05-03T05:15:08.380+00:00", "online": true, "payment-terminal": true}}, {"id": "411fecdeacd976035d3b8166b9d34395", "name": "BOTANIQUE", "latitude": 50.64891, "longitude": 3.078336, "timestamp": "2025-05-03T03:15:32.667277+00:00Z", "free_bikes": 15, "empty_slots": 1, "extra": {"status": "EN SERVICE", "uid": "vlille_temps_reel.116", "city": "La Madeleine", "address": "185 Avenue de la R\u00e9publique", "last_update": "2025-05-03T05:15:08.409+00:00", "online": true, "payment-terminal": true}}, {"id": "49321d39391af65816d7ebae181e1707", "name": "ANGELLIER", "latitude": 50.628544, "longitude": 3.065015, "timestamp": "2025-05-03T03:15:32.666790+00:00Z", "free_bikes": 2, "empty_slots": 24, "extra": {"status": "EN SERVICE", "uid": "vlille_temps_reel.162", "city": "Lille", "address": "1 Rue Auguste Angellier", "last_update": "2025-05-03T05:15:08.426+00:00", "online": true, "payment-terminal": true}}, {"id": "49833627828a0100ef0740ee01103e81", "name": "RUE DU PARC", "latitude": 50.651107, "longitude": 3.0678, "timestamp": "2025-05-03T03:15:32.667309+00:00Z", "free_bikes": 11, "empty_slots": 1, "extra": {"status": "EN SERVICE", "uid": "vlille_temps_reel.184", "city": "La Madeleine", "address": "20 rue du Parc", "last_update": "2025-05-03T05:15:08.431+00:00", "online": true, "payment-terminal": true}}, {"id": "49a52b5e575ec5647a989fc8f04e8bc2", "name": "ANNAPPES REPUBLIQUE", "latitude": 50.6258, "longitude": 3.14862, "timestamp": "2025-05-03T03:15:32.666841+00:00Z", "free_bikes": 10, "empty_slots": 14, "extra": {"status": "EN SERVICE", "uid": "vlille_temps_reel.144", "city": "Villeneuve d'Ascq", "address": "2 rue de la Station", "last_update": "2025-05-03T05:15:08.420+00:00", "online": true, "payment-terminal": true}}, {"id": "4ac422b509a296cde9c3e4c0e4854864", "name": "STALINGRAD", "latitude": 50.69626, "longitude": 3.209156, "timestamp": "2025-05-03T03:15:32.666588+00:00Z", "free_bikes": 0, "empty_slots": 1, "extra": {"status": "R\u00c9FORM\u00c9", "uid": "vlille_temps_reel.263", "city": "WATTRELOS", "address": "38-4 RUE DE STALINGRAD", "last_update": "2022-11-29T10:47:16.201+00:00", "online": false, "payment-terminal": true}}, {"id": "4b111470c0339cfd7bf01c033b5497c9", "name": "CANTELEU", "latitude": 50.637302, "longitude": 3.024314, "timestamp": "2025-05-03T03:15:32.666739+00:00Z", "free_bikes": 10, "empty_slots": 8, "extra": {"status": "EN SERVICE", "uid": "vlille_temps_reel.72", "city": "Lille", "address": "235 avenue de Dunkerque", "last_update": "2025-05-03T05:15:08.396+00:00", "online": true, "payment-terminal": true}}, {"id": "4d1f39e8f38d274637c60c9e5e4160f6", "name": "RUE BONTE-POLLET", "latitude": 50.62487, "longitude": 3.034234, "timestamp": "2025-05-03T03:15:32.666649+00:00Z", "free_bikes": 15, "empty_slots": 1, "extra": {"status": "EN SERVICE", "uid": "vlille_temps_reel.110", "city": "Lille", "address": "11 rue Bonte Pollet", "last_update": "2025-05-03T05:15:08.407+00:00", "online": true, "payment-terminal": true}}, {"id": "4d778955fc6ca062f6b76429898744ef", "name": "JEAN SANS PEUR", "latitude": 50.632423, "longitude": 3.05831, "timestamp": "2025-05-03T03:15:32.666797+00:00Z", "free_bikes": 1, "empty_slots": 13, "extra": {"status": "EN SERVICE", "uid": "vlille_temps_reel.165", "city": "Lille", "address": "68 Rue Jean Sans Peur", "last_update": "2025-05-03T05:15:08.427+00:00", "online": true, "payment-terminal": true}}, {"id": "4d9f61d9822fb4535e74eb7caaf9dd6b", "name": "REPUBLIQUE", "latitude": 50.697895, "longitude": 3.206297, "timestamp": "2025-05-03T03:15:32.666592+00:00Z", "free_bikes": 0, "empty_slots": 0, "extra": {"status": "R\u00c9FORM\u00c9", "uid": "vlille_temps_reel.264", "city": "WATTRELOS", "address": "203 RUE CARNOT", "last_update": "2022-11-29T10:47:16.201+00:00", "online": false, "payment-terminal": true}}, {"id": "4dc8735e7f2fd93b30fb2dd5c95679ce", "name": "GUSTAVE DELORY", "latitude": 50.674164, "longitude": 3.174519, "timestamp": "2025-05-03T03:15:32.666966+00:00Z", "free_bikes": 4, "empty_slots": 14, "extra": {"status": "EN SERVICE", "uid": "vlille_temps_reel.211", "city": "Roubaix", "address": "48 Avenue Gustave Delory", "last_update": "2025-05-03T05:15:08.441+00:00", "online": true, "payment-terminal": true}}, {"id": "4eb822c5c6243a5b5dc69190b66f3479", "name": "LA MADELEINE GARE", "latitude": 50.65937, "longitude": 3.074057, "timestamp": "2025-05-03T03:15:32.666607+00:00Z", "free_bikes": 10, "empty_slots": 7, "extra": {"status": "EN SERVICE", "uid": "vlille_temps_reel.97", "city": "La Madeleine", "address": "250 Rue du G\u00e9n\u00e9ral de Gaulle", "last_update": "2025-05-03T05:15:08.403+00:00", "online": true, "payment-terminal": true}}, {"id": "507e3c03fc6bbf77732ff3fb455c8545", "name": "CANON D'OR", "latitude": 50.64989, "longitude": 3.042045, "timestamp": "2025-05-03T03:15:32.666764+00:00Z", "free_bikes": 16, "empty_slots": 0, "extra": {"status": "EN SERVICE", "uid": "vlille_temps_reel.157", "city": "Lambersart", "address": "255 Rue de Lille", "last_update": "2025-05-03T05:15:08.423+00:00", "online": true, "payment-terminal": true}}, {"id": "521d6b5b58962804d8d6a6d6e728a89c", "name": "AVENUE MILLET", "latitude": 50.72498, "longitude": 3.150884, "timestamp": "2025-05-03T03:15:32.667046+00:00Z", "free_bikes": 4, "empty_slots": 8, "extra": {"status": "EN SERVICE", "uid": "vlille_temps_reel.253", "city": "Tourcoing", "address": "1 Avenue Jean Millet", "last_update": "2025-05-03T05:15:08.450+00:00", "online": true, "payment-terminal": true}}, {"id": "53992804d9f047d0bd2c9e9ebed93377", "name": "PONT DE BOIS", "latitude": 50.62435, "longitude": 3.1283, "timestamp": "2025-05-03T03:15:32.666684+00:00Z", "free_bikes": 10, "empty_slots": 20, "extra": {"status": "EN SERVICE", "uid": "vlille_temps_reel.130", "city": "Villeneuve d'Ascq", "address": "20 rue Baudouin IX (m\u00e9tro Pont de Bois)", "last_update": "2025-05-03T05:15:08.412+00:00", "online": true, "payment-terminal": true}}, {"id": "53afa8c69afb8f15ec33511b384b6c7a", "name": "CH. DES MARGUERITOIS", "latitude": 50.60642, "longitude": 3.072209, "timestamp": "2025-05-03T03:15:32.667065+00:00Z", "free_bikes": 9, "empty_slots": 4, "extra": {"status": "EN SERVICE", "uid": "vlille_temps_reel.151", "city": "Ronchin", "address": "39 chemin des Margueritois", "last_update": "2025-05-03T05:15:08.422+00:00", "online": true, "payment-terminal": true}}, {"id": "53b52a72404057d993f3134acd72150c", "name": "RUE DE TOURCOING", "latitude": 50.702026, "longitude": 3.172654, "timestamp": "2025-05-03T03:15:32.666576+00:00Z", "free_bikes": 0, "empty_slots": 16, "extra": {"status": "R\u00c9FORM\u00c9", "uid": "vlille_temps_reel.233", "city": "ROUBAIX", "address": "RUE DE TOURCOING (SUR LA PARKING GRDF)", "last_update": "2022-11-29T10:47:16.199+00:00", "online": false, "payment-terminal": true}}, {"id": "53c466cc5fc985f33ee6cc11534638e8", "name": "BD VICTOR HUGO", "latitude": 50.620304, "longitude": 3.055471, "timestamp": "2025-05-03T03:15:32.666709+00:00Z", "free_bikes": 9, "empty_slots": 9, "extra": {"status": "EN SERVICE", "uid": "vlille_temps_reel.56", "city": "Lille", "address": "216 Boulevard Victor Hugo", "last_update": "2025-05-03T05:15:08.391+00:00", "online": true, "payment-terminal": true}}, {"id": "53fc72cf83da3d860bb444436eaea40a", "name": "CROIX CENTRE", "latitude": 50.67441, "longitude": 3.14721, "timestamp": "2025-05-03T03:15:32.666933+00:00Z", "free_bikes": 6, "empty_slots": 10, "extra": {"status": "EN SERVICE", "uid": "vlille_temps_reel.265", "city": "Croix", "address": "3 Place de la R\u00e9publique", "last_update": "2025-05-03T05:15:08.452+00:00", "online": true, "payment-terminal": true}}, {"id": "5566816a5084c0a1e9808644817cdcc3", "name": "CHU - CENTRE OSCAR LAMBRET", "latitude": 50.61352, "longitude": 3.03677, "timestamp": "2025-05-03T03:15:32.666847+00:00Z", "free_bikes": 2, "empty_slots": 18, "extra": {"status": "EN SERVICE", "uid": "vlille_temps_reel.173", "city": "Lille", "address": "Avenue Oscar Lambret", "last_update": "2025-05-03T05:15:08.429+00:00", "online": true, "payment-terminal": true}}, {"id": "5621790c821f38c04cfe64cebfde32bc", "name": "METRO GAMBETTA", "latitude": 50.62614, "longitude": 3.051729, "timestamp": "2025-05-03T03:15:32.666337+00:00Z", "free_bikes": 1, "empty_slots": 27, "extra": {"status": "EN SERVICE", "uid": "vlille_temps_reel.40", "city": "Lille", "address": "43 rue du March\u00e9", "last_update": "2025-05-03T05:15:08.380+00:00", "online": true, "payment-terminal": true}}, {"id": "566fbfdec3c8f7e37048f1d8b7554ada", "name": "SOLFERINO NATIONALE", "latitude": 50.63268, "longitude": 3.052483, "timestamp": "2025-05-03T03:15:32.666900+00:00Z", "free_bikes": 0, "empty_slots": 19, "extra": {"status": "EN SERVICE", "uid": "vlille_temps_reel.146", "city": "Lille", "address": "171 rue Nationale", "last_update": "2025-05-03T05:15:08.421+00:00", "online": true, "payment-terminal": true}}, {"id": "584af3e442d737161685b2ea58bffe16", "name": "POSTE", "latitude": 50.71922, "longitude": 3.163396, "timestamp": "2025-05-03T03:15:32.667008+00:00Z", "free_bikes": 3, "empty_slots": 3, "extra": {"status": "EN SERVICE", "uid": "vlille_temps_reel.240", "city": "Tourcoing", "address": "20 Rue L\u00e9on Salembien", "last_update": "2025-05-03T05:15:08.447+00:00", "online": true, "payment-terminal": true}}, {"id": "5860302515b0f30c21799ed4421b7fca", "name": "PLACE DE STRASBOURG", "latitude": 50.633728, "longitude": 3.055307, "timestamp": "2025-05-03T03:15:32.667245+00:00Z", "free_bikes": 0, "empty_slots": 16, "extra": {"status": "EN SERVICE", "uid": "vlille_temps_reel.7", "city": "Lille", "address": "7 Place de Strasbourg", "last_update": "2025-05-03T05:15:08.359+00:00", "online": true, "payment-terminal": true}}, {"id": "588cdd4011cf495e1ecc4205d81fad30", "name": "PELLART", "latitude": 50.69535, "longitude": 3.180779, "timestamp": "2025-05-03T03:15:32.666569+00:00Z", "free_bikes": 0, "empty_slots": 7, "extra": {"status": "R\u00c9FORM\u00c9", "uid": "vlille_temps_reel.228", "city": "ROUBAIX", "address": "15, RUE PELLART", "last_update": "2022-11-29T10:47:16.199+00:00", "online": false, "payment-terminal": true}}, {"id": "5acdfeef7bb30fa12fb8eb5732f4eb4f", "name": "BLANCHEMAILLE", "latitude": 50.696327, "longitude": 3.16713, "timestamp": "2025-05-03T03:15:32.666777+00:00Z", "free_bikes": 0, "empty_slots": 0, "extra": {"status": "R\u00c9FORM\u00c9", "uid": "vlille_temps_reel.235", "city": "ROUBAIX", "address": "AVENUE DES NATIONS UNIES", "last_update": "2024-04-18T14:46:09.094+00:00", "online": false, "payment-terminal": true}}, {"id": "5ae7f3ca69a613e16846e4235a56cc8f", "name": "LOUIS BRAILLE", "latitude": 50.637103, "longitude": 3.097538, "timestamp": "2025-05-03T03:15:32.666393+00:00Z", "free_bikes": 7, "empty_slots": 5, "extra": {"status": "EN SERVICE", "uid": "vlille_temps_reel.188", "city": "Mons en Baroeul", "address": "6 rue Gutenberg", "last_update": "2025-05-03T05:15:08.433+00:00", "online": true, "payment-terminal": true}}, {"id": "5eb445c017bf92e661cf6bc7704e8a32", "name": "BOURSE DU TRAVAIL", "latitude": 50.626052, "longitude": 3.090898, "timestamp": "2025-05-03T03:15:32.666371+00:00Z", "free_bikes": 14, "empty_slots": 6, "extra": {"status": "EN SERVICE", "uid": "vlille_temps_reel.179", "city": "Lille", "address": "174 Boulevard de l'Usine", "last_update": "2025-05-03T05:15:08.430+00:00", "online": true, "payment-terminal": true}}, {"id": "5f29afbe705b0a762af8ead4d22d5842", "name": "LE SART", "latitude": 50.66351, "longitude": 3.138682, "timestamp": "2025-05-03T03:15:32.667124+00:00Z", "free_bikes": 16, "empty_slots": 4, "extra": {"status": "EN SERVICE", "uid": "vlille_temps_reel.304", "city": "Villeneuve d'Ascq", "address": "21 Avenue de Flandre", "last_update": "2025-05-03T05:15:08.456+00:00", "online": true, "payment-terminal": true}}, {"id": "5f6a3b38e0dacabefa286b18d8f97f5f", "name": "FER \u00c0 CHEVAL", "latitude": 50.670155, "longitude": 3.154898, "timestamp": "2025-05-03T03:15:32.666940+00:00Z", "free_bikes": 4, "empty_slots": 16, "extra": {"status": "EN SERVICE", "uid": "vlille_temps_reel.267", "city": "Roubaix", "address": "Avenue Jean Jaur\u00e8s (intersection avec avenue \u00c9douard Va", "last_update": "2025-05-03T05:15:08.453+00:00", "online": true, "payment-terminal": true}}, {"id": "60e5d31d2950802996356a5e18b3679a", "name": "JARDIN BOTANIQUE", "latitude": 50.724581, "longitude": 3.166122, "timestamp": "2025-05-03T03:15:32.667024+00:00Z", "free_bikes": 1, "empty_slots": 7, "extra": {"status": "EN SERVICE", "uid": "vlille_temps_reel.245", "city": "Tourcoing", "address": "126 Rue Verte", "last_update": "2025-05-03T05:15:08.448+00:00", "online": true, "payment-terminal": true}}, {"id": "614ac8398ca39a9669b5f6ad6c16fec6", "name": "FIVES", "latitude": 50.632996, "longitude": 3.089651, "timestamp": "2025-05-03T03:15:32.667303+00:00Z", "free_bikes": 23, "empty_slots": 1, "extra": {"status": "EN SERVICE", "uid": "vlille_temps_reel.76", "city": "Lille", "address": "123 rue Pierre Legrand", "last_update": "2025-05-03T05:15:08.397+00:00", "online": true, "payment-terminal": true}}, {"id": "61b41b6efd0ebd68111f8a47f56d8fb3", "name": "MAIRIE DE MONS", "latitude": 50.64218, "longitude": 3.109699, "timestamp": "2025-05-03T03:15:32.666631+00:00Z", "free_bikes": 4, "empty_slots": 12, "extra": {"status": "EN SERVICE", "uid": "vlille_temps_reel.102", "city": "Mons en Bar\u0153ul", "address": "27 Avenue Robert Schuman", "last_update": "2025-05-03T05:15:08.404+00:00", "online": true, "payment-terminal": true}}, {"id": "633e7a606bcaf1f17dfe54b93b7957f4", "name": "WASQUEHAL HOTEL DE VILLE", "latitude": 50.669917, "longitude": 3.13075, "timestamp": "2025-05-03T03:15:32.667121+00:00Z", "free_bikes": 19, "empty_slots": 1, "extra": {"status": "EN SERVICE", "uid": "vlille_temps_reel.271", "city": "Wasquehal", "address": "18 rue Michelet", "last_update": "2025-05-03T05:15:08.454+00:00", "online": true, "payment-terminal": true}}, {"id": "63dad6428bc09da74515cff2edff3c89", "name": "RUE DE ROUBAIX", "latitude": 50.7134, "longitude": 3.165011, "timestamp": "2025-05-03T03:15:32.667052+00:00Z", "free_bikes": 5, "empty_slots": 7, "extra": {"status": "EN SERVICE", "uid": "vlille_temps_reel.255", "city": "Tourcoing", "address": "61 Rue de Roubaix", "last_update": "2025-05-03T05:15:08.450+00:00", "online": true, "payment-terminal": true}}, {"id": "64a8106289258a41ed24a6c27d7938c2", "name": "TOURCOING MAIRIE", "latitude": 50.72389, "longitude": 3.160344, "timestamp": "2025-05-03T03:15:32.667039+00:00Z", "free_bikes": 8, "empty_slots": 14, "extra": {"status": "EN SERVICE", "uid": "vlille_temps_reel.250", "city": "Tourcoing", "address": "6 Rue Nationale", "last_update": "2025-05-03T05:15:08.449+00:00", "online": true, "payment-terminal": true}}, {"id": "651c76d3c529e460589684d9fcaedc00", "name": "MARIE MARRANT", "latitude": 50.64872, "longitude": 3.06988, "timestamp": "2025-05-03T03:15:32.666379+00:00Z", "free_bikes": 0, "empty_slots": 24, "extra": {"status": "HORS SERVICE", "uid": "vlille_temps_reel.181", "city": "La Madeleine", "address": "7 Rue Marie Marrant", "last_update": "2025-05-03T05:15:08.431+00:00", "online": false, "payment-terminal": true}}, {"id": "661d1adf0d3a904949439a08163b4017", "name": "CHANZY", "latitude": 50.62504, "longitude": 3.1008, "timestamp": "2025-05-03T03:15:32.666887+00:00Z", "free_bikes": 7, "empty_slots": 5, "extra": {"status": "EN SERVICE", "uid": "vlille_temps_reel.85", "city": "Lille Hellemmes", "address": "102 rue Chanzy", "last_update": "2025-05-03T05:15:08.400+00:00", "online": true, "payment-terminal": true}}, {"id": "66bf3e48f5de16d56f039070d8fdbd6b", "name": "LOOS CLEMENCEAU", "latitude": 50.614392, "longitude": 3.010842, "timestamp": "2025-05-03T03:15:32.666425+00:00Z", "free_bikes": 11, "empty_slots": 9, "extra": {"status": "EN SERVICE", "uid": "vlille_temps_reel.198", "city": "Loos", "address": "1 rue Georges Cl\u00e9menceau", "last_update": "2025-05-03T05:15:08.438+00:00", "online": true, "payment-terminal": true}}, {"id": "67a2bc89cafe942801dfdce4dc942d63", "name": "MAIRIE D'HELLEMMES", "latitude": 50.627243, "longitude": 3.109266, "timestamp": "2025-05-03T03:15:32.666883+00:00Z", "free_bikes": 24, "empty_slots": 0, "extra": {"status": "EN SERVICE", "uid": "vlille_temps_reel.84", "city": "Lille Hellemmes", "address": "165 rue Roger Salengro", "last_update": "2025-05-03T05:15:08.400+00:00", "online": true, "payment-terminal": true}}, {"id": "67daeb2bd1bc6a8d8e53cef7990c6616", "name": "GARE D'EAU", "latitude": 50.62911, "longitude": 3.02139, "timestamp": "2025-05-03T03:15:32.667157+00:00Z", "free_bikes": 2, "empty_slots": 12, "extra": {"status": "EN SERVICE", "uid": "vlille_temps_reel.317", "city": "Lille", "address": "331 Rue des Bois Blancs", "last_update": "2025-05-03T05:15:08.459+00:00", "online": true, "payment-terminal": true}}, {"id": "67df3e39ce632a738ca797c7ef6ccf84", "name": "LES GOBELINS", "latitude": 50.6941, "longitude": 3.172165, "timestamp": "2025-05-03T03:15:32.666565+00:00Z", "free_bikes": 0, "empty_slots": 12, "extra": {"status": "R\u00c9FORM\u00c9", "uid": "vlille_temps_reel.222", "city": "ROUBAIX", "address": "32, RUE DE LA COMMUNAUT\u00c9 URBAINE", "last_update": "2022-11-29T10:47:16.198+00:00", "online": false, "payment-terminal": true}}, {"id": "68426e9e41ba5bce333f36426f5a82d4", "name": "CIT\u00c9 MARIANNE", "latitude": 50.61843, "longitude": 3.05078, "timestamp": "2025-05-03T03:15:32.667325+00:00Z", "free_bikes": 0, "empty_slots": 12, "extra": {"status": "D\u00c9CONNECT\u00c9", "uid": "vlille_temps_reel.187", "city": "Lille", "address": "365 Boulevard Victor Hugo", "last_update": "2025-05-03T05:15:08.432+00:00", "online": false, "payment-terminal": true}}, {"id": "6852b73988df3b20a47641ee2f731ba6", "name": "MAIRIE DE LILLE", "latitude": 50.6318, "longitude": 3.071392, "timestamp": "2025-05-03T03:15:32.666729+00:00Z", "free_bikes": 3, "empty_slots": 17, "extra": {"status": "EN SERVICE", "uid": "vlille_temps_reel.64", "city": "Lille", "address": "17 rue Saint-Sauveur", "last_update": "2025-05-03T05:15:08.393+00:00", "online": true, "payment-terminal": true}}, {"id": "6e2b0cf07f66b76fa878b40c5d6ecde0", "name": "ST MAURICE PELLEVOISIN", "latitude": 50.642315, "longitude": 3.087979, "timestamp": "2025-05-03T03:15:32.666760+00:00Z", "free_bikes": 14, "empty_slots": 10, "extra": {"status": "EN SERVICE", "uid": "vlille_temps_reel.73", "city": "Lille", "address": "203 rue du Faubourg de Roubaix", "last_update": "2025-05-03T05:15:08.396+00:00", "online": true, "payment-terminal": true}}, {"id": "6e4a092c2bd36c83911caeebfe240476", "name": "PONT DE L'ABBAYE", "latitude": 50.666236, "longitude": 3.06415, "timestamp": "2025-05-03T03:15:32.667144+00:00Z", "free_bikes": 4, "empty_slots": 16, "extra": {"status": "EN SERVICE", "uid": "vlille_temps_reel.313", "city": "Marquette Lez Lille", "address": "6 rue du Pont de l'Abbaye", "last_update": "2025-05-03T05:15:08.458+00:00", "online": true, "payment-terminal": true}}, {"id": "723f68def0215f769470a0b29c81372b", "name": "AVENUE DE MORMAL", "latitude": 50.651337, "longitude": 3.08945, "timestamp": "2025-05-03T03:15:32.666656+00:00Z", "free_bikes": 10, "empty_slots": 8, "extra": {"status": "EN SERVICE", "uid": "vlille_temps_reel.113", "city": "Lille", "address": "16 Rue du Buisson", "last_update": "2025-05-03T05:15:08.408+00:00", "online": true, "payment-terminal": true}}, {"id": "73614bcb6142c9b01b69b70831b28703", "name": "CHAUDE RIVI\u00c8RE", "latitude": 50.634417, "longitude": 3.0822274, "timestamp": "2025-05-03T03:15:32.666787+00:00Z", "free_bikes": 6, "empty_slots": 9, "extra": {"status": "EN SERVICE", "uid": "vlille_temps_reel.161", "city": "Lille", "address": "80 Rue Chaude Rivi\u00e8re", "last_update": "2025-05-03T05:15:08.426+00:00", "online": true, "payment-terminal": true}}, {"id": "73b459427749807256c72d657d4143ba", "name": "RUE ROYALE", "latitude": 50.64031, "longitude": 3.05774, "timestamp": "2025-05-03T03:15:32.667201+00:00Z", "free_bikes": 13, "empty_slots": 11, "extra": {"status": "EN SERVICE", "uid": "vlille_temps_reel.19", "city": "Lille", "address": "40 rue Royale", "last_update": "2025-05-03T05:15:08.363+00:00", "online": true, "payment-terminal": true}}, {"id": "75353655da553ca15fbde6a96b9ccaf8", "name": "TREMIERE", "latitude": 50.6206, "longitude": 3.138207, "timestamp": "2025-05-03T03:15:32.666837+00:00Z", "free_bikes": 16, "empty_slots": 4, "extra": {"status": "EN SERVICE", "uid": "vlille_temps_reel.142", "city": "Villeneuve d'Ascq", "address": "8 Rue Tremiere", "last_update": "2025-05-03T05:15:08.420+00:00", "online": true, "payment-terminal": true}}, {"id": "756aaea6959ff82dc3cc6159bab6b7f3", "name": "CARLIERS", "latitude": 50.710735, "longitude": 3.159881, "timestamp": "2025-05-03T03:15:32.667290+00:00Z", "free_bikes": 2, "empty_slots": 10, "extra": {"status": "EN SERVICE", "uid": "vlille_temps_reel.258", "city": "Tourcoing", "address": "151 Chauss\u00e9e Galil\u00e9e", "last_update": "2025-05-03T05:15:08.451+00:00", "online": true, "payment-terminal": true}}, {"id": "7625f285aef834a00eeeab93d7e2273e", "name": "THEATRE TOURCOING", "latitude": 50.720747, "longitude": 3.152787, "timestamp": "2025-05-03T03:15:32.667001+00:00Z", "free_bikes": 2, "empty_slots": 7, "extra": {"status": "EN SERVICE", "uid": "vlille_temps_reel.238", "city": "Tourcoing", "address": "1 Rue de l'Alma", "last_update": "2025-05-03T05:15:08.446+00:00", "online": true, "payment-terminal": true}}, {"id": "763e4397ca3a68c19e53e85066f61fdc", "name": "LA\u00cbNNEC", "latitude": 50.665946, "longitude": 3.198101, "timestamp": "2025-05-03T03:15:32.666780+00:00Z", "free_bikes": 0, "empty_slots": 3, "extra": {"status": "R\u00c9FORM\u00c9", "uid": "vlille_temps_reel.275", "city": "Hem", "address": "31 bis rue des \u00c9coles", "last_update": "2024-12-03T14:11:14.896+00:00", "online": false, "payment-terminal": true}}, {"id": "77df0ef12638d1a1ff005a2b84ea4e14", "name": "EPEULE MONTESQUIEU", "latitude": 50.683987, "longitude": 3.16327, "timestamp": "2025-05-03T03:15:32.666461+00:00Z", "free_bikes": 0, "empty_slots": 15, "extra": {"status": "EN SERVICE", "uid": "vlille_temps_reel.225", "city": "Roubaix", "address": "212 Rue de Lille", "last_update": "2025-05-03T05:15:08.444+00:00", "online": true, "payment-terminal": true}}, {"id": "785fdc0d25396c1cf55ed284834fc018", "name": "BVRD ARMENTIERES", "latitude": 50.699436, "longitude": 3.159658, "timestamp": "2025-05-03T03:15:32.666468+00:00Z", "free_bikes": 2, "empty_slots": 6, "extra": {"status": "EN SERVICE", "uid": "vlille_temps_reel.227", "city": "Roubaix", "address": "73 bis boulevard d'Armenti\u00e8res", "last_update": "2025-05-03T05:15:08.445+00:00", "online": true, "payment-terminal": true}}, {"id": "797fefd37411db90586478c7b81a4b00", "name": "ANATOLE FRANCE", "latitude": 50.636003, "longitude": 3.009396, "timestamp": "2025-05-03T03:15:32.666418+00:00Z", "free_bikes": 14, "empty_slots": 3, "extra": {"status": "EN SERVICE", "uid": "vlille_temps_reel.196", "city": "Lomme", "address": "72 bis rue de l'Ancienne Balaterie", "last_update": "2025-05-03T05:15:08.435+00:00", "online": true, "payment-terminal": true}}, {"id": "79fabcca726bdb10a05db09e63bc8b58", "name": "LE CORBUSIER", "latitude": 50.722343, "longitude": 3.170847, "timestamp": "2025-05-03T03:15:32.667011+00:00Z", "free_bikes": 3, "empty_slots": 15, "extra": {"status": "EN SERVICE", "uid": "vlille_temps_reel.241", "city": "Tourcoing", "address": "81 Rue des Piats", "last_update": "2025-05-03T05:15:08.447+00:00", "online": true, "payment-terminal": true}}, {"id": "7efefecab0e7b8c9d1b78ea2cb317c04", "name": "BEL AIR", "latitude": 50.658146, "longitude": 3.042003, "timestamp": "2025-05-03T03:15:32.666411+00:00Z", "free_bikes": 12, "empty_slots": 8, "extra": {"status": "EN SERVICE", "uid": "vlille_temps_reel.193", "city": "Saint Andr\u00e9 lez Lille", "address": "115 Rue de Lambersart", "last_update": "2025-05-03T05:15:08.434+00:00", "online": true, "payment-terminal": true}}, {"id": "7f24216d8a8d72cc7551e58ddc4bd34b", "name": "GENERAL DE GAULLE", "latitude": 50.645267, "longitude": 3.100516, "timestamp": "2025-05-03T03:15:32.666646+00:00Z", "free_bikes": 7, "empty_slots": 13, "extra": {"status": "EN SERVICE", "uid": "vlille_temps_reel.108", "city": "Mons en Baroeul", "address": "113 rue du G\u00e9n\u00e9ral de Gaulle", "last_update": "2025-05-03T05:15:08.407+00:00", "online": true, "payment-terminal": true}}, {"id": "7fcd6bf157e23fd125c7caaa6bba2c0d", "name": "BAILLY", "latitude": 50.655098, "longitude": 3.051201, "timestamp": "2025-05-03T03:15:32.666927+00:00Z", "free_bikes": 11, "empty_slots": 4, "extra": {"status": "EN SERVICE", "uid": "vlille_temps_reel.155", "city": "Saint Andr\u00e9 Lez Lille", "address": "17 rue Albert Bailly", "last_update": "2025-05-03T05:15:08.423+00:00", "online": true, "payment-terminal": true}}, {"id": "806c8bd15ca30e589eb8c2483bf8a770", "name": "PLACE DE LA BOUCHERIE", "latitude": 50.658048, "longitude": 3.063774, "timestamp": "2025-05-03T03:15:32.666386+00:00Z", "free_bikes": 1, "empty_slots": 19, "extra": {"status": "EN SERVICE", "uid": "vlille_temps_reel.183", "city": "La Madeleine", "address": "1 Place de la Boucherie", "last_update": "2025-05-03T05:15:08.431+00:00", "online": true, "payment-terminal": true}}, {"id": "80dd2a0e1989c8eced964827f2c233d5", "name": "STATION MOBILE 1", "latitude": 50.615795, "longitude": 3.086178, "timestamp": "2025-05-03T03:15:32.667169+00:00Z", "free_bikes": 0, "empty_slots": 20, "extra": {"status": "HORS SERVICE", "uid": "vlille_temps_reel.996", "city": "Lille", "address": "4 Rue du Professeur Langevin", "last_update": "2025-05-03T05:15:08.460+00:00", "online": false, "payment-terminal": true}}, {"id": "80e129d55ea8584eadc961a5df4f2cba", "name": "PARC BARBIEUX", "latitude": 50.678038, "longitude": 3.162436, "timestamp": "2025-05-03T03:15:32.666440+00:00Z", "free_bikes": 3, "empty_slots": 21, "extra": {"status": "EN SERVICE", "uid": "vlille_temps_reel.202", "city": "Roubaix", "address": "Avenue de Jussieu", "last_update": "2025-05-03T05:15:08.439+00:00", "online": true, "payment-terminal": true}}, {"id": "81c6edb374ba111f7e7e4ca0e498dfcc", "name": "PORTE DE DOUAI", "latitude": 50.61843, "longitude": 3.07241, "timestamp": "2025-05-03T03:15:32.666508+00:00Z", "free_bikes": 3, "empty_slots": 23, "extra": {"status": "EN SERVICE", "uid": "vlille_temps_reel.48", "city": "Lille", "address": "Place Fernig", "last_update": "2025-05-03T05:15:08.387+00:00", "online": true, "payment-terminal": true}}, {"id": "8312f159d66f526827bd483f19f63768", "name": "F ROOSEVELT", "latitude": 50.727453, "longitude": 3.166828, "timestamp": "2025-05-03T03:15:32.667020+00:00Z", "free_bikes": 4, "empty_slots": 8, "extra": {"status": "EN SERVICE", "uid": "vlille_temps_reel.244", "city": "Tourcoing", "address": "14 Boulevard de l' Egalit\u00e9", "last_update": "2025-05-03T05:15:08.448+00:00", "online": true, "payment-terminal": true}}, {"id": "838da05201f0d94c2d2678e65a8c8be8", "name": "MAIRIE DE CROIX", "latitude": 50.679123, "longitude": 3.155906, "timestamp": "2025-05-03T03:15:32.666436+00:00Z", "free_bikes": 9, "empty_slots": 15, "extra": {"status": "EN SERVICE", "uid": "vlille_temps_reel.200", "city": "Croix", "address": "232 Rue Jean Jaur\u00e8s", "last_update": "2025-05-03T05:15:08.438+00:00", "online": true, "payment-terminal": true}}, {"id": "83db1ca064d53c788b5f850a55970b37", "name": "EURALILLE", "latitude": 50.637726, "longitude": 3.071892, "timestamp": "2025-05-03T03:15:32.666783+00:00Z", "free_bikes": 1, "empty_slots": 39, "extra": {"status": "EN SERVICE", "uid": "vlille_temps_reel.159", "city": "Lille", "address": "11 avenue Le Corbusier", "last_update": "2025-05-03T05:15:08.424+00:00", "online": true, "payment-terminal": true}}, {"id": "83de53f5dfd499235d12bb2be033a1b4", "name": "N.D. DE LA TREILLE", "latitude": 50.640385, "longitude": 3.062053, "timestamp": "2025-05-03T03:15:32.667204+00:00Z", "free_bikes": 18, "empty_slots": 12, "extra": {"status": "EN SERVICE", "uid": "vlille_temps_reel.20", "city": "Lille", "address": "11 place Gilleson", "last_update": "2025-05-03T05:15:08.363+00:00", "online": true, "payment-terminal": true}}, {"id": "84adf8222e406eaacd6c5b26dac75963", "name": "PISCINE DES 3 VILLES", "latitude": 50.670865, "longitude": 3.198875, "timestamp": "2025-05-03T03:15:32.667075+00:00Z", "free_bikes": 14, "empty_slots": 0, "extra": {"status": "EN SERVICE", "uid": "vlille_temps_reel.273", "city": "Roubaix", "address": "350 Rue du Docteur Schweitzer", "last_update": "2025-05-03T05:15:08.454+00:00", "online": true, "payment-terminal": true}}, {"id": "858258150319f66d7c5bb7906954fdbe", "name": "DE LA VIGNE", "latitude": 50.70076, "longitude": 3.18407, "timestamp": "2025-05-03T03:15:32.666475+00:00Z", "free_bikes": 9, "empty_slots": 2, "extra": {"status": "EN SERVICE", "uid": "vlille_temps_reel.230", "city": "Roubaix", "address": "181 Boulevard de Strasbourg", "last_update": "2025-05-03T05:15:08.445+00:00", "online": true, "payment-terminal": true}}, {"id": "8596a594733386be30fab7b64521ff30", "name": "RUE DE MENIN", "latitude": 50.728798, "longitude": 3.154051, "timestamp": "2025-05-03T03:15:32.667036+00:00Z", "free_bikes": 3, "empty_slots": 9, "extra": {"status": "EN SERVICE", "uid": "vlille_temps_reel.249", "city": "Tourcoing", "address": "41 Rue Jourdan", "last_update": "2025-05-03T05:15:08.449+00:00", "online": true, "payment-terminal": true}}, {"id": "85d40acedf5a2335af2c47b100281675", "name": "RUE D'ARRAS", "latitude": 50.62224, "longitude": 3.067004, "timestamp": "2025-05-03T03:15:32.667214+00:00Z", "free_bikes": 25, "empty_slots": 0, "extra": {"status": "EN SERVICE", "uid": "vlille_temps_reel.50", "city": "Lille", "address": "87 rue d'Arras", "last_update": "2025-05-03T05:15:08.388+00:00", "online": true, "payment-terminal": true}}, {"id": "86a2efb97d01403c09fefa375cdea219", "name": "TRANQUILLIT\u00c9", "latitude": 50.626107, "longitude": 3.046295, "timestamp": "2025-05-03T03:15:32.667280+00:00Z", "free_bikes": 11, "empty_slots": 9, "extra": {"status": "EN SERVICE", "uid": "vlille_temps_reel.167", "city": "Lille", "address": "406 Rue L\u00e9on Gambetta", "last_update": "2025-05-03T05:15:08.427+00:00", "online": true, "payment-terminal": true}}, {"id": "86d0f512c2e5eb62d40852282fb75716", "name": "ROUGET DE L ISLE", "latitude": 50.73418, "longitude": 3.1681724, "timestamp": "2025-05-03T03:15:32.667030+00:00Z", "free_bikes": 6, "empty_slots": 9, "extra": {"status": "EN SERVICE", "uid": "vlille_temps_reel.247", "city": "Tourcoing", "address": "245 Boulevard de l' Egalit\u00e9", "last_update": "2025-05-03T05:15:08.449+00:00", "online": true, "payment-terminal": true}}, {"id": "87e9491e1b5fbb3f1c309bb24a454ed4", "name": "V.ASCQ HOTEL DE VILLE", "latitude": 50.619602, "longitude": 3.13197, "timestamp": "2025-05-03T03:15:32.666688+00:00Z", "free_bikes": 5, "empty_slots": 20, "extra": {"status": "EN SERVICE", "uid": "vlille_temps_reel.131", "city": "Villeneuve d'Ascq", "address": "Place Van Gogh (sur le parking de l'H\u00f4tel de Ville)", "last_update": "2025-05-03T05:15:08.412+00:00", "online": true, "payment-terminal": true}}, {"id": "898d4cc80bfd4c010a22c4ccf1535d6f", "name": "ROGER SALENGRO", "latitude": 50.62903, "longitude": 3.10295, "timestamp": "2025-05-03T03:15:32.666890+00:00Z", "free_bikes": 9, "empty_slots": 3, "extra": {"status": "EN SERVICE", "uid": "vlille_temps_reel.86", "city": "Lille Hellemmes", "address": "58 rue Roger Salengro", "last_update": "2025-05-03T05:15:08.400+00:00", "online": true, "payment-terminal": true}}, {"id": "89ac05077ddd593b6c65633b5511e8ef", "name": "PETIT PARADIS", "latitude": 50.68245, "longitude": 3.05179, "timestamp": "2025-05-03T03:15:32.667150+00:00Z", "free_bikes": 8, "empty_slots": 4, "extra": {"status": "EN SERVICE", "uid": "vlille_temps_reel.315", "city": "Wambrechies", "address": "7 Avenue du Mar\u00e9chal Juin", "last_update": "2025-05-03T05:15:08.459+00:00", "online": true, "payment-terminal": true}}, {"id": "8a95a2515f6c9bf8df19743b99d3ff5f", "name": "MOLINEL", "latitude": 50.63457, "longitude": 3.068007, "timestamp": "2025-05-03T03:15:32.667102+00:00Z", "free_bikes": 0, "empty_slots": 22, "extra": {"status": "EN SERVICE", "uid": "vlille_temps_reel.26", "city": "Lille", "address": "54 rue du Molinel", "last_update": "2025-05-03T05:15:08.375+00:00", "online": true, "payment-terminal": true}}, {"id": "8b083cc7df1d981d8ff2b45a6064c5e1", "name": "CHARLES FOURIER", "latitude": 50.671609, "longitude": 3.183066, "timestamp": "2025-05-03T03:15:32.667072+00:00Z", "free_bikes": 9, "empty_slots": 3, "extra": {"status": "EN SERVICE", "uid": "vlille_temps_reel.272", "city": "Roubaix", "address": "261 avenue Gustave Delory", "last_update": "2025-05-03T05:15:08.454+00:00", "online": true, "payment-terminal": true}}, {"id": "8c9a9becd5d9351e0177cba52decf25a", "name": "NATIONALE RUE DU PORT", "latitude": 50.630836, "longitude": 3.047778, "timestamp": "2025-05-03T03:15:32.666746+00:00Z", "free_bikes": 2, "empty_slots": 22, "extra": {"status": "EN SERVICE", "uid": "vlille_temps_reel.68", "city": "Lille", "address": "254 Rue Nationale", "last_update": "2025-05-03T05:15:08.395+00:00", "online": true, "payment-terminal": true}}, {"id": "8cbe51464574c79fa29039ad6e90e9bc", "name": "RUE DE LILLE", "latitude": 50.62577, "longitude": 3.144714, "timestamp": "2025-05-03T03:15:32.666830+00:00Z", "free_bikes": 3, "empty_slots": 13, "extra": {"status": "EN SERVICE", "uid": "vlille_temps_reel.139", "city": "Villeneuve d'Ascq", "address": "145 rue de Lille", "last_update": "2025-05-03T05:15:08.419+00:00", "online": true, "payment-terminal": true}}, {"id": "8e2beac3af9f7b39a910d2d9ce55dc41", "name": "CORMONTAIGNE", "latitude": 50.62624, "longitude": 3.039911, "timestamp": "2025-05-03T03:15:32.666321+00:00Z", "free_bikes": 32, "empty_slots": 4, "extra": {"status": "EN SERVICE", "uid": "vlille_temps_reel.36", "city": "Lille", "address": "26 place Cormontaigne", "last_update": "2025-05-03T05:15:08.379+00:00", "online": true, "payment-terminal": true}}, {"id": "8f14dbf3c48d07819545b2cd5312994f", "name": "DELORY BARBIEUX", "latitude": 50.676665, "longitude": 3.167315, "timestamp": "2025-05-03T03:15:32.666946+00:00Z", "free_bikes": 1, "empty_slots": 19, "extra": {"status": "EN SERVICE", "uid": "vlille_temps_reel.269", "city": "Roubaix", "address": "14 Avenue Gustave Delory", "last_update": "2025-05-03T05:15:08.453+00:00", "online": true, "payment-terminal": true}}, {"id": "8f31accbf269446b99d9a57f241c075e", "name": "MONT DE TERRE", "latitude": 50.62286, "longitude": 3.0914, "timestamp": "2025-05-03T03:15:32.667306+00:00Z", "free_bikes": 14, "empty_slots": 4, "extra": {"status": "EN SERVICE", "uid": "vlille_temps_reel.77", "city": "Lille", "address": "5 rue Matt\u00e9otti", "last_update": "2025-05-03T05:15:08.398+00:00", "online": true, "payment-terminal": true}}, {"id": "8f6120a8daade4588130a4ee636fdd8a", "name": "GARE LILLE EUROPE", "latitude": 50.63999, "longitude": 3.075204, "timestamp": "2025-05-03T03:15:32.667322+00:00Z", "free_bikes": 1, "empty_slots": 31, "extra": {"status": "EN SERVICE", "uid": "vlille_temps_reel.82", "city": "Lille", "address": "309 boulevard de Leeds", "last_update": "2025-05-03T05:15:08.399+00:00", "online": true, "payment-terminal": true}}, {"id": "8f66fe2f50e21884bd8716def99a4b95", "name": "BECQUART", "latitude": 50.649644, "longitude": 3.03812, "timestamp": "2025-05-03T03:15:32.666383+00:00Z", "free_bikes": 8, "empty_slots": 4, "extra": {"status": "EN SERVICE", "uid": "vlille_temps_reel.182", "city": "Lambersart", "address": "75 Avenue Becquart", "last_update": "2025-05-03T05:15:08.431+00:00", "online": true, "payment-terminal": true}}, {"id": "90b690a6ebdb26913b0d426acaeeafef", "name": "FRATERNITE", "latitude": 50.681779, "longitude": 3.194129, "timestamp": "2025-05-03T03:15:32.666978+00:00Z", "free_bikes": 4, "empty_slots": 12, "extra": {"status": "EN SERVICE", "uid": "vlille_temps_reel.216", "city": "Roubaix", "address": "381 rue de Lannoy (sur la place de la Fraternit\u00e9)", "last_update": "2025-05-03T05:15:08.442+00:00", "online": true, "payment-terminal": true}}, {"id": "90e25a885c2f75f2b71f8fc83e3233c2", "name": "LA FILEUSE", "latitude": 50.615164, "longitude": 3.018471, "timestamp": "2025-05-03T03:15:32.666368+00:00Z", "free_bikes": 12, "empty_slots": 6, "extra": {"status": "EN SERVICE", "uid": "vlille_temps_reel.178", "city": "Loos", "address": "81 rue du Mar\u00e9chal Foch", "last_update": "2025-05-03T05:15:08.430+00:00", "online": true, "payment-terminal": true}}, {"id": "91d5483e422c5b04eb7873f54aad63a1", "name": "MENDES FRANCE", "latitude": 50.64584, "longitude": 3.112744, "timestamp": "2025-05-03T03:15:32.666638+00:00Z", "free_bikes": 3, "empty_slots": 15, "extra": {"status": "EN SERVICE", "uid": "vlille_temps_reel.104", "city": "Mons en Baroeul", "address": "22 boulevard Pierre Mend\u00e8s France", "last_update": "2025-05-03T05:15:08.406+00:00", "online": true, "payment-terminal": true}}, {"id": "9226112bd8e239b5b78455795165a63a", "name": "LADRIERE", "latitude": 50.631298, "longitude": 3.126914, "timestamp": "2025-05-03T03:15:32.666827+00:00Z", "free_bikes": 7, "empty_slots": 13, "extra": {"status": "EN SERVICE", "uid": "vlille_temps_reel.138", "city": "Villeneuve d'Ascq", "address": "53 Rue de Fives", "last_update": "2025-05-03T05:15:08.419+00:00", "online": true, "payment-terminal": true}}, {"id": "9288971a6fd090dd0bc6933cfd66dbf0", "name": "MAISON FOLIE WAZEMMES", "latitude": 50.624695, "longitude": 3.048961, "timestamp": "2025-05-03T03:15:32.667235+00:00Z", "free_bikes": 3, "empty_slots": 17, "extra": {"status": "EN SERVICE", "uid": "vlille_temps_reel.4", "city": "Lille", "address": "11 Rue de l'H\u00f4pital Saint-Roch", "last_update": "2025-05-03T05:15:08.359+00:00", "online": true, "payment-terminal": true}}, {"id": "93051bcb05162e8baae7124c1385f2b8", "name": "ROMARIN", "latitude": 50.64543, "longitude": 3.075116, "timestamp": "2025-05-03T03:15:32.666603+00:00Z", "free_bikes": 27, "empty_slots": 0, "extra": {"status": "EN SERVICE", "uid": "vlille_temps_reel.96", "city": "La Madeleine", "address": "92 Avenue de la R\u00e9publique", "last_update": "2025-05-03T05:15:08.402+00:00", "online": true, "payment-terminal": true}}, {"id": "9493b0274f7ec2a1d51c2d0795240898", "name": "PLACE CATINAT", "latitude": 50.63413, "longitude": 3.041209, "timestamp": "2025-05-03T03:15:32.666313+00:00Z", "free_bikes": 3, "empty_slots": 17, "extra": {"status": "EN SERVICE", "uid": "vlille_temps_reel.34", "city": "Lille", "address": "199 rue Colbert", "last_update": "2025-05-03T05:15:08.378+00:00", "online": true, "payment-terminal": true}}, {"id": "96342d19c5724daeea2cb2356b6960fc", "name": "MASSENA", "latitude": 50.63156, "longitude": 3.054738, "timestamp": "2025-05-03T03:15:32.667239+00:00Z", "free_bikes": 0, "empty_slots": 40, "extra": {"status": "EN SERVICE", "uid": "vlille_temps_reel.5", "city": "Lille", "address": "87 Rue Mass\u00e9na", "last_update": "2025-05-03T05:15:08.359+00:00", "online": true, "payment-terminal": true}}, {"id": "9644a821e043b5bdc5eaf858db42a281", "name": "4 VENTS", "latitude": 50.612389, "longitude": 3.122953, "timestamp": "2025-05-03T03:15:32.667328+00:00Z", "free_bikes": 4, "empty_slots": 16, "extra": {"status": "EN SERVICE", "uid": "vlille_temps_reel.307", "city": "Lezennes", "address": "Rue Chanzy (rond-point 4 Vents)", "last_update": "2025-05-03T05:15:08.457+00:00", "online": true, "payment-terminal": true}}, {"id": "9715f629b879eae29caaf71004d68a29", "name": "GAMBETTA UTRECHT", "latitude": 50.629063, "longitude": 3.053711, "timestamp": "2025-05-03T03:15:32.666340+00:00Z", "free_bikes": 0, "empty_slots": 18, "extra": {"status": "EN SERVICE", "uid": "vlille_temps_reel.44", "city": "Lille", "address": "203 Rue L\u00e9on Gambetta", "last_update": "2025-05-03T05:15:08.386+00:00", "online": true, "payment-terminal": true}}, {"id": "9799d4ca93e700fa5b66555e2c8935b5", "name": "DE FOURMIES", "latitude": 50.67544, "longitude": 3.181998, "timestamp": "2025-05-03T03:15:32.666959+00:00Z", "free_bikes": 8, "empty_slots": 4, "extra": {"status": "EN SERVICE", "uid": "vlille_temps_reel.208", "city": "Roubaix", "address": "107 boulevard de Fourmies", "last_update": "2025-05-03T05:15:08.441+00:00", "online": true, "payment-terminal": true}}, {"id": "985017a848a9cfee7056ea2df2c60364", "name": "CHAPTAL", "latitude": 50.694714, "longitude": 3.192643, "timestamp": "2025-05-03T03:15:32.666486+00:00Z", "free_bikes": 11, "empty_slots": 1, "extra": {"status": "EN SERVICE", "uid": "vlille_temps_reel.236", "city": "Roubaix", "address": "234 Grande Rue", "last_update": "2025-05-03T05:15:08.446+00:00", "online": true, "payment-terminal": true}}, {"id": "9986e20c2e3c51652d00880f375a3db7", "name": "COLBERT", "latitude": 50.72551, "longitude": 3.156554, "timestamp": "2025-05-03T03:15:32.666490+00:00Z", "free_bikes": 12, "empty_slots": 6, "extra": {"status": "EN SERVICE", "uid": "vlille_temps_reel.251", "city": "Tourcoing", "address": "5 Rue de Gand", "last_update": "2025-05-03T05:15:08.449+00:00", "online": true, "payment-terminal": true}}, {"id": "99e52b068ce65df9dc32005be06e05f4", "name": "SAINT JEAN-BAPTISTE", "latitude": 50.679472, "longitude": 3.179333, "timestamp": "2025-05-03T03:15:32.666975+00:00Z", "free_bikes": 6, "empty_slots": 6, "extra": {"status": "EN SERVICE", "uid": "vlille_temps_reel.214", "city": "Roubaix", "address": "1 rue Lesueur", "last_update": "2025-05-03T05:15:08.442+00:00", "online": true, "payment-terminal": true}}, {"id": "9a60ea377edb0b0bdb136d6c784cfbb9", "name": "SQUARE DU PORTUGAL", "latitude": 50.623466, "longitude": 3.030667, "timestamp": "2025-05-03T03:15:32.666524+00:00Z", "free_bikes": 0, "empty_slots": 0, "extra": {"status": "R\u00c9FORM\u00c9", "uid": "vlille_temps_reel.109", "city": "LILLE", "address": "FACE AU 204 RUE DE LA BASSEE", "last_update": "2022-11-29T10:47:16.184+00:00", "online": false, "payment-terminal": true}}, {"id": "9dbcff1e4629e0d5c650ab00fbe1ca6f", "name": "RUE DE TOUL", "latitude": 50.63393, "longitude": 3.044986, "timestamp": "2025-05-03T03:15:32.667252+00:00Z", "free_bikes": 4, "empty_slots": 32, "extra": {"status": "EN SERVICE", "uid": "vlille_temps_reel.9", "city": "Lille", "address": "18 rue de Toul", "last_update": "2025-05-03T05:15:08.360+00:00", "online": true, "payment-terminal": true}}, {"id": "a005717f22e4d51a9932816910437b7a", "name": "AUBERGE DE JEUNESSE", "latitude": 50.62479, "longitude": 3.080467, "timestamp": "2025-05-03T03:15:32.666811+00:00Z", "free_bikes": 2, "empty_slots": 4, "extra": {"status": "EN SERVICE", "uid": "vlille_temps_reel.171", "city": "Lille", "address": "235 Boulevard Paul Painlev\u00e9", "last_update": "2025-05-03T05:15:08.428+00:00", "online": true, "payment-terminal": true}}, {"id": "a0e99c988fa02639674f5087770a4439", "name": "RUE DES POUTRAINS", "latitude": 50.72263, "longitude": 3.150377, "timestamp": "2025-05-03T03:15:32.667042+00:00Z", "free_bikes": 8, "empty_slots": 8, "extra": {"status": "EN SERVICE", "uid": "vlille_temps_reel.252", "city": "Tourcoing", "address": "105 Rue de Lille", "last_update": "2025-05-03T05:15:08.450+00:00", "online": true, "payment-terminal": true}}, {"id": "a3e113ac1597666950ca101adeadc52f", "name": "CONCORDE", "latitude": 50.638123, "longitude": 3.112704, "timestamp": "2025-05-03T03:15:32.666521+00:00Z", "free_bikes": 0, "empty_slots": 0, "extra": {"status": "R\u00c9FORM\u00c9", "uid": "vlille_temps_reel.106", "city": "MONS EN BAROEUL", "address": "27 BOULEVARD ALPHONSE GAYET", "last_update": "2022-11-29T10:47:16.183+00:00", "online": false, "payment-terminal": true}}, {"id": "a58eecfade13fca4918d6d1c03b0175a", "name": "LOMME-LAMBERSART", "latitude": 50.640957, "longitude": 3.018803, "timestamp": "2025-05-03T03:15:32.666663+00:00Z", "free_bikes": 8, "empty_slots": 10, "extra": {"status": "EN SERVICE", "uid": "vlille_temps_reel.119", "city": "Lambersart", "address": "388 Avenue de Dunkerque", "last_update": "2025-05-03T05:15:08.410+00:00", "online": true, "payment-terminal": true}}, {"id": "a5f389de9e288cab04f82bb07e3f1f8e", "name": "CITE ADMINISTRATIVE", "latitude": 50.63424, "longitude": 3.073991, "timestamp": "2025-05-03T03:15:32.666754+00:00Z", "free_bikes": 3, "empty_slots": 13, "extra": {"status": "EN SERVICE", "uid": "vlille_temps_reel.70", "city": "Lille", "address": "51 rue de Tournai", "last_update": "2025-05-03T05:15:08.395+00:00", "online": true, "payment-terminal": true}}, {"id": "a6754666f7f6132a86ce386d416f65fa", "name": "DE GAULLE", "latitude": 50.651497, "longitude": 3.072316, "timestamp": "2025-05-03T03:15:32.667273+00:00Z", "free_bikes": 12, "empty_slots": 6, "extra": {"status": "EN SERVICE", "uid": "vlille_temps_reel.115", "city": "La Madeleine", "address": "85 rue du G\u00e9n\u00e9ral de Gaulle", "last_update": "2025-05-03T05:15:08.409+00:00", "online": true, "payment-terminal": true}}, {"id": "a6772c9cd105cdecdba6867f7a479d43", "name": "BOIS BLANCS", "latitude": 50.634045, "longitude": 3.030778, "timestamp": "2025-05-03T03:15:32.666757+00:00Z", "free_bikes": 14, "empty_slots": 8, "extra": {"status": "EN SERVICE", "uid": "vlille_temps_reel.71", "city": "Lille", "address": "124 Avenue de Dunkerque", "last_update": "2025-05-03T05:15:08.396+00:00", "online": true, "payment-terminal": true}}, {"id": "a6d8f19f381f449646027e99058503cf", "name": "PLACE PHILIPPE LEBON", "latitude": 50.62789, "longitude": 3.06209, "timestamp": "2025-05-03T03:15:32.666493+00:00Z", "free_bikes": 0, "empty_slots": 18, "extra": {"status": "IN_MAINTENANCE", "uid": "vlille_temps_reel.42", "city": "Lille", "address": "13 place Phillippe Lebon", "last_update": "2025-05-03T05:15:08.385+00:00", "online": false, "payment-terminal": true}}, {"id": "a763f1cb549776d593c39f8357a3f085", "name": "EURATECHNOLOGIES", "latitude": 50.63378, "longitude": 3.02059, "timestamp": "2025-05-03T03:15:32.666880+00:00Z", "free_bikes": 14, "empty_slots": 10, "extra": {"status": "EN SERVICE", "uid": "vlille_temps_reel.83", "city": "Lille", "address": "175 avenue de Bretagne", "last_update": "2025-05-03T05:15:08.400+00:00", "online": true, "payment-terminal": true}}, {"id": "a7f085b2ef68efb5ce841d7cd2c3393a", "name": "VICTOIRE", "latitude": 50.718204, "longitude": 3.15749, "timestamp": "2025-05-03T03:15:32.667017+00:00Z", "free_bikes": 0, "empty_slots": 12, "extra": {"status": "EN SERVICE", "uid": "vlille_temps_reel.243", "city": "Tourcoing", "address": "1 Place de la Victoire", "last_update": "2025-05-03T05:15:08.448+00:00", "online": true, "payment-terminal": true}}, {"id": "a8182f62d27851914806e520111d7ce6", "name": "R\u00c9SISTANCE", "latitude": 50.60709, "longitude": 3.06558, "timestamp": "2025-05-03T03:15:32.667221+00:00Z", "free_bikes": 8, "empty_slots": 12, "extra": {"status": "EN SERVICE", "uid": "vlille_temps_reel.303", "city": "Faches Thumesnil", "address": "38 rue Carnot", "last_update": "2025-05-03T05:15:08.456+00:00", "online": true, "payment-terminal": true}}, {"id": "a86be22f3a9097d6e1e8239146e69cf8", "name": "LACORDAIRE", "latitude": 50.639828, "longitude": 3.106677, "timestamp": "2025-05-03T03:15:32.666634+00:00Z", "free_bikes": 3, "empty_slots": 13, "extra": {"status": "EN SERVICE", "uid": "vlille_temps_reel.103", "city": "Mons en Bar\u0153ul", "address": "20 Rue Lacordaire", "last_update": "2025-05-03T05:15:08.404+00:00", "online": true, "payment-terminal": true}}, {"id": "aaf31355dfa9e1bb9ec2da97abc32343", "name": "RUE DE LA GAITE", "latitude": 50.63665, "longitude": 3.091106, "timestamp": "2025-05-03T03:15:32.666621+00:00Z", "free_bikes": 0, "empty_slots": 0, "extra": {"status": "R\u00c9FORM\u00c9", "uid": "vlille_temps_reel.92", "city": "LILLE", "address": "9 RUE MARCEAU", "last_update": "2022-11-29T10:47:16.207+00:00", "online": false, "payment-terminal": true}}, {"id": "ab510410b72fc67a120787a82edb9631", "name": "RUE LOUISE MICHEL", "latitude": 50.633842, "longitude": 3.127335, "timestamp": "2025-05-03T03:15:32.666541+00:00Z", "free_bikes": 0, "empty_slots": 1, "extra": {"status": "R\u00c9FORM\u00c9", "uid": "vlille_temps_reel.128", "city": "VILLENEUVE D'ASCQ", "address": "93 RUE LOUISE MICHEL", "last_update": "2022-11-29T10:47:16.185+00:00", "online": false, "payment-terminal": true}}, {"id": "ac675c7a0826d9fe08eb8e4368cd1629", "name": "PLACE DU CONCERT", "latitude": 50.64193, "longitude": 3.061774, "timestamp": "2025-05-03T03:15:32.667208+00:00Z", "free_bikes": 8, "empty_slots": 12, "extra": {"status": "EN SERVICE", "uid": "vlille_temps_reel.21", "city": "Lille", "address": "2 rue Alphonse Colas", "last_update": "2025-05-03T05:15:08.364+00:00", "online": true, "payment-terminal": true}}, {"id": "ad8fb189bfc796bccb63d171a0207a42", "name": "RUE DES ARTS", "latitude": 50.639107, "longitude": 3.065767, "timestamp": "2025-05-03T03:15:32.667059+00:00Z", "free_bikes": 6, "empty_slots": 12, "extra": {"status": "EN SERVICE", "uid": "vlille_temps_reel.23", "city": "Lille", "address": "55 rue des Arts", "last_update": "2025-05-03T05:15:08.364+00:00", "online": true, "payment-terminal": true}}, {"id": "adb3b713477552e05fe61a1a925eb4df", "name": "BELFORT", "latitude": 50.622223, "longitude": 3.077127, "timestamp": "2025-05-03T03:15:32.666611+00:00Z", "free_bikes": 0, "empty_slots": 1, "extra": {"status": "R\u00c9FORM\u00c9", "uid": "vlille_temps_reel.59", "city": "LILLE", "address": "84 RUE DE TREVISE", "last_update": "2022-11-29T10:47:16.205+00:00", "online": false, "payment-terminal": true}}, {"id": "ae56c963e86bcc5433a10f7980f959d6", "name": "USINE", "latitude": 50.674995, "longitude": 3.195737, "timestamp": "2025-05-03T03:15:32.666962+00:00Z", "free_bikes": 17, "empty_slots": 3, "extra": {"status": "EN SERVICE", "uid": "vlille_temps_reel.209", "city": "Roubaix", "address": "218 avenue Alfred Motte", "last_update": "2025-05-03T05:15:08.441+00:00", "online": true, "payment-terminal": true}}, {"id": "ae91e4d950fb9df0c998c5af08942cdd", "name": "TOURCOING GARE", "latitude": 50.716907, "longitude": 3.167436, "timestamp": "2025-05-03T03:15:32.667014+00:00Z", "free_bikes": 4, "empty_slots": 14, "extra": {"status": "EN SERVICE", "uid": "vlille_temps_reel.242", "city": "Tourcoing", "address": "11 Place Pierre Semard", "last_update": "2025-05-03T05:15:08.447+00:00", "online": true, "payment-terminal": true}}, {"id": "b023274a8556beaaf4ffd64efa993ccf", "name": "CHATELLENIE", "latitude": 50.635929, "longitude": 3.135558, "timestamp": "2025-05-03T03:15:32.667131+00:00Z", "free_bikes": 7, "empty_slots": 13, "extra": {"status": "EN SERVICE", "uid": "vlille_temps_reel.306", "city": "Villeneuve d'Ascq", "address": "Avenue de la Ch\u00e2tellenie", "last_update": "2025-05-03T05:15:08.457+00:00", "online": true, "payment-terminal": true}}, {"id": "b14fcb3d415a99898dec08e6c977144f", "name": "HELLU - \u00c9PINE", "latitude": 50.61946, "longitude": 3.09978, "timestamp": "2025-05-03T03:15:32.667160+00:00Z", "free_bikes": 0, "empty_slots": 14, "extra": {"status": "HORS SERVICE", "uid": "vlille_temps_reel.318", "city": "Hellemmes", "address": "Rue Paul Kimpe", "last_update": "2025-05-03T05:15:08.459+00:00", "online": false, "payment-terminal": true}}, {"id": "b22e1f1039be0767d9f25d0f33bbc422", "name": "SEBASTOPOL", "latitude": 50.71732, "longitude": 3.162455, "timestamp": "2025-05-03T03:15:32.667049+00:00Z", "free_bikes": 4, "empty_slots": 14, "extra": {"status": "EN SERVICE", "uid": "vlille_temps_reel.254", "city": "Tourcoing", "address": "Face au 11 place S\u00e9bastopol", "last_update": "2025-05-03T05:15:08.450+00:00", "online": true, "payment-terminal": true}}, {"id": "b243983407ca184fbd3581b645c122aa", "name": "CHU - EURASANT\u00c9", "latitude": 50.607664, "longitude": 3.038892, "timestamp": "2025-05-03T03:15:32.666851+00:00Z", "free_bikes": 3, "empty_slots": 25, "extra": {"status": "EN SERVICE", "uid": "vlille_temps_reel.174", "city": "Lille", "address": "11 boulevard Eug\u00e8ne Duthoit", "last_update": "2025-05-03T05:15:08.429+00:00", "online": true, "payment-terminal": true}}, {"id": "b249411142c85dc27166c52169900bcc", "name": "PORTE DES POSTES", "latitude": 50.61856, "longitude": 3.049251, "timestamp": "2025-05-03T03:15:32.666699+00:00Z", "free_bikes": 1, "empty_slots": 37, "extra": {"status": "EN SERVICE", "uid": "vlille_temps_reel.53", "city": "Lille", "address": "1 place Barth\u00e9l\u00e9my Dorez", "last_update": "2025-05-03T05:15:08.389+00:00", "online": true, "payment-terminal": true}}, {"id": "b355acb626c0bf419fe57d1c4f1fbbb9", "name": "ARTOIS", "latitude": 50.62629, "longitude": 3.061198, "timestamp": "2025-05-03T03:15:32.666429+00:00Z", "free_bikes": 6, "empty_slots": 12, "extra": {"status": "EN SERVICE", "uid": "vlille_temps_reel.46", "city": "Lille", "address": "4 bis rue d'Artois", "last_update": "2025-05-03T05:15:08.387+00:00", "online": true, "payment-terminal": true}}, {"id": "b4bec32dc1cdf5fc3d51b4ff238c7e9c", "name": "HOPITAL MILITAIRE", "latitude": 50.63393, "longitude": 3.061687, "timestamp": "2025-05-03T03:15:32.666793+00:00Z", "free_bikes": 0, "empty_slots": 16, "extra": {"status": "EN SERVICE", "uid": "vlille_temps_reel.164", "city": "Lille", "address": "36 Rue de l'H\u00f4pital Militaire", "last_update": "2025-05-03T05:15:08.426+00:00", "online": true, "payment-terminal": true}}, {"id": "b61208afb519d27a86580393e1cf2402", "name": "MONS SARTS", "latitude": 50.6423, "longitude": 3.099291, "timestamp": "2025-05-03T03:15:32.666628+00:00Z", "free_bikes": 9, "empty_slots": 15, "extra": {"status": "EN SERVICE", "uid": "vlille_temps_reel.101", "city": "Mons en Bar\u0153ul", "address": "61 Avenue \u00c9mile Zola", "last_update": "2025-05-03T05:15:08.404+00:00", "online": true, "payment-terminal": true}}, {"id": "b7e2abe1d27d9fde21fa77d0ca698901", "name": "SAINTE H\u00c9L\u00c8NE", "latitude": 50.65722, "longitude": 3.056147, "timestamp": "2025-05-03T03:15:32.667312+00:00Z", "free_bikes": 11, "empty_slots": 1, "extra": {"status": "EN SERVICE", "uid": "vlille_temps_reel.185", "city": "Saint Andr\u00e8 Lez Lille", "address": "48 rue Sainte-H\u00e9l\u00e8ne", "last_update": "2025-05-03T05:15:08.432+00:00", "online": true, "payment-terminal": true}}, {"id": "b7eb760cfad16b032d659af9f6198cf1", "name": "FORT DE MONS", "latitude": 50.643883, "longitude": 3.118579, "timestamp": "2025-05-03T03:15:32.666681+00:00Z", "free_bikes": 7, "empty_slots": 13, "extra": {"status": "EN SERVICE", "uid": "vlille_temps_reel.125", "city": "Mons en Bar\u0153ul", "address": "11 Rue de Normandie", "last_update": "2025-05-03T05:15:08.411+00:00", "online": true, "payment-terminal": true}}, {"id": "b8993b0380ca72393e2ec2cd0dfbac2a", "name": "RIVES DE LA HAUTE DEULE", "latitude": 50.630596, "longitude": 3.023001, "timestamp": "2025-05-03T03:15:32.667283+00:00Z", "free_bikes": 14, "empty_slots": 0, "extra": {"status": "EN SERVICE", "uid": "vlille_temps_reel.168", "city": "Lille", "address": "248 Rue du Pont \u00e0 Fourchon", "last_update": "2025-05-03T05:15:08.427+00:00", "online": true, "payment-terminal": true}}, {"id": "ba70c9127110781fb687917c3d5dde49", "name": "BRULE MAISON", "latitude": 50.62633, "longitude": 3.05659, "timestamp": "2025-05-03T03:15:32.666501+00:00Z", "free_bikes": 1, "empty_slots": 17, "extra": {"status": "EN SERVICE", "uid": "vlille_temps_reel.45", "city": "Lille", "address": "61 Rue des Postes", "last_update": "2025-05-03T05:15:08.387+00:00", "online": true, "payment-terminal": true}}, {"id": "bb31fd5ac2109a6640f5bb97940651de", "name": "JEAN MOULIN", "latitude": 50.684757, "longitude": 3.171974, "timestamp": "2025-05-03T03:15:32.666447+00:00Z", "free_bikes": 0, "empty_slots": 15, "extra": {"status": "EN SERVICE", "uid": "vlille_temps_reel.204", "city": "Roubaix", "address": "51 boulevard du G\u00e9n\u00e9ral de Gaulle", "last_update": "2025-05-03T05:15:08.439+00:00", "online": true, "payment-terminal": true}}, {"id": "bb6aedf44d3d76e4f159a868039cc0e8", "name": "CALMETTE", "latitude": 50.667847, "longitude": 3.192974, "timestamp": "2025-05-03T03:15:32.667079+00:00Z", "free_bikes": 8, "empty_slots": 0, "extra": {"status": "EN SERVICE", "uid": "vlille_temps_reel.274", "city": "Hem", "address": "323 avenue La\u00ebnnec", "last_update": "2025-05-03T05:15:08.455+00:00", "online": true, "payment-terminal": true}}, {"id": "bbb0ac8b8b8b07183c037339deed6ebb", "name": "RESIDENCE", "latitude": 50.61992, "longitude": 3.14528, "timestamp": "2025-05-03T03:15:32.666555+00:00Z", "free_bikes": 0, "empty_slots": 1, "extra": {"status": "R\u00c9FORM\u00c9", "uid": "vlille_temps_reel.145", "city": "VILLENEUVE D'ASCQ", "address": "PLACE N. DAME DE LA NATIVIT\u00c9", "last_update": "2022-11-29T10:47:16.187+00:00", "online": false, "payment-terminal": true}}, {"id": "bd79395d7237278699eed97d9b2c639b", "name": "NOUVEAU SIECLE", "latitude": 50.63734, "longitude": 3.060977, "timestamp": "2025-05-03T03:15:32.667181+00:00Z", "free_bikes": 1, "empty_slots": 31, "extra": {"status": "EN SERVICE", "uid": "vlille_temps_reel.11", "city": "Lille", "address": "16 rue de Pas", "last_update": "2025-05-03T05:15:08.361+00:00", "online": true, "payment-terminal": true}}, {"id": "bdc7f485b1ee474961720c163e9d4665", "name": "LA MAILLERIE", "latitude": 50.669719, "longitude": 3.143504, "timestamp": "2025-05-03T03:15:32.667128+00:00Z", "free_bikes": 18, "empty_slots": 2, "extra": {"status": "EN SERVICE", "uid": "vlille_temps_reel.305", "city": "Villeneuve d'Ascq", "address": "228 Rue Jean Jaures", "last_update": "2025-05-03T05:15:08.456+00:00", "online": true, "payment-terminal": true}}, {"id": "be50a33ad134677bf731fa468d22acf2", "name": "METROPOLE EUROPEENNE DE LILLE", "latitude": 50.641926, "longitude": 3.075992, "timestamp": "2025-05-03T03:15:32.666514+00:00Z", "free_bikes": 0, "empty_slots": 0, "extra": {"status": "R\u00c9FORM\u00c9", "uid": "vlille_temps_reel.1", "city": "LILLE", "address": "MEL RUE DU BALLON", "last_update": "2022-11-29T10:47:16.181+00:00", "online": false, "payment-terminal": true}}, {"id": "bef48a129706795f5c7956c58f828d86", "name": "JULES GUESDE", "latitude": 50.632393, "longitude": 3.110669, "timestamp": "2025-05-03T03:15:32.666614+00:00Z", "free_bikes": 0, "empty_slots": 0, "extra": {"status": "R\u00c9FORM\u00c9", "uid": "vlille_temps_reel.87", "city": "LILLE HELLEMMES", "address": "RUE ST ELOI", "last_update": "2022-11-29T10:47:16.207+00:00", "online": false, "payment-terminal": true}}, {"id": "bf5f32c78fa92ceae58f4c5c4714b796", "name": "THEATRE SEBASTOPOL", "latitude": 50.629044, "longitude": 3.058288, "timestamp": "2025-05-03T03:15:32.666497+00:00Z", "free_bikes": 0, "empty_slots": 32, "extra": {"status": "EN SERVICE", "uid": "vlille_temps_reel.43", "city": "Lille", "address": "Place S\u00e9bastopol", "last_update": "2025-05-03T05:15:08.385+00:00", "online": true, "payment-terminal": true}}, {"id": "c11e3175d3d818d446027f4ff77b55c3", "name": "STATION MOBILE 3", "latitude": 50.616138, "longitude": 3.087023, "timestamp": "2025-05-03T03:15:32.667175+00:00Z", "free_bikes": 0, "empty_slots": 20, "extra": {"status": "HORS SERVICE", "uid": "vlille_temps_reel.998", "city": "Lille", "address": "4 Rue du Professeur Langevin", "last_update": "2025-05-03T05:15:08.461+00:00", "online": false, "payment-terminal": true}}, {"id": "c1bf8a608c554ba20492c89978953439", "name": "LE POLYEDRE", "latitude": 50.64057, "longitude": 3.115571, "timestamp": "2025-05-03T03:15:32.666534+00:00Z", "free_bikes": 0, "empty_slots": 3, "extra": {"status": "R\u00c9FORM\u00c9", "uid": "vlille_temps_reel.126", "city": "MONS EN BAROEUL", "address": "FACE AU 38, AVENUE RHIN ET DANUBE", "last_update": "2022-11-29T10:47:16.185+00:00", "online": false, "payment-terminal": true}}, {"id": "c27822bdfee296534ef1105feed772d6", "name": "ST ANDRE MAIRIE", "latitude": 50.661602, "longitude": 3.050322, "timestamp": "2025-05-03T03:15:32.666360+00:00Z", "free_bikes": 10, "empty_slots": 14, "extra": {"status": "EN SERVICE", "uid": "vlille_temps_reel.156", "city": "Saint Andr\u00e9 Lez Lille", "address": "91 rue du G\u00e9n\u00e9ral Leclerc", "last_update": "2025-05-03T05:15:08.423+00:00", "online": true, "payment-terminal": true}}, {"id": "c34c07922a0f6f7616c6916d9b1030b3", "name": "ST SEBASTIEN", "latitude": 50.647236, "longitude": 3.059376, "timestamp": "2025-05-03T03:15:32.667111+00:00Z", "free_bikes": 13, "empty_slots": 15, "extra": {"status": "EN SERVICE", "uid": "vlille_temps_reel.29", "city": "Lille", "address": "52 rue Saint-S\u00e9bastien", "last_update": "2025-05-03T05:15:08.376+00:00", "online": true, "payment-terminal": true}}, {"id": "c58daefddd7ed6fd804ac34f0d649b09", "name": "MAGASIN", "latitude": 50.646225, "longitude": 3.053499, "timestamp": "2025-05-03T03:15:32.667191+00:00Z", "free_bikes": 12, "empty_slots": 4, "extra": {"status": "EN SERVICE", "uid": "vlille_temps_reel.16", "city": "Lille", "address": "4 place Saint-Andr\u00e9", "last_update": "2025-05-03T05:15:08.362+00:00", "online": true, "payment-terminal": true}}, {"id": "c6b05f9314d9578e4f92eb43bc68060c", "name": "RUE NATIONALE", "latitude": 50.635082, "longitude": 3.058015, "timestamp": "2025-05-03T03:15:32.666344+00:00Z", "free_bikes": 0, "empty_slots": 30, "extra": {"status": "EN SERVICE", "uid": "vlille_temps_reel.88", "city": "Lille", "address": "89 rue Nationale", "last_update": "2025-05-03T05:15:08.401+00:00", "online": true, "payment-terminal": true}}, {"id": "c70536a6f8662a8621bc8aa3bd612249", "name": "BARTHELEMY DELESPAUL", "latitude": 50.62418, "longitude": 3.058902, "timestamp": "2025-05-03T03:15:32.666713+00:00Z", "free_bikes": 13, "empty_slots": 5, "extra": {"status": "EN SERVICE", "uid": "vlille_temps_reel.57", "city": "Lille", "address": "52 Rue Barth\u00e9lemy Delespaul", "last_update": "2025-05-03T05:15:08.391+00:00", "online": true, "payment-terminal": true}}, {"id": "c708b7e09bb23956139549325175d664", "name": "GEORGES POTI\u00c9", "latitude": 50.612899, "longitude": 3.003575, "timestamp": "2025-05-03T03:15:32.666432+00:00Z", "free_bikes": 8, "empty_slots": 12, "extra": {"status": "EN SERVICE", "uid": "vlille_temps_reel.199", "city": "Loos", "address": "55 rue Georges Poti\u00e9", "last_update": "2025-05-03T05:15:08.438+00:00", "online": true, "payment-terminal": true}}, {"id": "c91907a25e608f0c3bf60919ccd46e0d", "name": "PLACE DE LA GARONNE", "latitude": 50.612635, "longitude": 3.059261, "timestamp": "2025-05-03T03:15:32.666814+00:00Z", "free_bikes": 6, "empty_slots": 6, "extra": {"status": "EN SERVICE", "uid": "vlille_temps_reel.172", "city": "Lille", "address": "110 Rue de l'Ancolie", "last_update": "2025-05-03T05:15:08.428+00:00", "online": true, "payment-terminal": true}}, {"id": "ccdf0e8b02464cddfa24ad550d737733", "name": "VERDUN", "latitude": 50.638126, "longitude": 3.10231, "timestamp": "2025-05-03T03:15:32.666517+00:00Z", "free_bikes": 0, "empty_slots": 0, "extra": {"status": "R\u00c9FORM\u00c9", "uid": "vlille_temps_reel.105", "city": "MONS EN BAROEUL", "address": "69 AVENUE DE VERDUN", "last_update": "2022-11-29T10:47:16.183+00:00", "online": false, "payment-terminal": true}}, {"id": "cf1b8782c3bbeced572800b8ea256e0d", "name": "REPUBLIQUE BEAUX ARTS", "latitude": 50.630943, "longitude": 3.060299, "timestamp": "2025-05-03T03:15:32.667242+00:00Z", "free_bikes": 0, "empty_slots": 32, "extra": {"status": "EN SERVICE", "uid": "vlille_temps_reel.6", "city": "Lille", "address": "4 Rue d'Inkermann", "last_update": "2025-05-03T05:15:08.359+00:00", "online": true, "payment-terminal": true}}, {"id": "cf69e1488b1f936c268308c0ad59bec0", "name": "GANTOIS", "latitude": 50.62195, "longitude": 3.06038, "timestamp": "2025-05-03T03:15:32.666807+00:00Z", "free_bikes": 12, "empty_slots": 0, "extra": {"status": "EN SERVICE", "uid": "vlille_temps_reel.170", "city": "Lille", "address": "118 Boulevard Victor Hugo", "last_update": "2025-05-03T05:15:08.428+00:00", "online": true, "payment-terminal": true}}, {"id": "d01fe0d92d4fb3cc1dfec61ba659cc15", "name": "GUINGUETTE", "latitude": 50.63529, "longitude": 3.115088, "timestamp": "2025-05-03T03:15:32.666878+00:00Z", "free_bikes": 6, "empty_slots": 4, "extra": {"status": "EN SERVICE", "uid": "vlille_temps_reel.81", "city": "Lille Hellemmes", "address": "208 rue Corneille", "last_update": "2025-05-03T05:15:08.399+00:00", "online": true, "payment-terminal": true}}, {"id": "d14330613033641f30a83bac4b9e7319", "name": "FERME D'EN HAUT", "latitude": 50.638838, "longitude": 3.1317727, "timestamp": "2025-05-03T03:15:32.666405+00:00Z", "free_bikes": 9, "empty_slots": 9, "extra": {"status": "EN SERVICE", "uid": "vlille_temps_reel.191", "city": "Villeneuve d'Ascq", "address": "100 Avenue Champollion", "last_update": "2025-05-03T05:15:08.433+00:00", "online": true, "payment-terminal": true}}, {"id": "d23ded8cf7f2226211f407adeae77c2f", "name": "STATION TEST", "latitude": 50.616626, "longitude": 3.086507, "timestamp": "2025-05-03T03:15:32.667178+00:00Z", "free_bikes": 0, "empty_slots": 2, "extra": {"status": "HORS SERVICE", "uid": "vlille_temps_reel.999", "city": "Lille", "address": "4 Rue du Professeur Langevin", "last_update": "2025-05-03T05:15:08.461+00:00", "online": false, "payment-terminal": true}}, {"id": "d3f9300257e5b49b3318f0b0eaad69fd", "name": "JEAN JAURES", "latitude": 50.609592, "longitude": 3.075483, "timestamp": "2025-05-03T03:15:32.666910+00:00Z", "free_bikes": 17, "empty_slots": 0, "extra": {"status": "EN SERVICE", "uid": "vlille_temps_reel.149", "city": "Ronchin", "address": "778 avenue Jean Jaur\u00e8s", "last_update": "2025-05-03T05:15:08.421+00:00", "online": true, "payment-terminal": true}}, {"id": "d40d580cdbf08e33a4039aaae45a38b7", "name": "DANIELLE LESAFFRE", "latitude": 50.682053, "longitude": 3.182205, "timestamp": "2025-05-03T03:15:32.666969+00:00Z", "free_bikes": 8, "empty_slots": 2, "extra": {"status": "EN SERVICE", "uid": "vlille_temps_reel.212", "city": "Roubaix", "address": "42 rue Dupuy de L\u00f4me", "last_update": "2025-05-03T05:15:08.442+00:00", "online": true, "payment-terminal": true}}, {"id": "d465d8a92d1c4f5405930192cd21e9f3", "name": "CHARLES WATTINNE", "latitude": 50.71473, "longitude": 3.157369, "timestamp": "2025-05-03T03:15:32.667287+00:00Z", "free_bikes": 10, "empty_slots": 6, "extra": {"status": "EN SERVICE", "uid": "vlille_temps_reel.257", "city": "Tourcoing", "address": "86 Rue Charles Wattinne", "last_update": "2025-05-03T05:15:08.451+00:00", "online": true, "payment-terminal": true}}, {"id": "d5126af79431881a0a11b175a43038fe", "name": "CONDITION PUBLIQUE", "latitude": 50.691007, "longitude": 3.190299, "timestamp": "2025-05-03T03:15:32.666450+00:00Z", "free_bikes": 14, "empty_slots": 3, "extra": {"status": "EN SERVICE", "uid": "vlille_temps_reel.205", "city": "Roubaix", "address": "17 Boulevard de Beaurepaire", "last_update": "2025-05-03T05:15:08.440+00:00", "online": true, "payment-terminal": true}}, {"id": "d5f37b972cf75af6a0691ee59e580762", "name": "HERON PARC", "latitude": 50.615868, "longitude": 3.126089, "timestamp": "2025-05-03T03:15:32.666824+00:00Z", "free_bikes": 0, "empty_slots": 30, "extra": {"status": "EN SERVICE", "uid": "vlille_temps_reel.137", "city": "Villeneuve d'Ascq", "address": "40 rue de la Vague", "last_update": "2025-05-03T05:15:08.419+00:00", "online": true, "payment-terminal": true}}, {"id": "d6319b8a0d2a754780d06272ebcd6150", "name": "CHAMP DE MARS", "latitude": 50.63778, "longitude": 3.050661, "timestamp": "2025-05-03T03:15:32.667185+00:00Z", "free_bikes": 2, "empty_slots": 38, "extra": {"status": "EN SERVICE", "uid": "vlille_temps_reel.14", "city": "Lille", "address": "Pont de la Citadelle / Square Daubenton", "last_update": "2025-05-03T05:15:08.362+00:00", "online": true, "payment-terminal": true}}, {"id": "d636f2d5d98a4e2f99a4a2c68a144e3e", "name": "MARCQ MAIRIE", "latitude": 50.672455, "longitude": 3.092388, "timestamp": "2025-05-03T03:15:32.666390+00:00Z", "free_bikes": 8, "empty_slots": 4, "extra": {"status": "EN SERVICE", "uid": "vlille_temps_reel.186", "city": "Marcq en Bar\u0153ul", "address": "1 Avenue du Mar\u00e9chal De Lattre De Tassigny", "last_update": "2025-05-03T05:15:08.432+00:00", "online": true, "payment-terminal": true}}, {"id": "d95631abe99703b59d7b1dccca02d6cb", "name": "QUAI DU WAULT", "latitude": 50.63671, "longitude": 3.054773, "timestamp": "2025-05-03T03:15:32.667263+00:00Z", "free_bikes": 0, "empty_slots": 18, "extra": {"status": "EN SERVICE", "uid": "vlille_temps_reel.13", "city": "Lille", "address": "17 Square Dutilleul", "last_update": "2025-05-03T05:15:08.361+00:00", "online": true, "payment-terminal": true}}, {"id": "da441c6fc370998258065ab4ee7910a7", "name": "LAVOISIER", "latitude": 50.636105, "longitude": 3.106438, "timestamp": "2025-05-03T03:15:32.666642+00:00Z", "free_bikes": 9, "empty_slots": 3, "extra": {"status": "EN SERVICE", "uid": "vlille_temps_reel.107", "city": "Mons en Bar\u0153ul", "address": "5 Rue Laurent Lavoisier", "last_update": "2025-05-03T05:15:08.407+00:00", "online": true, "payment-terminal": true}}, {"id": "dab9027351e0cef8364f37b5e4b41eb8", "name": "PLACE ROUSSEL", "latitude": 50.721308, "longitude": 3.158104, "timestamp": "2025-05-03T03:15:32.667297+00:00Z", "free_bikes": 8, "empty_slots": 12, "extra": {"status": "EN SERVICE", "uid": "vlille_temps_reel.260", "city": "Tourcoing", "address": "Place Charles et Albert Roussel", "last_update": "2025-05-03T05:15:08.452+00:00", "online": true, "payment-terminal": true}}, {"id": "dad5cb1e21052618cdd987ede0f26164", "name": "POMPIDOU", "latitude": 50.65547, "longitude": 3.064989, "timestamp": "2025-05-03T03:15:32.666920+00:00Z", "free_bikes": 16, "empty_slots": 8, "extra": {"status": "EN SERVICE", "uid": "vlille_temps_reel.153", "city": "La Madeleine", "address": "102 rue du Pr\u00e9sident Georges Pompidou", "last_update": "2025-05-03T05:15:08.422+00:00", "online": true, "payment-terminal": true}}, {"id": "dad785966798210a9e8446075dc80375", "name": "OPERA", "latitude": 50.637486, "longitude": 3.065902, "timestamp": "2025-05-03T03:15:32.667259+00:00Z", "free_bikes": 0, "empty_slots": 25, "extra": {"status": "EN SERVICE", "uid": "vlille_temps_reel.12", "city": "Lille", "address": "2 rue Anatole France", "last_update": "2025-05-03T05:15:08.361+00:00", "online": true, "payment-terminal": true}}, {"id": "db28e9a0c2fd51b07c44f35ffd9c3ece", "name": "SQUARE DES MERES", "latitude": 50.63417, "longitude": 3.095958, "timestamp": "2025-05-03T03:15:32.666511+00:00Z", "free_bikes": 15, "empty_slots": 10, "extra": {"status": "EN SERVICE", "uid": "vlille_temps_reel.91", "city": "Lille", "address": "74 rue de Lannoy", "last_update": "2025-05-03T05:15:08.401+00:00", "online": true, "payment-terminal": true}}, {"id": "db9bb2fdd6e555d57326b90a7c4c03b6", "name": "LECLERC", "latitude": 50.62899, "longitude": 3.043307, "timestamp": "2025-05-03T03:15:32.666317+00:00Z", "free_bikes": 9, "empty_slots": 19, "extra": {"status": "EN SERVICE", "uid": "vlille_temps_reel.35", "city": "Lille", "address": "Place du Mar\u00e9chal Leclerc", "last_update": "2025-05-03T05:15:08.378+00:00", "online": true, "payment-terminal": true}}, {"id": "dbec1ae896bba9917d5f26db7da86054", "name": "PLACE RICHEBE", "latitude": 50.632366, "longitude": 3.062313, "timestamp": "2025-05-03T03:15:32.667249+00:00Z", "free_bikes": 0, "empty_slots": 40, "extra": {"status": "EN SERVICE", "uid": "vlille_temps_reel.8", "city": "Lille", "address": "3 place Richeb\u00e9", "last_update": "2025-05-03T05:15:08.360+00:00", "online": true, "payment-terminal": true}}, {"id": "dcbc33433e797483c77870e0a6daaa0f", "name": "FACHES THUMESNIL MAIRIE", "latitude": 50.603145, "longitude": 3.069127, "timestamp": "2025-05-03T03:15:32.667092+00:00Z", "free_bikes": 6, "empty_slots": 13, "extra": {"status": "EN SERVICE", "uid": "vlille_temps_reel.302", "city": "Faches Thumesnil", "address": "20 rue Roger Salengro", "last_update": "2025-05-03T05:15:08.456+00:00", "online": true, "payment-terminal": true}}, {"id": "df79f59c5eae7ef52d3193bdfbe89ead", "name": "FLERS CHATEAU", "latitude": 50.63608, "longitude": 3.130853, "timestamp": "2025-05-03T03:15:32.666545+00:00Z", "free_bikes": 0, "empty_slots": 0, "extra": {"status": "R\u00c9FORM\u00c9", "uid": "vlille_temps_reel.129", "city": "VILLENEUVE D'ASCQ", "address": "RUE DE LA CHEVALERIE", "last_update": "2022-11-29T10:47:16.185+00:00", "online": false, "payment-terminal": true}}, {"id": "e04498b5eba46941af76fc7285e66325", "name": "MAIRIE DE QUARTIER OUEST", "latitude": 50.6875, "longitude": 3.1585592, "timestamp": "2025-05-03T03:15:32.666937+00:00Z", "free_bikes": 5, "empty_slots": 7, "extra": {"status": "EN SERVICE", "uid": "vlille_temps_reel.266", "city": "Roubaix", "address": "182 Rue de l'\u00c9peule", "last_update": "2025-05-03T05:15:08.453+00:00", "online": true, "payment-terminal": true}}, {"id": "e0a89ad8d697014d11753b9a9dd21fd8", "name": "BVRD DE L EGALITE", "latitude": 50.730289, "longitude": 3.167723, "timestamp": "2025-05-03T03:15:32.667004+00:00Z", "free_bikes": 6, "empty_slots": 8, "extra": {"status": "EN SERVICE", "uid": "vlille_temps_reel.239", "city": "Tourcoing", "address": "122 boulevard de l'\u00c9galit\u00e9", "last_update": "2025-05-03T05:15:08.447+00:00", "online": true, "payment-terminal": true}}, {"id": "e118e54bcabccf675beb3008cc89151c", "name": "PALAIS RAMEAU", "latitude": 50.634297, "longitude": 3.048936, "timestamp": "2025-05-03T03:15:32.667108+00:00Z", "free_bikes": 1, "empty_slots": 39, "extra": {"status": "EN SERVICE", "uid": "vlille_temps_reel.28", "city": "Lille", "address": "23 rue Solf\u00e9rino", "last_update": "2025-05-03T05:15:08.376+00:00", "online": true, "payment-terminal": true}}, {"id": "e5ead65b3aee7b50d7babd127a8914eb", "name": "GARE LILLE FLANDRES", "latitude": 50.636399, "longitude": 3.069354, "timestamp": "2025-05-03T03:15:32.667098+00:00Z", "free_bikes": 0, "empty_slots": 32, "extra": {"status": "EN SERVICE", "uid": "vlille_temps_reel.25", "city": "Lille", "address": "Place de la Gare", "last_update": "2025-05-03T05:15:08.375+00:00", "online": true, "payment-terminal": true}}, {"id": "e61495d298dac72f5b6bb40b920168d2", "name": "DELESALLE MEDIATHEQUE", "latitude": 50.63237, "longitude": 3.066273, "timestamp": "2025-05-03T03:15:32.666735+00:00Z", "free_bikes": 3, "empty_slots": 15, "extra": {"status": "EN SERVICE", "uid": "vlille_temps_reel.66", "city": "Lille", "address": "35 Rue \u00c9douard Delesalle", "last_update": "2025-05-03T05:15:08.393+00:00", "online": true, "payment-terminal": true}}, {"id": "e98ad865e747c26d80dfe31d8ff15967", "name": "PLACE TRICHON", "latitude": 50.6903353, "longitude": 3.1690075, "timestamp": "2025-05-03T03:15:32.666994+00:00Z", "free_bikes": 4, "empty_slots": 8, "extra": {"status": "EN SERVICE", "uid": "vlille_temps_reel.223", "city": "Roubaix", "address": "32 Rue du Bois", "last_update": "2025-05-03T05:15:08.444+00:00", "online": true, "payment-terminal": true}}, {"id": "e9c292f49f6bd59e94be2cc1554a1e75", "name": "MARX DORMOY", "latitude": 50.63579, "longitude": 3.033977, "timestamp": "2025-05-03T03:15:32.667062+00:00Z", "free_bikes": 9, "empty_slots": 15, "extra": {"status": "EN SERVICE", "uid": "vlille_temps_reel.94", "city": "Lille", "address": "36 avenue Marx Dormoy (sur le parking de la pisicne)", "last_update": "2025-05-03T05:15:08.402+00:00", "online": true, "payment-terminal": true}}, {"id": "ebe9cbe8aa6232c3a9842b7fe3fc228c", "name": "ROBERSART", "latitude": 50.68656, "longitude": 3.05332, "timestamp": "2025-05-03T03:15:32.667147+00:00Z", "free_bikes": 9, "empty_slots": 7, "extra": {"status": "EN SERVICE", "uid": "vlille_temps_reel.314", "city": "Wambrechies", "address": "1 Rue Obert", "last_update": "2025-05-03T05:15:08.459+00:00", "online": true, "payment-terminal": true}}, {"id": "ec143516b7f1626788ef692cf513b7d0", "name": "CHAUFFERIE", "latitude": 50.65532, "longitude": 3.060615, "timestamp": "2025-05-03T03:15:32.666923+00:00Z", "free_bikes": 16, "empty_slots": 0, "extra": {"status": "EN SERVICE", "uid": "vlille_temps_reel.154", "city": "La Madeleine", "address": "92 rue Roger Salengro", "last_update": "2025-05-03T05:15:08.423+00:00", "online": true, "payment-terminal": true}}, {"id": "ef7b095de7f083267a08a6eba63fb4d9", "name": "HIPPODROME", "latitude": 50.641617, "longitude": 3.031375, "timestamp": "2025-05-03T03:15:32.666660+00:00Z", "free_bikes": 20, "empty_slots": 1, "extra": {"status": "EN SERVICE", "uid": "vlille_temps_reel.117", "city": "Lambersart", "address": "9 avenue Henri Gruson", "last_update": "2025-05-03T05:15:08.409+00:00", "online": true, "payment-terminal": true}}, {"id": "f1de8c97c970e8155eac78d7e8beadfc", "name": "DELECAUX", "latitude": 50.644943, "longitude": 3.036932, "timestamp": "2025-05-03T03:15:32.666767+00:00Z", "free_bikes": 11, "empty_slots": 9, "extra": {"status": "EN SERVICE", "uid": "vlille_temps_reel.158", "city": "Lambersart", "address": "107 Avenue Henri Delecaux", "last_update": "2025-05-03T05:15:08.424+00:00", "online": true, "payment-terminal": true}}, {"id": "f23b2328c27da9f654159636af3947e4", "name": "SAINT ROCH", "latitude": 50.672503, "longitude": 3.069332, "timestamp": "2025-05-03T03:15:32.667140+00:00Z", "free_bikes": 5, "empty_slots": 15, "extra": {"status": "EN SERVICE", "uid": "vlille_temps_reel.312", "city": "Marquette Lez Lille", "address": "2 rue de la Station", "last_update": "2025-05-03T05:15:08.458+00:00", "online": true, "payment-terminal": true}}, {"id": "f2a5216017940046ed446ad1ac280b0e", "name": "MARQUETTE MAIRIE", "latitude": 50.676607, "longitude": 3.065308, "timestamp": "2025-05-03T03:15:32.667134+00:00Z", "free_bikes": 8, "empty_slots": 12, "extra": {"status": "EN SERVICE", "uid": "vlille_temps_reel.310", "city": "Marquette Lez Lille", "address": "4 rue de Wambrechies", "last_update": "2025-05-03T05:15:08.458+00:00", "online": true, "payment-terminal": true}}, {"id": "f2ff7ad04eb33105d8aa2b572c5a584d", "name": "MONTEBELLO", "latitude": 50.621952, "longitude": 3.04534, "timestamp": "2025-05-03T03:15:32.666743+00:00Z", "free_bikes": 9, "empty_slots": 15, "extra": {"status": "EN SERVICE", "uid": "vlille_temps_reel.67", "city": "Lille", "address": "126 Boulevard Montebello", "last_update": "2025-05-03T05:15:08.394+00:00", "online": true, "payment-terminal": true}}, {"id": "f382dca47cb95ed87d521b19c49a3203", "name": "SQUARE JEAN MONNET", "latitude": 50.652107, "longitude": 3.029324, "timestamp": "2025-05-03T03:15:32.666375+00:00Z", "free_bikes": 0, "empty_slots": 15, "extra": {"status": "EN SERVICE", "uid": "vlille_temps_reel.180", "city": "Lambersart", "address": "Square Jean Monnet", "last_update": "2025-05-03T05:15:08.430+00:00", "online": true, "payment-terminal": true}}, {"id": "f402318c8383547fa9b92a66685417a7", "name": "LE STADIUM", "latitude": 50.6312847, "longitude": 3.1350379, "timestamp": "2025-05-03T03:15:32.666408+00:00Z", "free_bikes": 6, "empty_slots": 8, "extra": {"status": "EN SERVICE", "uid": "vlille_temps_reel.192", "city": "Villeneuve d'Ascq", "address": "Avenue de la Ch\u00e2tellenie", "last_update": "2025-05-03T05:15:08.434+00:00", "online": true, "payment-terminal": true}}, {"id": "f49412a9c943a945e42369c2d1ac450d", "name": "FULTON", "latitude": 50.62337, "longitude": 3.037553, "timestamp": "2025-05-03T03:15:32.666325+00:00Z", "free_bikes": 10, "empty_slots": 2, "extra": {"status": "EN SERVICE", "uid": "vlille_temps_reel.37", "city": "Lille", "address": "25 rue du Bazinghien", "last_update": "2025-05-03T05:15:08.379+00:00", "online": true, "payment-terminal": true}}, {"id": "f4c4dd55d5ae34d4525ff6cfdb63f9c1", "name": "PLACE DELIOT", "latitude": 50.61957, "longitude": 3.068387, "timestamp": "2025-05-03T03:15:32.666691+00:00Z", "free_bikes": 7, "empty_slots": 17, "extra": {"status": "EN SERVICE", "uid": "vlille_temps_reel.49", "city": "Lille", "address": "Place D\u00e9liot", "last_update": "2025-05-03T05:15:08.388+00:00", "online": true, "payment-terminal": true}}, {"id": "f4c893087ac2814324f839c7ed8e3c3e", "name": "CAMPUS ST RAPHAEL", "latitude": 50.63084, "longitude": 3.04483, "timestamp": "2025-05-03T03:15:32.666800+00:00Z", "free_bikes": 0, "empty_slots": 16, "extra": {"status": "EN SERVICE", "uid": "vlille_temps_reel.166", "city": "Lille", "address": "100 Boulevard Vauban", "last_update": "2025-05-03T05:15:08.427+00:00", "online": true, "payment-terminal": true}}, {"id": "f5a9797c5102efe844ca2e7eb240cbc6", "name": "FLERS MAIRIE", "latitude": 50.63708, "longitude": 3.127964, "timestamp": "2025-05-03T03:15:32.666538+00:00Z", "free_bikes": 0, "empty_slots": 0, "extra": {"status": "R\u00c9FORM\u00c9", "uid": "vlille_temps_reel.127", "city": "VILLENEUVE D'ASCQ", "address": "16 RUE DU G\u00c9N\u00c9RAL LECLERC", "last_update": "2022-11-29T10:47:16.185+00:00", "online": false, "payment-terminal": true}}, {"id": "f62c1993edc04c49e09004f47ade8bbb", "name": "BOULEVARD DE METZ", "latitude": 50.619312, "longitude": 3.041299, "timestamp": "2025-05-03T03:15:32.666617+00:00Z", "free_bikes": 0, "empty_slots": 0, "extra": {"status": "R\u00c9FORM\u00c9", "uid": "vlille_temps_reel.89", "city": "LILLE", "address": "40 BOULEVARD DE METZ", "last_update": "2022-11-29T10:47:16.207+00:00", "online": false, "payment-terminal": true}}, {"id": "f67ec9eeea4c2fa133a7a760cefe4a04", "name": "SAINT CALIXTE", "latitude": 50.65281, "longitude": 3.02604, "timestamp": "2025-05-03T03:15:32.667088+00:00Z", "free_bikes": 13, "empty_slots": 7, "extra": {"status": "EN SERVICE", "uid": "vlille_temps_reel.301", "city": "Lambersart", "address": "99 Rue du Bourg", "last_update": "2025-05-03T05:15:08.455+00:00", "online": true, "payment-terminal": true}}, {"id": "f7d2430e1f6ec20758a99ff6703b6a5c", "name": "ROND POINT DE TOURNAI", "latitude": 50.61776, "longitude": 3.146026, "timestamp": "2025-05-03T03:15:32.666551+00:00Z", "free_bikes": 0, "empty_slots": 1, "extra": {"status": "R\u00c9FORM\u00c9", "uid": "vlille_temps_reel.143", "city": "VILLENEUVE D'ASCQ", "address": "55, RUE DES FUSILL\u00c9S", "last_update": "2022-11-29T10:47:16.187+00:00", "online": false, "payment-terminal": true}}, {"id": "f8d8c2dd14d10d17dc23fbf3e6e9ba45", "name": "RAMPONNEAU", "latitude": 50.6399, "longitude": 3.05323, "timestamp": "2025-05-03T03:15:32.667153+00:00Z", "free_bikes": 0, "empty_slots": 20, "extra": {"status": "EN SERVICE", "uid": "vlille_temps_reel.316", "city": "Lille", "address": "All\u00e9e des Marronniers", "last_update": "2025-05-03T05:15:08.459+00:00", "online": true, "payment-terminal": true}}, {"id": "f97dc9577c4bbd617fce52b6ac303ee4", "name": "LA MADELEINE MAIRIE", "latitude": 50.654602, "longitude": 3.073805, "timestamp": "2025-05-03T03:15:32.666897+00:00Z", "free_bikes": 12, "empty_slots": 12, "extra": {"status": "EN SERVICE", "uid": "vlille_temps_reel.99", "city": "La Madeleine", "address": "160 rue du G\u00e9n\u00e9ral de Gaulle", "last_update": "2025-05-03T05:15:08.403+00:00", "online": true, "payment-terminal": true}}, {"id": "fbf0e6f038859dfb683b9fd20229e773", "name": "LINNE", "latitude": 50.676884, "longitude": 3.187817, "timestamp": "2025-05-03T03:15:32.667225+00:00Z", "free_bikes": 6, "empty_slots": 0, "extra": {"status": "EN SERVICE", "uid": "vlille_temps_reel.210", "city": "Roubaix", "address": "198 avenue Linn\u00e9", "last_update": "2025-05-03T05:15:08.441+00:00", "online": true, "payment-terminal": true}}, {"id": "fc14d199174a60adb06d0611a5703128", "name": "LANNOY", "latitude": 50.68859, "longitude": 3.182028, "timestamp": "2025-05-03T03:15:32.666972+00:00Z", "free_bikes": 7, "empty_slots": 11, "extra": {"status": "EN SERVICE", "uid": "vlille_temps_reel.213", "city": "Roubaix", "address": "96 rue de Lannoy", "last_update": "2025-05-03T05:15:08.442+00:00", "online": true, "payment-terminal": true}}, {"id": "fcb0acd09217c8ddb7e9237453d94267", "name": "HOTEL DE POLICE", "latitude": 50.615536, "longitude": 3.048518, "timestamp": "2025-05-03T03:15:32.666867+00:00Z", "free_bikes": 7, "empty_slots": 11, "extra": {"status": "EN SERVICE", "uid": "vlille_temps_reel.78", "city": "Lille", "address": "2 rue du Faubourg des Postes", "last_update": "2025-05-03T05:15:08.398+00:00", "online": true, "payment-terminal": true}}, {"id": "fd23ab3ce98332a54dee33c5f8d596ad", "name": "FLERS MASQUELIER", "latitude": 50.63745, "longitude": 3.123145, "timestamp": "2025-05-03T03:15:32.666821+00:00Z", "free_bikes": 11, "empty_slots": 13, "extra": {"status": "EN SERVICE", "uid": "vlille_temps_reel.135", "city": "Villeneuve d'Ascq", "address": "95 Rue Jules Guesde", "last_update": "2025-05-03T05:15:08.419+00:00", "online": true, "payment-terminal": true}}, {"id": "fded54e5eceaf0322d8a7fe53c2fbfbf", "name": "RUE DE L'EGLISE", "latitude": 50.665348, "longitude": 3.075792, "timestamp": "2025-05-03T03:15:32.666930+00:00Z", "free_bikes": 12, "empty_slots": 5, "extra": {"status": "EN SERVICE", "uid": "vlille_temps_reel.123", "city": "Marcq en Baroeul", "address": "71 rue Nationale", "last_update": "2025-05-03T05:15:08.411+00:00", "online": true, "payment-terminal": true}}, {"id": "fed1d53e44d47f710bad9fe41cea5f22", "name": "RUE CHAMBORD", "latitude": 50.62972, "longitude": 3.133873, "timestamp": "2025-05-03T03:15:32.666770+00:00Z", "free_bikes": 0, "empty_slots": 0, "extra": {"status": "R\u00c9FORM\u00c9", "uid": "vlille_temps_reel.136", "city": "VILLENEUVE D'ASCQ", "address": "RUE CHAMBORD", "last_update": "2024-04-18T14:46:09.093+00:00", "online": false, "payment-terminal": true}}, {"id": "ff3ce6636e4ab6d0d3a871b8db25fb91", "name": "SQUARE CHARLES DE GAULLE", "latitude": 50.626846, "longitude": 3.115101, "timestamp": "2025-05-03T03:15:32.666527+00:00Z", "free_bikes": 0, "empty_slots": 0, "extra": {"status": "R\u00c9FORM\u00c9", "uid": "vlille_temps_reel.112", "city": "HELLEMMES", "address": "4, RUE FERDINAND BUISSON", "last_update": "2022-11-29T10:47:16.184+00:00", "online": false, "payment-terminal": true}}]}