{"id": "vrn-heppenheim", "name": "VRN", "location": {"latitude": 49.6431, "longitude": 8.63889, "city": "Heppenheim", "country": "DE"}, "href": "/v2/networks/vrn-heppenheim", "company": ["Nextbike GmbH"], "system": "Nextbike", "stations": [{"id": "0215cfe41846597c8c215c38c0e078d2", "name": "Bahnhof", "latitude": 49.641418, "longitude": 8.633865, "timestamp": "2025-05-03T03:15:36.325141+00:00Z", "free_bikes": 6, "empty_slots": 4, "extra": {"uid": "5669008", "number": "25450", "slots": 10, "bike_uids": ["42939", "430290", "43444", "431469", "432065", "432367"], "virtual": false}}, {"id": "0c3100786a88d9116151599d4a6820f6", "name": "Mozartstra\u00dfe", "latitude": 49.638232, "longitude": 8.627926, "timestamp": "2025-05-03T03:15:36.325268+00:00Z", "free_bikes": 4, "empty_slots": 2, "extra": {"uid": "5669162", "number": "25457", "slots": 6, "bike_uids": ["430064", "430664", "431375", "431256"], "virtual": false}}, {"id": "1b963659ed71656eff692928031b31d0", "name": "Parkhof", "latitude": 49.641908, "longitude": 8.640463, "timestamp": "2025-05-03T03:15:36.325169+00:00Z", "free_bikes": 9, "empty_slots": 0, "extra": {"uid": "5669094", "number": "25451", "slots": 4, "bike_uids": ["430851", "431445", "431590", "432004", "431947", "431906", "431630", "432337", "432227"], "virtual": false}}, {"id": "269a88d93a06275e8b4ef50eb0ff9deb", "name": "Vala-Lamberger-Stra\u00dfe / Haltestelle Hans-Kohl-Str.", "latitude": 49.651109, "longitude": 8.628602, "timestamp": "2025-05-03T03:15:36.325208+00:00Z", "free_bikes": 4, "empty_slots": 2, "extra": {"uid": "5669117", "number": "25453", "slots": 6, "bike_uids": ["431198", "430888", "431072", "432019"], "virtual": false}}, {"id": "288dac8fac8b2748064c0938ca25a851", "name": "Hirschhorner Stra\u00dfe", "latitude": 49.635745, "longitude": 8.638982, "timestamp": "2025-05-03T03:15:36.325297+00:00Z", "free_bikes": 2, "empty_slots": 4, "extra": {"uid": "5669176", "number": "25459", "slots": 6, "bike_uids": ["430375", "431560"], "virtual": false}}, {"id": "323d8432802f4162ae11afce97b3edce", "name": "Gie\u00dfener Stra\u00dfe", "latitude": 49.633341, "longitude": 8.620883, "timestamp": "2025-05-03T03:15:36.325341+00:00Z", "free_bikes": 3, "empty_slots": 3, "extra": {"uid": "5669219", "number": "25462", "slots": 6, "bike_uids": ["430313", "431820", "432453"], "virtual": false}}, {"id": "598a7a153270df20c9670edb877b2384", "name": "REWE", "latitude": 49.636797, "longitude": 8.618501, "timestamp": "2025-05-03T03:15:36.325254+00:00Z", "free_bikes": 1, "empty_slots": 5, "extra": {"uid": "5669149", "number": "25456", "slots": 6, "bike_uids": ["430712"], "virtual": false}}, {"id": "759ba073c90ef2a264b538393941e83d", "name": "Bl\u00fctenstra\u00dfe", "latitude": 49.654429, "longitude": 8.632121, "timestamp": "2025-05-03T03:15:36.325098+00:00Z", "free_bikes": 2, "empty_slots": null, "extra": {"uid": "3612229", "number": "25463", "bike_uids": ["431688", "432288"], "virtual": false}}, {"id": "7db5bf685ca6fadcdb7de6163555a525", "name": "Heinrich-Heine-Stra\u00dfe", "latitude": 49.640643, "longitude": 8.623463, "timestamp": "2025-05-03T03:15:36.325366+00:00Z", "free_bikes": 1, "empty_slots": null, "extra": {"uid": "20060094", "number": "25464", "bike_uids": ["431744"], "virtual": false}}, {"id": "9169be35b7023b9a662341d9ad11d858", "name": "Kettelerstra\u00dfe", "latitude": 49.646667, "longitude": 8.636091, "timestamp": "2025-05-03T03:15:36.325224+00:00Z", "free_bikes": 3, "empty_slots": 3, "extra": {"uid": "5669128", "number": "25454", "slots": 6, "bike_uids": ["430891", "431916", "431731"], "virtual": false}}, {"id": "96dd378841bf8fc5a9279d9ae9db2340", "name": "Kreiskrankenhaus", "latitude": 49.629348, "longitude": 8.625233, "timestamp": "2025-05-03T03:15:36.325326+00:00Z", "free_bikes": 3, "empty_slots": 3, "extra": {"uid": "5669198", "number": "25461", "slots": 6, "bike_uids": ["42961", "430173", "430105"], "virtual": false}}, {"id": "bf1b32f5269e86833056577f30ac9157", "name": "Gymnasium", "latitude": 49.635835, "longitude": 8.633258, "timestamp": "2025-05-03T03:15:36.325283+00:00Z", "free_bikes": 4, "empty_slots": 2, "extra": {"uid": "5669169", "number": "25458", "slots": 6, "bike_uids": ["430393", "430462", "431936", "431917"], "virtual": false}}, {"id": "cc22243a2be388741ce42e8f7640fa8c", "name": "Graben", "latitude": 49.641022, "longitude": 8.643242, "timestamp": "2025-05-03T03:15:36.325192+00:00Z", "free_bikes": 4, "empty_slots": 2, "extra": {"uid": "5669106", "number": "25452", "slots": 6, "bike_uids": ["42999", "430376", "431331", "431280"], "virtual": false}}, {"id": "d6e0ef6277fd8247bed60f2b7c993cdc", "name": "Nordstadt", "latitude": 49.650869, "longitude": 8.633902, "timestamp": "2025-05-03T03:15:36.325239+00:00Z", "free_bikes": 2, "empty_slots": 2, "extra": {"uid": "5669139", "number": "25455", "slots": 4, "bike_uids": ["431094", "431770"], "virtual": false}}, {"id": "ea9a734b178b5716df481a5a4e6426ce", "name": "Feuerbachplatz ", "latitude": 49.640133, "longitude": 8.637732, "timestamp": "2025-05-03T03:15:36.325355+00:00Z", "free_bikes": 0, "empty_slots": null, "extra": {"uid": "11265949", "number": "25465", "bike_uids": [], "virtual": false}}, {"id": "fb6f28c49bd8b96227e4107462e9b91d", "name": "Dr.-Heinrich-Winter-Stra\u00dfe", "latitude": 49.633042, "longitude": 8.630844, "timestamp": "2025-05-03T03:15:36.325312+00:00Z", "free_bikes": 1, "empty_slots": 3, "extra": {"uid": "5669188", "number": "25460", "slots": 4, "bike_uids": ["430665"], "virtual": false}}]}