{"id": "vrn-bensheim", "name": "VRN", "location": {"latitude": 49.6803, "longitude": 8.6189, "city": "Bensheim", "country": "DE"}, "href": "/v2/networks/vrn-bensheim", "company": ["Nextbike GmbH"], "system": "Nextbike", "stations": [{"id": "198e4cff4397eabf8fdd4f41db6dd8a2", "name": "Bahnhof", "latitude": 49.681718, "longitude": 8.617546, "timestamp": "2025-05-03T03:15:36.782588+00:00Z", "free_bikes": 7, "empty_slots": null, "extra": {"uid": "704300", "number": "25610", "bike_uids": ["43439", "42882", "42873", "430483", "431061", "43440", "431763"], "virtual": false}}, {"id": "354357ce99a4faef6ae63c5bc25db7c2", "name": "Rathaus", "latitude": 49.68857, "longitude": 8.619676, "timestamp": "2025-05-03T03:15:36.782673+00:00Z", "free_bikes": 2, "empty_slots": 4, "extra": {"uid": "704308", "number": "25614", "slots": 6, "bike_uids": ["431165", "432391"], "virtual": false}}, {"id": "460aea00df5c811514935a0f8404fe7a", "name": "Parktheater", "latitude": 49.68256, "longitude": 8.62007, "timestamp": "2025-05-03T03:15:36.782661+00:00Z", "free_bikes": 0, "empty_slots": 6, "extra": {"uid": "704305", "number": "25613", "slots": 6, "bike_uids": [], "virtual": false}}, {"id": "70782b133c873ba28be00f9b79521669", "name": "Stubenwald", "latitude": 49.671443, "longitude": 8.586153, "timestamp": "2025-05-03T03:15:36.782754+00:00Z", "free_bikes": 4, "empty_slots": 4, "extra": {"uid": "5761358", "number": "25620", "slots": 8, "bike_uids": ["42827", "431255", "432345", "432489"], "virtual": false}}, {"id": "8d711da2c51b1498dbab1990b343c0ba", "name": "Weststadthalle / Badesee", "latitude": 49.68771, "longitude": 8.60668, "timestamp": "2025-05-03T03:15:36.782689+00:00Z", "free_bikes": 0, "empty_slots": 6, "extra": {"uid": "704310", "number": "25615", "slots": 6, "bike_uids": [], "virtual": false}}, {"id": "a83613a5608d583886e991247ed32530", "name": "Karl K\u00fcbel Schule", "latitude": 49.673259, "longitude": 8.605594, "timestamp": "2025-05-03T03:15:36.782740+00:00Z", "free_bikes": 3, "empty_slots": 7, "extra": {"uid": "5761351", "number": "25619", "slots": 10, "bike_uids": ["42895", "430706", "432445"], "virtual": false}}, {"id": "bae76ab3783cd461c3246bba9506509a", "name": "Auerbach - Kronepark", "latitude": 49.70008, "longitude": 8.62178, "timestamp": "2025-05-03T03:15:36.782716+00:00Z", "free_bikes": 2, "empty_slots": 4, "extra": {"uid": "704314", "number": "25617", "slots": 6, "bike_uids": ["430625", "432421"], "virtual": false}}, {"id": "c513474c220188000104b60296c83457", "name": "Hallenbad", "latitude": 49.683582, "longitude": 8.613517, "timestamp": "2025-05-03T03:15:36.782730+00:00Z", "free_bikes": 0, "empty_slots": 6, "extra": {"uid": "5761343", "number": "25618", "slots": 6, "bike_uids": [], "virtual": false}}, {"id": "c7cb2357b8fff3d8525635e64c322e6a", "name": "Einkaufszentrum G\u00fcterbahnhof", "latitude": 49.67721, "longitude": 8.61513, "timestamp": "2025-05-03T03:15:36.782638+00:00Z", "free_bikes": 15, "empty_slots": 0, "extra": {"uid": "704303", "number": "25612", "slots": 10, "bike_uids": ["42853", "430315", "44433", "430487", "430434", "430515", "430938", "431060", "431429", "432061", "432020", "431791", "431782", "431713", "431641"], "virtual": false}}, {"id": "cd08430749e2c16441a5190a2977c608", "name": "Untere Fu\u00dfg\u00e4ngerzone", "latitude": 49.678056, "longitude": 8.622224, "timestamp": "2025-05-03T03:15:36.782623+00:00Z", "free_bikes": 0, "empty_slots": 8, "extra": {"uid": "704302", "number": "25611", "slots": 8, "bike_uids": [], "virtual": false}}, {"id": "e517365fa53530ba1e08e0fd045f67b2", "name": "Auerbach - Bahnhof", "latitude": 49.70238, "longitude": 8.61354, "timestamp": "2025-05-03T03:15:36.782699+00:00Z", "free_bikes": 10, "empty_slots": 0, "extra": {"uid": "704311", "number": "25616", "slots": 6, "bike_uids": ["42958", "432529", "430342", "430107", "430671", "430929", "430882", "431035", "430540", "431949"], "virtual": false}}]}