{"id": "vrn-heidelberg", "name": "VRN", "location": {"latitude": 49.4023, "longitude": 8.67577, "city": "Heidelberg", "country": "DE"}, "href": "/v2/networks/vrn-heidelberg", "company": ["Nextbike GmbH"], "system": "Nextbike", "stations": [{"id": "0182dfe5404577289a15c49e6360d3ad", "name": "S-Bahnhof Kirchheim/Rohrbach", "latitude": 49.378751, "longitude": 8.67634, "timestamp": "2025-05-03T03:15:34.411409+00:00Z", "free_bikes": 14, "empty_slots": null, "extra": {"uid": "19153166", "number": "25150", "bike_uids": ["43118", "42929", "430357", "430285", "430053", "430718", "430870", "431103", "431088", "430618", "430542", "431216", "431200", "432424"], "virtual": true}}, {"id": "02750f89a0ba5dc0835ab0174c2f3589", "name": "S-Bahnhof Schlierbach/Ziegelhausen", "latitude": 49.415281, "longitude": 8.761061, "timestamp": "2025-05-03T03:15:34.410952+00:00Z", "free_bikes": 1, "empty_slots": 5, "extra": {"uid": "339519", "number": "25168", "slots": 6, "bike_uids": ["432326"], "virtual": false}}, {"id": "06d48a8903d63976cdbf1fc4db83cfac", "name": "Altstadt - Theaterstra\u00dfe", "latitude": 49.410104, "longitude": 8.703715, "timestamp": "2025-05-03T03:15:34.411192+00:00Z", "free_bikes": 0, "empty_slots": 8, "extra": {"uid": "732725", "number": "25175", "slots": 8, "bike_uids": [], "virtual": false}}, {"id": "0afe3bdc23a79d7c66213a57a01d1857", "name": "Altstadt \u2013 Universit\u00e4tsplatz", "latitude": 49.41106, "longitude": 8.706719, "timestamp": "2025-05-03T03:15:34.410823+00:00Z", "free_bikes": 0, "empty_slots": 9, "extra": {"uid": "121361", "number": "25164", "slots": 10, "bike_uids": [], "virtual": true}}, {"id": "15af47ef5ff3df3fbe81d59f10643cf6", "name": "SNP-Dome", "latitude": 49.394671, "longitude": 8.670734, "timestamp": "2025-05-03T03:15:34.411595+00:00Z", "free_bikes": 9, "empty_slots": null, "extra": {"uid": "59657530", "number": "25194", "bike_uids": ["43114", "430812", "430865", "43208", "431618", "431494", "431780", "431660", "432357"], "virtual": false}}, {"id": "18131c1718efc142088c8299e8d2a4ad", "name": "Bahnstadt - Gr\u00fcne Meile / Da-Vinci-Stra\u00dfe", "latitude": 49.40357, "longitude": 8.66603, "timestamp": "2025-05-03T03:15:34.411479+00:00Z", "free_bikes": 22, "empty_slots": null, "extra": {"uid": "36673159", "number": "25190", "bike_uids": ["42952", "42940", "42902", "42887", "430399", "430294", "430027", "430007", "42782", "430817", "431087", "431023", "430633", "431361", "431344", "431298", "431595", "431482", "432012", "431904", "431891", "431635"], "virtual": false}}, {"id": "18133febd3c3bb27b7c53df3b4f51cef", "name": "Sportzentrum S\u00fcd", "latitude": 49.390129, "longitude": 8.666416, "timestamp": "2025-05-03T03:15:34.411265+00:00Z", "free_bikes": 6, "empty_slots": 4, "extra": {"uid": "1814955", "number": "25179", "slots": 10, "bike_uids": ["42903", "430429", "430806", "431115", "430646", "430605"], "virtual": false}}, {"id": "1da39eea61979a262fb9e2217ffad3d9", "name": "Rheinstra\u00dfe - Englisches Institut Heidelberg", "latitude": 49.389723, "longitude": 8.689182, "timestamp": "2025-05-03T03:15:34.411352+00:00Z", "free_bikes": 12, "empty_slots": null, "extra": {"uid": "7472241", "number": "25187", "bike_uids": ["42830", "44419", "44417", "430409", "430816", "430807", "430658", "431584", "431993", "431850", "431772", "432269"], "virtual": false}}, {"id": "2687d0f9455397a1db73757323ad8ea8", "name": "Handschuhsheim \u2013 Hans-Thoma-Platz", "latitude": 49.428198, "longitude": 8.683598, "timestamp": "2025-05-03T03:15:34.411023+00:00Z", "free_bikes": 2, "empty_slots": 24, "extra": {"uid": "344831", "number": "25158", "slots": 28, "bike_uids": ["430941", "431930"], "virtual": false}}, {"id": "2983c5405843cf306c6d45056e78b042", "name": "Handschuhsheim - Steubenstra\u00dfe", "latitude": 49.424845, "longitude": 8.687691, "timestamp": "2025-05-03T03:15:34.411816+00:00Z", "free_bikes": 3, "empty_slots": null, "extra": {"uid": "260512725", "number": "25200", "bike_uids": ["44424", "431070", "431570"], "virtual": false}}, {"id": "2a27171a7ea7f08d3c198a31dee9e016", "name": "Neuenheim \u2013 Neckarwiese", "latitude": 49.413266, "longitude": 8.691881, "timestamp": "2025-05-03T03:15:34.410899+00:00Z", "free_bikes": 2, "empty_slots": 11, "extra": {"uid": "121368", "number": "25161", "slots": 14, "bike_uids": ["430739", "431605"], "virtual": false}}, {"id": "2d12598c7cfa74fd8bad905b94ca2214", "name": "Handschuhsheim - Im Weiher", "latitude": 49.433735, "longitude": 8.678132, "timestamp": "2025-05-03T03:15:34.411799+00:00Z", "free_bikes": 6, "empty_slots": null, "extra": {"uid": "167365390", "number": "25205", "bike_uids": ["430458", "432018", "431898", "431716", "431685", "432460"], "virtual": false}}, {"id": "2ff6d85881b2c063740e0180348cd9cb", "name": "Neuenheim \u2013 Ku\u00dfmaulstra\u00dfe", "latitude": 49.418566, "longitude": 8.690573, "timestamp": "2025-05-03T03:15:34.410800+00:00Z", "free_bikes": 2, "empty_slots": 4, "extra": {"uid": "121359", "number": "25159", "slots": 6, "bike_uids": ["431675", "432498"], "virtual": false}}, {"id": "370d9a5f41409f95cae7c6f2d52c673b", "name": "INF \u2013 Universit\u00e4tsklinikum/Zoo", "latitude": 49.414965, "longitude": 8.664772, "timestamp": "2025-05-03T03:15:34.410751+00:00Z", "free_bikes": 1, "empty_slots": 9, "extra": {"uid": "121355", "number": "25156", "slots": 10, "bike_uids": ["430744"], "virtual": false}}, {"id": "3990b4cf732a77a863d5b192bf2cda74", "name": "Altstadt - Pl\u00f6ck", "latitude": 49.408694, "longitude": 8.693737, "timestamp": "2025-05-03T03:15:34.411555+00:00Z", "free_bikes": 0, "empty_slots": null, "extra": {"uid": "59656724", "number": "25195", "bike_uids": [], "virtual": false}}, {"id": "3a28ca1b3ed63b2e0e207bfd15ee8e27", "name": "Rohrbach \u2013 Markt", "latitude": 49.380368, "longitude": 8.687546, "timestamp": "2025-05-03T03:15:34.410924+00:00Z", "free_bikes": 29, "empty_slots": 0, "extra": {"uid": "339517", "number": "25167", "slots": 10, "bike_uids": ["42872", "42848", "42824", "42811", "431197", "430245", "430116", "430480", "430714", "430692", "430956", "430872", "430866", "431131", "431124", "431105", "430619", "430563", "431306", "432057", "432042", "431925", "431897", "431835", "431755", "431706", "431645", "432264", "432420"], "virtual": false}}, {"id": "3b2326e50dc4271d5ae676166fcafa20", "name": "INF - Tiergartenschwimmbad", "latitude": 49.420061, "longitude": 8.659131, "timestamp": "2025-05-03T03:15:34.411383+00:00Z", "free_bikes": 5, "empty_slots": null, "extra": {"uid": "12338899", "number": "25183", "bike_uids": ["430187", "430690", "431369", "431315", "432516"], "virtual": false}}, {"id": "460f0e7da1ce4555f0defadca982061e", "name": "Langer Anger", "latitude": 49.400997, "longitude": 8.668959, "timestamp": "2025-05-03T03:15:34.411465+00:00Z", "free_bikes": 11, "empty_slots": null, "extra": {"uid": "36673075", "number": "25189", "bike_uids": ["42968", "42888", "430347", "430844", "430803", "431588", "431586", "431555", "431928", "431922", "432298"], "virtual": false}}, {"id": "483dc109f08abb05e7b15fb26393619d", "name": "Hauptbahnhof Bahnstadt", "latitude": 49.402449, "longitude": 8.675809, "timestamp": "2025-05-03T03:15:34.411455+00:00Z", "free_bikes": 0, "empty_slots": null, "extra": {"uid": "27700413", "number": "25153", "bike_uids": [], "virtual": false}}, {"id": "4bd6c8e02b30781a431ac3425bb6a5a3", "name": "INF - Springer Verlag", "latitude": 49.425246, "longitude": 8.656672, "timestamp": "2025-05-03T03:15:34.411397+00:00Z", "free_bikes": 3, "empty_slots": null, "extra": {"uid": "13334262", "number": "25184", "bike_uids": ["431353", "431342", "431301"], "virtual": false}}, {"id": "5d261987b9800febd1ca68409521f270", "name": "Emil-Maier-Stra\u00dfe", "latitude": 49.40853, "longitude": 8.672504, "timestamp": "2025-05-03T03:15:34.411712+00:00Z", "free_bikes": 3, "empty_slots": 9, "extra": {"uid": "79155467", "number": "25198", "slots": 12, "bike_uids": ["431372", "432302", "432235"], "virtual": false}}, {"id": "5e477a69ea8a98cba5f6d09f066c7576", "name": "Altstadt \u2013 Stadthalle", "latitude": 49.411989, "longitude": 8.699137, "timestamp": "2025-05-03T03:15:34.410843+00:00Z", "free_bikes": 1, "empty_slots": 8, "extra": {"uid": "121363", "number": "25163", "slots": 10, "bike_uids": ["431831"], "virtual": false}}, {"id": "61b1653dd5b0c14ecc28a31fb192bdaf", "name": "INF - Cafe Botanik", "latitude": 49.415018, "longitude": 8.67126, "timestamp": "2025-05-03T03:15:34.411865+00:00Z", "free_bikes": 7, "empty_slots": null, "extra": {"uid": "276806882", "number": "25211", "bike_uids": ["42953", "42944", "430289", "431025", "431612", "431965", "431746"], "virtual": false}}, {"id": "61ec5a9c1a088c1ff6381662be091cfc", "name": "Altstadt - Neckarm\u00fcnzplatz", "latitude": 49.413734, "longitude": 8.71432, "timestamp": "2025-05-03T03:15:34.411156+00:00Z", "free_bikes": 2, "empty_slots": 6, "extra": {"uid": "681918", "number": "25176", "slots": 8, "bike_uids": ["430121", "44465"], "virtual": false}}, {"id": "64752615c56a4dab0de7a07bd5049b7a", "name": "MTV - Rheinstra\u00dfe", "latitude": 49.388906, "longitude": 8.683469, "timestamp": "2025-05-03T03:15:34.411570+00:00Z", "free_bikes": 3, "empty_slots": null, "extra": {"uid": "59657356", "number": "25193", "bike_uids": ["431193", "430252", "430705"], "virtual": false}}, {"id": "67d4f7193f09d1aa927322a63c7e64ae", "name": "Wieblingen Mitte", "latitude": 49.42343, "longitude": 8.645995, "timestamp": "2025-05-03T03:15:34.411058+00:00Z", "free_bikes": 38, "empty_slots": 0, "extra": {"uid": "497198", "number": "25166", "slots": 8, "bike_uids": ["42908", "42880", "42818", "430384", "430088", "430045", "42870", "430800", "430741", "430740", "430713", "430693", "430983", "430937", "430898", "431089", "431044", "44387", "430649", "430629", "431412", "431389", "431562", "431546", "431501", "431905", "431800", "431751", "432528", "431712", "431668", "431631", "432299", "431161", "432249", "432501", "432442", "432399"], "virtual": false}}, {"id": "6ea04b8c4a498dc5e454d83a7237c73f", "name": "Weststadt - Blumenstra\u00dfe", "latitude": 49.404373, "longitude": 8.684837, "timestamp": "2025-05-03T03:15:34.411628+00:00Z", "free_bikes": 0, "empty_slots": null, "extra": {"uid": "78599753", "number": "25199", "bike_uids": [], "virtual": false}}, {"id": "73769630100bfe917ee156a050dc9d1a", "name": "Marktplatz / Pfaffengrund", "latitude": 49.402488, "longitude": 8.647174, "timestamp": "2025-05-03T03:15:34.411524+00:00Z", "free_bikes": 9, "empty_slots": null, "extra": {"uid": "59655887", "number": "25192", "bike_uids": ["430276", "430238", "430733", "430879", "431063", "430616", "431804", "431697", "432431"], "virtual": false}}, {"id": "79a18fc31b7748430a7af69f78cb3b09", "name": "Kirchheim \u2013 Rathaus", "latitude": 49.377529, "longitude": 8.666115, "timestamp": "2025-05-03T03:15:34.410970+00:00Z", "free_bikes": 43, "empty_slots": 0, "extra": {"uid": "339522", "number": "25170", "slots": 6, "bike_uids": ["43053", "42992", "42803", "430263", "430161", "432531", "44439", "42743", "430521", "430805", "430792", "430771", "430764", "430760", "430869", "431057", "431056", "431033", "431199", "43446", "430590", "431213", "431327", "431323", "431622", "431614", "432533", "431597", "431585", "431538", "432092", "432063", "432056", "431987", "431871", "431851", "431816", "431761", "431726", "431683", "432355", "432322", "432428"], "virtual": false}}, {"id": "7e7af5edab19442570177d4d71f08214", "name": "Neuenheim - Alte PH / Quinckestra\u00dfe", "latitude": 49.420085, "longitude": 8.683062, "timestamp": "2025-05-03T03:15:34.411697+00:00Z", "free_bikes": 0, "empty_slots": null, "extra": {"uid": "79153997", "number": "25197", "bike_uids": [], "virtual": false}}, {"id": "8db73bacb40b8863dcf9d03519ea1f86", "name": "Dischingerstra\u00dfe", "latitude": 49.407633, "longitude": 8.638826, "timestamp": "2025-05-03T03:15:34.411440+00:00Z", "free_bikes": 8, "empty_slots": null, "extra": {"uid": "27195756", "number": "25186", "bike_uids": ["43442", "430383", "430699", "430950", "431001", "431937", "431686", "431183"], "virtual": false}}, {"id": "96c3f10fe77cf06dd3b0afba1976a8b4", "name": "S-Bahnhof Pfaffengrund/Wieblingen", "latitude": 49.412156, "longitude": 8.641546, "timestamp": "2025-05-03T03:15:34.411425+00:00Z", "free_bikes": 7, "empty_slots": 3, "extra": {"uid": "20555131", "number": "25185", "slots": 10, "bike_uids": ["430725", "430970", "430988", "431938", "432352", "432223", "432495"], "virtual": false}}, {"id": "9984a3bf6102de05355d13b2a5b6b502", "name": "Bergheim - rnv Betriebshof Bergheimerstr.", "latitude": 49.407741, "longitude": 8.675181, "timestamp": "2025-05-03T03:15:34.411137+00:00Z", "free_bikes": 5, "empty_slots": 3, "extra": {"uid": "661047", "number": "25173", "slots": 8, "bike_uids": ["430148", "430426", "430768", "431054", "431195"], "virtual": false}}, {"id": "9ccfcdf9d7170030a2c68ab2dffe5b1b", "name": "Bergheim - Kurf\u00fcrstenanlage", "latitude": 49.407127, "longitude": 8.690647, "timestamp": "2025-05-03T03:15:34.411102+00:00Z", "free_bikes": 0, "empty_slots": 8, "extra": {"uid": "661038", "number": "25174", "slots": 8, "bike_uids": [], "virtual": false}}, {"id": "a59dc480f58f8e080d0b383ea2f72216", "name": "Bahnstadt Halle 02", "latitude": 49.401751, "longitude": 8.672343, "timestamp": "2025-05-03T03:15:34.411041+00:00Z", "free_bikes": 1, "empty_slots": 9, "extra": {"uid": "495832", "number": "25154", "slots": 10, "bike_uids": ["431773"], "virtual": false}}, {"id": "b442e610fe0769146f0f2147afb8adc0", "name": "Hbf - Willy-Brandt-Platz", "latitude": 49.404285, "longitude": 8.676378, "timestamp": "2025-05-03T03:15:34.411503+00:00Z", "free_bikes": 38, "empty_slots": null, "extra": {"uid": "59654355", "number": "25196", "bike_uids": ["43253", "42972", "42894", "430316", "430127", "430111", "430092", "430748", "430735", "430689", "430681", "430675", "430963", "430958", "430932", "430927", "431127", "431027", "43673", "430648", "430579", "430547", "431428", "431355", "431530", "431508", "431167", "432104", "432032", "431940", "431929", "431862", "431720", "431687", "431646", "432243", "432466", "432379"], "virtual": false}}, {"id": "b724387bf495d8c1d31ac02307f4b00f", "name": "Eppelheimer Stra\u00dfe", "latitude": 49.401978, "longitude": 8.6405, "timestamp": "2025-05-03T03:15:34.411333+00:00Z", "free_bikes": 15, "empty_slots": null, "extra": {"uid": "7472124", "number": "25188", "bike_uids": ["42964", "430084", "430010", "44426", "42789", "431157", "430482", "430858", "430784", "430708", "430677", "430557", "432048", "431710", "432392"], "virtual": false}}, {"id": "bb21c5f3849927c7ebaa7eb08e07cc09", "name": "Holbeinring", "latitude": 49.384066, "longitude": 8.684925, "timestamp": "2025-05-03T03:15:34.411369+00:00Z", "free_bikes": 15, "empty_slots": null, "extra": {"uid": "8828563", "number": "25182", "bike_uids": ["42814", "430264", "430174", "430857", "430799", "430603", "431330", "431322", "431264", "431587", "432079", "431691", "431626", "432468", "432443"], "virtual": false}}, {"id": "d03d40d33194093d38dbc9987270bd49", "name": "Rhein-Neckar-Kreis / Kurf\u00fcrstenanlage", "latitude": 49.405832, "longitude": 8.683877, "timestamp": "2025-05-03T03:15:34.411286+00:00Z", "free_bikes": 1, "empty_slots": 9, "extra": {"uid": "4287542", "number": "25151", "slots": 10, "bike_uids": ["431423"], "virtual": false}}, {"id": "d1b4547176a78e659e49b143a1c36404", "name": "INF - Kopfklinik/NCT", "latitude": 49.418536, "longitude": 8.664785, "timestamp": "2025-05-03T03:15:34.411833+00:00Z", "free_bikes": 13, "empty_slots": null, "extra": {"uid": "276805865", "number": "25208", "bike_uids": ["42845", "430335", "430274", "430241", "42759", "430809", "430924", "43509", "431277", "432034", "432005", "431745", "432407"], "virtual": false}}, {"id": "d1d45f470ca599a16d9d87eeaaf8e7fe", "name": "MTV - Kulturzentrum Karlstorbahnhof 2", "latitude": 49.387112, "longitude": 8.682311, "timestamp": "2025-05-03T03:15:34.411884+00:00Z", "free_bikes": 0, "empty_slots": null, "extra": {"uid": "397838281", "number": "25203", "bike_uids": [], "virtual": false}}, {"id": "d5f4e2a98b3a04fef01c1fb8d28f7919", "name": "Altstadt - Marstall", "latitude": 49.413203, "longitude": 8.70563, "timestamp": "2025-05-03T03:15:34.411207+00:00Z", "free_bikes": 0, "empty_slots": 5, "extra": {"uid": "732726", "number": "25178", "slots": 6, "bike_uids": [], "virtual": false}}, {"id": "de03186efa9c27128d41af0127043013", "name": "Neuenheim - Alte PH / Keplerstra\u00dfe", "latitude": 49.420131, "longitude": 8.684816, "timestamp": "2025-05-03T03:15:34.411304+00:00Z", "free_bikes": 0, "empty_slots": null, "extra": {"uid": "7447271", "number": "25180", "bike_uids": [], "virtual": true}}, {"id": "e01f903521f70e2765409091adce28b6", "name": "S-Bahnhof Weststadt/S\u00fcdstadt", "latitude": 49.399001, "longitude": 8.689129, "timestamp": "2025-05-03T03:15:34.410696+00:00Z", "free_bikes": 17, "empty_slots": 0, "extra": {"uid": "121354", "number": "25157", "slots": 8, "bike_uids": ["430397", "42751", "430478", "430772", "430686", "43243", "430575", "430565", "430562", "431218", "431942", "431822", "431787", "432333", "432317", "432311", "432305"], "virtual": false}}, {"id": "e0237b89f33648d1cdc02b48b646686b", "name": "Ziegelhausen \u2013 Neckarschule", "latitude": 49.419178, "longitude": 8.756586, "timestamp": "2025-05-03T03:15:34.410997+00:00Z", "free_bikes": 30, "empty_slots": 0, "extra": {"uid": "339523", "number": "25171", "slots": 8, "bike_uids": ["42981", "42935", "42804", "430368", "430340", "432536", "430247", "430158", "430000", "42756", "430419", "430845", "430843", "430791", "430776", "430647", "430569", "431287", "431275", "432074", "432045", "431856", "431846", "431805", "431750", "432284", "432268", "432512", "432451", "432375"], "virtual": false}}, {"id": "e469f75d3c1b445ed210888713f9e1e3", "name": "INF - H\u00f6rsaal Physik", "latitude": 49.41795, "longitude": 8.670553, "timestamp": "2025-05-03T03:15:34.411852+00:00Z", "free_bikes": 0, "empty_slots": null, "extra": {"uid": "276806387", "number": "25210", "bike_uids": [], "virtual": false}}, {"id": "e7238bc9d4cba9270e56e69871e01b8f", "name": "INF \u2013 Zentralmensa", "latitude": 49.416215, "longitude": 8.67119, "timestamp": "2025-05-03T03:15:34.411222+00:00Z", "free_bikes": 1, "empty_slots": 6, "extra": {"uid": "1250591", "number": "25160", "slots": 8, "bike_uids": ["430928"], "virtual": false}}, {"id": "e9ac510e1f378b32fb283e2246423402", "name": "S-Bahnhof Heidelberg-Altstadt", "latitude": 49.415036, "longitude": 8.720242, "timestamp": "2025-05-03T03:15:34.411082+00:00Z", "free_bikes": 2, "empty_slots": 4, "extra": {"uid": "509947", "number": "25162", "slots": 6, "bike_uids": ["430108", "431981"], "virtual": false}}, {"id": "e9c53197f4db9070500f176c426a6bfd", "name": "INF \u2013 Jahnstra\u00dfe", "latitude": 49.412994, "longitude": 8.676321, "timestamp": "2025-05-03T03:15:34.410781+00:00Z", "free_bikes": 1, "empty_slots": 6, "extra": {"uid": "121357", "number": "25155", "slots": 8, "bike_uids": ["431694"], "virtual": false}}, {"id": "ec734b1fc8a0c6da7d99a20359834cef", "name": "INF - Neue PH Heidelberg", "latitude": 49.419829, "longitude": 8.669628, "timestamp": "2025-05-03T03:15:34.411316+00:00Z", "free_bikes": 3, "empty_slots": null, "extra": {"uid": "7447360", "number": "25181", "bike_uids": ["430761", "431399", "431975"], "virtual": false}}, {"id": "f08e38dc6f7ad1c093bda9b56fc07f01", "name": "Wieblingen - Berufsschulen / SRH", "latitude": 49.411482, "longitude": 8.657916, "timestamp": "2025-05-03T03:15:34.411738+00:00Z", "free_bikes": 10, "empty_slots": null, "extra": {"uid": "139363232", "number": "25201", "bike_uids": ["42771", "430880", "431425", "431181", "431786", "431722", "431690", "431624", "432425", "432385"], "virtual": false}}, {"id": "f21f285e77542a621b450188ce341546", "name": "Weststadt - Gaisbergstra\u00dfe", "latitude": 49.405626, "longitude": 8.693989, "timestamp": "2025-05-03T03:15:34.411495+00:00Z", "free_bikes": 0, "empty_slots": null, "extra": {"uid": "37539484", "number": "25191", "bike_uids": [], "virtual": false}}, {"id": "f4769bf195b17e31ffd13275874c6828", "name": "Altstadt - Friedrich-Ebert Platz", "latitude": 49.409137, "longitude": 8.698125, "timestamp": "2025-05-03T03:15:34.411177+00:00Z", "free_bikes": 0, "empty_slots": 7, "extra": {"uid": "681922", "number": "25177", "slots": 8, "bike_uids": [], "virtual": false}}, {"id": "f484deb4a6691fcb167f65a60b552aa2", "name": "INF \u2013 Mathematikon", "latitude": 49.41979, "longitude": 8.67488, "timestamp": "2025-05-03T03:15:34.411243+00:00Z", "free_bikes": 1, "empty_slots": 7, "extra": {"uid": "1250605", "number": "25169", "slots": 8, "bike_uids": ["42874"], "virtual": false}}, {"id": "f6092cb90a9b85327a9378096f2f1d5e", "name": "Bergheim - Altes Hallenbad", "latitude": 49.40817, "longitude": 8.687991, "timestamp": "2025-05-03T03:15:34.411118+00:00Z", "free_bikes": 1, "empty_slots": 9, "extra": {"uid": "661043", "number": "25172", "slots": 10, "bike_uids": ["43430"], "virtual": false}}, {"id": "f92a0e53270b15f087b46a79c0ea3d29", "name": "MTV - Kulturzentrum Karlstorbahnhof 1", "latitude": 49.386176, "longitude": 8.682407, "timestamp": "2025-05-03T03:15:34.411758+00:00Z", "free_bikes": 1, "empty_slots": null, "extra": {"uid": "167361578", "number": "25202", "bike_uids": ["430052"], "virtual": false}}, {"id": "fa3e6e0d47d6e9ec2fb9f18955896d2f", "name": "Kirchheim - Geschwister-Scholl-Schule", "latitude": 49.384168, "longitude": 8.666829, "timestamp": "2025-05-03T03:15:34.411775+00:00Z", "free_bikes": 35, "empty_slots": null, "extra": {"uid": "167361814", "number": "25207", "bike_uids": ["42927", "42922", "430390", "430329", "430280", "430231", "430215", "430164", "42793", "42779", "430476", "430835", "430825", "430820", "430908", "430877", "430874", "431112", "431092", "431085", "431016", "430637", "430552", "431401", "431371", "431362", "431599", "431579", "432122", "431948", "431866", "431842", "431748", "431708", "432486"], "virtual": false}}, {"id": "fa7af2669d61cd4bced910b29978c14f", "name": "rnV Betriebshof - Wieblinger Weg", "latitude": 49.410904, "longitude": 8.648208, "timestamp": "2025-05-03T03:15:34.411897+00:00Z", "free_bikes": 0, "empty_slots": null, "extra": {"uid": "484535687", "number": "25213", "bike_uids": [], "virtual": false}}]}