{"id": "vrn-landau", "name": "VRN", "location": {"latitude": 49.1975, "longitude": 8.11693, "city": "Landau in der Pfalz", "country": "DE"}, "href": "/v2/networks/vrn-landau", "company": ["Nextbike GmbH"], "system": "Nextbike", "stations": [{"id": "1668f0d0528c2aa706207b117f6e7d38", "name": "Freibad", "latitude": 49.197492, "longitude": 8.104948, "timestamp": "2025-05-03T03:15:34.869052+00:00Z", "free_bikes": 3, "empty_slots": null, "extra": {"uid": "29088346", "number": "25510", "bike_uids": ["42979", "42913", "432022"], "virtual": false}}, {"id": "198e5a35fe28c5447f3c56a50334d1e6", "name": "Messeparkplatz", "latitude": 49.188388, "longitude": 8.132388, "timestamp": "2025-05-03T03:15:34.869095+00:00Z", "free_bikes": 6, "empty_slots": null, "extra": {"uid": "29088374", "number": "25512", "bike_uids": ["42900", "430403", "431378", "431979", "431777", "432226"], "virtual": false}}, {"id": "303371905396b56fb57227eb4e9b416f", "name": "Universit\u00e4t", "latitude": 49.20299, "longitude": 8.108661, "timestamp": "2025-05-03T03:15:34.869316+00:00Z", "free_bikes": 0, "empty_slots": null, "extra": {"uid": "29088461", "number": "25503", "bike_uids": [], "virtual": false}}, {"id": "34a43ebd67c3cbe3509de01cbd55f4f1", "name": "Alter Messplatz", "latitude": 49.200936, "longitude": 8.111062, "timestamp": "2025-05-03T03:15:34.869238+00:00Z", "free_bikes": 2, "empty_slots": null, "extra": {"uid": "29088448", "number": "25502", "bike_uids": ["42866", "431464"], "virtual": false}}, {"id": "49339bb57785a91193a35ae42332e033", "name": "Zoo", "latitude": 49.203898, "longitude": 8.11155, "timestamp": "2025-05-03T03:15:34.869014+00:00Z", "free_bikes": 8, "empty_slots": null, "extra": {"uid": "29088335", "number": "25509", "bike_uids": ["42916", "430747", "430734", "430886", "431305", "432007", "432361", "432343"], "virtual": false}}, {"id": "5ae9722200958b89bc3a0e208eb678c3", "name": "Westbahnhof", "latitude": 49.195738, "longitude": 8.107207, "timestamp": "2025-05-03T03:15:34.869335+00:00Z", "free_bikes": 7, "empty_slots": null, "extra": {"uid": "29088540", "number": "25504", "bike_uids": ["42846", "42808", "431337", "431292", "432114", "431944", "431788"], "virtual": false}}, {"id": "6d8f22b459726ba7c0a748c155149222", "name": "Danziger Platz", "latitude": 49.206846, "longitude": 8.142241, "timestamp": "2025-05-03T03:15:34.869384+00:00Z", "free_bikes": 3, "empty_slots": null, "extra": {"uid": "29088585", "number": "25506", "bike_uids": ["430360", "430057", "431300"], "virtual": false}}, {"id": "7a64a7dfc2b4b49a25be4f07dd088df6", "name": "Deutsches Tor", "latitude": 49.199976, "longitude": 8.115533, "timestamp": "2025-05-03T03:15:34.869360+00:00Z", "free_bikes": 3, "empty_slots": null, "extra": {"uid": "29088557", "number": "25505", "bike_uids": ["42989", "42730", "430750"], "virtual": false}}, {"id": "7e3071812ceb1205cb535a68d085822a", "name": "Berufsbildende Schule", "latitude": 49.206573, "longitude": 8.122887, "timestamp": "2025-05-03T03:15:34.869932+00:00Z", "free_bikes": 3, "empty_slots": null, "extra": {"uid": "29088589", "number": "25507", "bike_uids": ["430481", "432077", "432480"], "virtual": false}}, {"id": "895d20d193d3a39bafb7dd63831f907d", "name": "S\u00fcdpark", "latitude": 49.190863, "longitude": 8.118599, "timestamp": "2025-05-03T03:15:34.869995+00:00Z", "free_bikes": 9, "empty_slots": null, "extra": {"uid": "29088621", "number": "25508", "bike_uids": ["43548", "42807", "430610", "431426", "432112", "432031", "431756", "431162", "432267"], "virtual": false}}, {"id": "b8f9c1939a7691b7e3812eb6d3fd5cba", "name": "Spiel- und Sportcampus", "latitude": 49.187004, "longitude": 8.125088, "timestamp": "2025-05-03T03:15:34.869166+00:00Z", "free_bikes": 8, "empty_slots": null, "extra": {"uid": "29088389", "number": "25513", "bike_uids": ["42976", "42951", "42936", "430385", "430343", "430401", "431909", "431889"], "virtual": false}}, {"id": "ba326b8c79d3a4c7f3adf3e185988583", "name": "Rathaus", "latitude": 49.198413, "longitude": 8.11173, "timestamp": "2025-05-03T03:15:34.869217+00:00Z", "free_bikes": 6, "empty_slots": null, "extra": {"uid": "29088436", "number": "25501", "bike_uids": ["42823", "42795", "430826", "431128", "431059", "432398"], "virtual": false}}, {"id": "f423f553c349b1301a0b59936da02794", "name": "Hauptbahnhof", "latitude": 49.198399, "longitude": 8.125418, "timestamp": "2025-05-03T03:15:34.869196+00:00Z", "free_bikes": 1, "empty_slots": null, "extra": {"uid": "29088413", "number": "25500", "bike_uids": ["430822"], "virtual": false}}, {"id": "f7a5971310395e846cf84d42e7f56ca4", "name": "Obertorplatz", "latitude": 49.194919, "longitude": 8.113004, "timestamp": "2025-05-03T03:15:34.869074+00:00Z", "free_bikes": 4, "empty_slots": null, "extra": {"uid": "29088360", "number": "25511", "bike_uids": ["431009", "431542", "431503", "431852"], "virtual": false}}]}