{"id": "vrn-schwetzingen", "name": "VRN", "location": {"latitude": 49.3863, "longitude": 8.5756, "city": "Schwetzingen", "country": "DE"}, "href": "/v2/networks/vrn-schwetzingen", "company": ["Nextbike GmbH"], "system": "Nextbike", "stations": [{"id": "056e1a337411558da35a5cee507c9b74", "name": "Friedrich-Ebert-Platz", "latitude": 49.39178, "longitude": 8.568698, "timestamp": "2025-05-03T03:21:36.663369+00:00Z", "free_bikes": 3, "empty_slots": null, "extra": {"uid": "136766098", "number": "25412", "bike_uids": ["430489", "43720", "432514"], "virtual": false}}, {"id": "2820184644fc520d298fd1ea54834d88", "name": "Tourist-Information", "latitude": 49.38553, "longitude": 8.571294, "timestamp": "2025-05-03T03:21:36.663157+00:00Z", "free_bikes": 4, "empty_slots": 0, "extra": {"uid": "6290742", "number": "25400", "slots": 4, "bike_uids": ["430272", "430911", "430614", "431679"], "virtual": false}}, {"id": "33dba1ef9c50d3fae158796cebe1b395", "name": "Jugendzentrum GO IN", "latitude": 49.380232, "longitude": 8.574663, "timestamp": "2025-05-03T03:21:36.663250+00:00Z", "free_bikes": 5, "empty_slots": 1, "extra": {"uid": "6290826", "number": "25404", "slots": 6, "bike_uids": ["42905", "430044", "431096", "431374", "432072"], "virtual": false}}, {"id": "3fcf008f772d5c4ab83b1478e160ab19", "name": "Decathlon Schwetzingen", "latitude": 49.395642, "longitude": 8.578697, "timestamp": "2025-05-03T03:21:36.663419+00:00Z", "free_bikes": 4, "empty_slots": null, "extra": {"uid": "262643956", "number": "25413", "bike_uids": ["42881", "42798", "430450", "430572"], "virtual": false}}, {"id": "41e2aa0cb9c2b6c1cc0cd4970733869a", "name": "S-Bahnhof Schwetzingen-Hirschacker", "latitude": 49.406851, "longitude": 8.554959, "timestamp": "2025-05-03T03:21:36.663385+00:00Z", "free_bikes": 0, "empty_slots": null, "extra": {"uid": "195390615", "number": "25414", "bike_uids": [], "virtual": false}}, {"id": "53b2daa388f88a6caac19fb3d65e39b5", "name": "Schlossplatz Schwetzingen", "latitude": 49.384262, "longitude": 8.572598, "timestamp": "2025-05-03T03:21:36.663201+00:00Z", "free_bikes": 13, "empty_slots": 0, "extra": {"uid": "6290772", "number": "25401", "slots": 4, "bike_uids": ["430066", "430404", "430840", "43650", "430622", "431341", "431724", "431669", "432274", "432254", "432518", "432475", "432467"], "virtual": false}}, {"id": "564d4fd9e416ff4e248580bb99139532", "name": "Schwetzinger H\u00f6fe", "latitude": 49.381157, "longitude": 8.582275, "timestamp": "2025-05-03T03:21:36.663437+00:00Z", "free_bikes": 1, "empty_slots": null, "extra": {"uid": "450022334", "number": "25417", "bike_uids": ["431022"], "virtual": false}}, {"id": "76cb48abe21f107663d90578d494002a", "name": "Bellamar", "latitude": 49.381343, "longitude": 8.588181, "timestamp": "2025-05-03T03:21:36.663270+00:00Z", "free_bikes": 1, "empty_slots": 7, "extra": {"uid": "6290834", "number": "25405", "slots": 8, "bike_uids": ["44456"], "virtual": false}}, {"id": "8525b5bc1819850c92628f0a8ab57186", "name": "Berliner Platz", "latitude": 49.390781, "longitude": 8.573284, "timestamp": "2025-05-03T03:21:36.663399+00:00Z", "free_bikes": 8, "empty_slots": null, "extra": {"uid": "224497266", "number": "25415", "bike_uids": ["430391", "430144", "430797", "432086", "431877", "431652", "432465", "432400"], "virtual": false}}, {"id": "a665cab669e9c2be8c5d0846a9bdbab4", "name": "Dreibr\u00fcckentor/ Schlossgarten", "latitude": 49.387122, "longitude": 8.567002, "timestamp": "2025-05-03T03:21:36.663288+00:00Z", "free_bikes": 2, "empty_slots": 2, "extra": {"uid": "6290864", "number": "25408", "slots": 4, "bike_uids": ["431190", "430525"], "virtual": false}}, {"id": "b8609e63f64900cf0da0cb5136b84718", "name": "Z\u00e4hringerstra\u00dfe / Schlossgarten", "latitude": 49.38078, "longitude": 8.570811, "timestamp": "2025-05-03T03:21:36.663228+00:00Z", "free_bikes": 2, "empty_slots": 2, "extra": {"uid": "6290823", "number": "25403", "slots": 4, "bike_uids": ["431032", "431561"], "virtual": false}}, {"id": "bd5a2d6c62faf36d0974cb9e4c6cf44b", "name": "Friedhof", "latitude": 49.394105, "longitude": 8.562212, "timestamp": "2025-05-03T03:21:36.663330+00:00Z", "free_bikes": 4, "empty_slots": 0, "extra": {"uid": "6290877", "number": "25410", "slots": 4, "bike_uids": ["431017", "430621", "432071", "432283"], "virtual": false}}, {"id": "c166bf67ec4dc4ae4f70171bde7965c1", "name": "Bahnhof", "latitude": 49.384821, "longitude": 8.577678, "timestamp": "2025-05-03T03:21:36.663348+00:00Z", "free_bikes": 8, "empty_slots": 2, "extra": {"uid": "6329839", "number": "25406", "slots": 10, "bike_uids": ["42812", "430192", "430048", "430544", "432119", "432362", "432411", "432394"], "virtual": false}}, {"id": "ddcab9a8442dfcca7f40b038e8ad3f40", "name": "GRN-Klinik Schwetzingen", "latitude": 49.379076, "longitude": 8.569449, "timestamp": "2025-05-03T03:21:36.663308+00:00Z", "free_bikes": 6, "empty_slots": 0, "extra": {"uid": "6290868", "number": "25409", "slots": 6, "bike_uids": ["43291", "430300", "430499", "432043", "432286", "432413"], "virtual": false}}]}