{"id": "wolf-ride-bike-share", "name": "Wolf Ride Bike Share (Stony Brook University)", "location": {"latitude": 40.9124, "longitude": -73.1249, "city": "Stony Brook", "country": "US"}, "href": "/v2/networks/wolf-ride-bike-share", "company": ["Stony Brook University"], "gbfs_href": "https://sbu.publicbikesystem.net/customer/gbfs/v2/gbfs.json", "stations": [{"id": "1b9970e4cdfde678f884974cc537f9d4", "name": "LIRR", "latitude": 40.920029, "longitude": -73.128253, "timestamp": "2025-05-03T02:54:43.920245+00:00Z", "free_bikes": 9, "empty_slots": 18, "extra": {"uid": "11", "renting": true, "returning": true, "last_updated": 1746240812, "address": "Rail Road Station 24", "payment": ["key", "transitcard", "creditcard", "phone"], "payment-terminal": true, "altitude": null, "slots": 27, "normal_bikes": 9, "rental_uris": {}, "virtual": false}}, {"id": "2b9f9ba032bca5b7e6fcd5b0dcb914db", "name": "Library", "latitude": 40.916063, "longitude": -73.123487, "timestamp": "2025-05-03T02:54:43.919951+00:00Z", "free_bikes": 0, "empty_slots": 22, "extra": {"uid": "2", "renting": true, "returning": true, "last_updated": 1746240821, "address": "Library", "payment": ["key", "transitcard", "creditcard", "phone"], "payment-terminal": true, "altitude": null, "slots": 23, "normal_bikes": 0, "rental_uris": {}, "virtual": false}}, {"id": "5486594bc6ed45e0e2d61d722811fe79", "name": "West Side Dining Station", "latitude": 40.912488, "longitude": -73.130267, "timestamp": "2025-05-03T02:54:43.920311+00:00Z", "free_bikes": 3, "empty_slots": 19, "extra": {"uid": "17", "renting": true, "returning": true, "last_updated": 1746240768, "address": "West Side Dining Station", "post_code": "12345", "payment": ["key", "transitcard", "creditcard", "phone"], "payment-terminal": true, "altitude": 0.0, "slots": 23, "normal_bikes": 3, "rental_uris": {}, "virtual": false}}, {"id": "6e6cc82c190d7a1c5589a4c7f55712f8", "name": "Javits", "latitude": 40.913415, "longitude": -73.12142, "timestamp": "2025-05-03T02:54:43.920158+00:00Z", "free_bikes": 0, "empty_slots": 15, "extra": {"uid": "7", "renting": true, "returning": true, "last_updated": 1746240756, "address": "Javits", "payment": ["key", "transitcard", "creditcard", "phone"], "payment-terminal": true, "altitude": null, "slots": 15, "normal_bikes": 0, "rental_uris": {}, "virtual": false}}, {"id": "775a48f2d38c309fa6a774ff4aab3e2d", "name": "West Apartments I", "latitude": 40.913337, "longitude": -73.134329, "timestamp": "2025-05-03T02:54:43.920028+00:00Z", "free_bikes": 4, "empty_slots": 18, "extra": {"uid": "3", "renting": true, "returning": true, "last_updated": 1746240702, "address": "West Drive", "payment": ["key", "transitcard", "creditcard", "phone"], "payment-terminal": true, "altitude": null, "slots": 22, "normal_bikes": 4, "rental_uris": {}, "virtual": false}}, {"id": "77efdf437d25553c24bd00e51925fd60", "name": "Life Sciences", "latitude": 40.911341, "longitude": -73.120833, "timestamp": "2025-05-03T02:54:43.920138+00:00Z", "free_bikes": 1, "empty_slots": 13, "extra": {"uid": "6", "renting": true, "returning": true, "last_updated": 1746240759, "address": "Life Sciences", "payment": ["key", "transitcard", "creditcard", "phone"], "payment-terminal": true, "altitude": null, "slots": 14, "normal_bikes": 1, "rental_uris": {}, "virtual": false}}, {"id": "841b2a985ac76508cbd82feab22d4ae9", "name": "South Campus", "latitude": 40.9045, "longitude": -73.1212, "timestamp": "2025-05-03T02:54:43.920291+00:00Z", "free_bikes": 0, "empty_slots": 23, "extra": {"uid": "15", "renting": true, "returning": true, "last_updated": 1746215543, "address": "South Campus, Stony Brook University", "post_code": "12344", "payment": ["key", "transitcard", "creditcard", "phone"], "payment-terminal": true, "altitude": null, "slots": 23, "normal_bikes": 0, "rental_uris": {}, "virtual": false}}, {"id": "9784ba3e1f3342bb25c2dc3efae6c124", "name": "James Hall", "latitude": 40.919144, "longitude": -73.120874, "timestamp": "2025-05-03T02:54:43.920179+00:00Z", "free_bikes": 1, "empty_slots": 13, "extra": {"uid": "8", "renting": true, "returning": true, "last_updated": 1746199873, "address": "James College", "payment": ["key", "transitcard", "creditcard", "phone"], "payment-terminal": true, "altitude": null, "slots": 15, "normal_bikes": 1, "rental_uris": {}, "virtual": false}}, {"id": "d36d7fd47028ac15cb92b1dd9a1c2024", "name": "South P Lot", "latitude": 40.896691, "longitude": -73.126439, "timestamp": "2025-05-03T02:54:43.920057+00:00Z", "free_bikes": 8, "empty_slots": 29, "extra": {"uid": "4", "renting": true, "returning": true, "last_updated": 1746225089, "address": "South Drive", "payment": ["key", "transitcard", "creditcard", "phone"], "payment-terminal": true, "altitude": null, "slots": 39, "normal_bikes": 8, "rental_uris": {}, "virtual": false}}, {"id": "df185823c5ca6921f657d248c879054a", "name": "Tabler Community", "latitude": 40.910046, "longitude": -73.124813, "timestamp": "2025-05-03T02:54:43.920195+00:00Z", "free_bikes": 1, "empty_slots": 21, "extra": {"uid": "9", "renting": true, "returning": true, "last_updated": 1746240747, "address": "Tabler Quad  23", "payment": ["key", "transitcard", "creditcard", "phone"], "payment-terminal": true, "altitude": null, "slots": 22, "normal_bikes": 1, "rental_uris": {}, "virtual": false}}, {"id": "e1d51fbbb15d87482b4df991fd36cfb6", "name": "SAC", "latitude": 40.91441, "longitude": -73.124648, "timestamp": "2025-05-03T02:54:43.919915+00:00Z", "free_bikes": 0, "empty_slots": 23, "extra": {"uid": "1", "renting": true, "returning": true, "last_updated": 1746240852, "address": "SAC", "payment": ["key", "transitcard", "creditcard", "phone"], "payment-terminal": true, "altitude": null, "slots": 23, "normal_bikes": 0, "rental_uris": {}, "virtual": false}}, {"id": "e23c3d5e37be9bcd7d0b30dab16249ae", "name": "Wang Center", "latitude": 40.916383, "longitude": -73.118282, "timestamp": "2025-05-03T02:54:43.920215+00:00Z", "free_bikes": 6, "empty_slots": 8, "extra": {"uid": "10", "renting": true, "returning": true, "last_updated": 1746240753, "address": "Wang Center 22", "payment": ["key", "transitcard", "creditcard", "phone"], "payment-terminal": true, "altitude": null, "slots": 15, "normal_bikes": 6, "rental_uris": {}, "virtual": false}}, {"id": "e2fd5c3dd4c3c15c615f1583fdb8d27b", "name": "West Apartments C", "latitude": 40.911724, "longitude": -73.132897, "timestamp": "2025-05-03T02:54:43.920111+00:00Z", "free_bikes": 8, "empty_slots": 7, "extra": {"uid": "5", "renting": true, "returning": true, "last_updated": 1745603337, "address": "West Apartments C", "payment": ["key", "transitcard", "creditcard", "phone"], "payment-terminal": true, "altitude": null, "slots": 15, "normal_bikes": 8, "rental_uris": {}, "virtual": false}}, {"id": "ef12179c8a4380434b270cbfee25e68d", "name": "Athletic Fields", "latitude": 40.92148, "longitude": -73.126721, "timestamp": "2025-05-03T02:54:43.920268+00:00Z", "free_bikes": 0, "empty_slots": 14, "extra": {"uid": "12", "renting": true, "returning": true, "last_updated": 1746240812, "address": "Athletic Fields 25", "payment": ["key", "transitcard", "creditcard", "phone"], "payment-terminal": true, "altitude": null, "slots": 14, "normal_bikes": 0, "rental_uris": {}, "virtual": false}}]}