{"id": "youbike-pingtung-county", "name": "YouBike", "location": {"latitude": 22.683, "longitude": 120.4879, "city": "\u5c4f\u6771\u7e23 Pingtung County", "country": "TW"}, "href": "/v2/networks/youbike-pingtung-county", "company": ["YouBike Co., Ltd."], "system": "YouBike", "stations": [{"id": "02ee8175948156da332243fe549d0a54", "name": "\u6771\u6e2f\u4e2d\u5c71\u8def\u7acb\u9ad4\u505c\u8eca\u5834", "latitude": 22.46625, "longitude": 120.45109, "timestamp": "2025-04-17T03:06:57.723246Z", "free_bikes": 17, "empty_slots": 3, "extra": {"uid": "501402067", "district": "\u6771\u6e2f\u93ae", "address": "\u4e2d\u5c71\u8def35-1\u865f", "slots": 20, "normal_bikes": 14, "ebikes": 3, "last_updated": "2025-04-17 10:13:19", "online": true, "youbike_version": 2, "en": {"name": "Donggang Zhongshan Road Parking Garage", "district": "Donggang Town", "address": "No. 35-1, Zhongshan Rd."}}}, {"id": "065039be1d580f54446e9e12a14420c0", "name": "\u6797\u5f8c\u56db\u6797\u5e73\u5730\u68ee\u6797\u5712\u5340\u505c\u8eca\u5834", "latitude": 22.53792, "longitude": 120.59144, "timestamp": "2025-04-17T03:06:57.723481Z", "free_bikes": 7, "empty_slots": 18, "extra": {"uid": "501404037", "district": "\u6f6e\u5dde\u93ae", "address": "\u6797\u5f8c\u56db\u6797\u5e73\u5730\u68ee\u6797\u5712\u5340\u505c\u8eca\u5834(\u6a5f\u8eca\u683c)", "slots": 25, "normal_bikes": 5, "ebikes": 2, "last_updated": "2025-04-17 09:10:25", "online": true, "youbike_version": 2, "en": {"name": "Linhousilin Forest Park  Parking Lot", "district": "Chaozhou Town", "address": "Linhousilin Forest Park Parking Lot"}}}, {"id": "07b5568e0dd4001b77134490535e431c", "name": "\u5927\u540c\u9ad8\u4e2d(\u52dd\u5229\u5927\u540c\u5317\u8def\u53e3)", "latitude": 22.67871, "longitude": 120.4751, "timestamp": "2025-04-17T03:06:57.722812Z", "free_bikes": 6, "empty_slots": 9, "extra": {"uid": "501401025", "district": "\u5c4f\u6771\u5e02", "address": "\u52dd\u5229\u8def/\u5927\u540c\u5317\u8def\u53e3", "slots": 15, "normal_bikes": 5, "ebikes": 1, "last_updated": "2025-04-17 08:40:24", "online": true, "youbike_version": 2, "en": {"name": "Pingtung County Da Tung Senior High School (Shengli Datong N. Rd. Intersection)", "district": "Pingtung City", "address": "Shengli Rd./Datong N. Rd. Intersection"}}}, {"id": "0a852ff625cb0a5f2962e8ec5abe565d", "name": "\u6046\u6625\u65c5\u904a\u91ab\u9662", "latitude": 21.9991, "longitude": 120.74432, "timestamp": "2025-04-17T03:06:57.723442Z", "free_bikes": 6, "empty_slots": 17, "extra": {"uid": "501403135", "district": "\u6046\u6625\u93ae", "address": "\u6046\u5357\u8def188\u865f", "slots": 23, "normal_bikes": 1, "ebikes": 5, "last_updated": "2025-04-16 16:00:27", "online": true, "youbike_version": 2, "en": {"name": "Hengchun Tourism Hospital", "district": "Hengchun Town", "address": "No. 188, Hengnan Rd."}}}, {"id": "0b55cf9245d62ada8919356a6bd9a79a", "name": "\u5927\u9d6c\u7063\u7ba1\u7406\u8655\u505c\u8eca\u5834", "latitude": 22.45712, "longitude": 120.47963, "timestamp": "2025-04-17T03:06:57.723253Z", "free_bikes": 9, "empty_slots": 12, "extra": {"uid": "501402068", "district": "\u6771\u6e2f\u93ae", "address": "\u5927\u6f6d\u8def169\u865f", "slots": 21, "normal_bikes": 5, "ebikes": 4, "last_updated": "2025-04-17 05:24:17", "online": true, "youbike_version": 2, "en": {"name": "Dapeng Bay Scenic Area Administration Parking Lot", "district": "Donggang Town", "address": "No. 169, Datan Rd."}}}, {"id": "0d5c86dc9fb77622e7002efd64f59dca", "name": "\u5c4f\u6771\u74b0\u7403\u8cfc\u7269\u4e2d\u5fc3", "latitude": 22.67337, "longitude": 120.49366, "timestamp": "2025-04-17T03:06:57.722900Z", "free_bikes": 16, "empty_slots": 11, "extra": {"uid": "501401049", "district": "\u5c4f\u6771\u5e02", "address": "\u516c\u5712\u8def/\u4ec1\u611b\u8def\u53e3(\u6771\u5357\u5074)", "slots": 29, "normal_bikes": 13, "ebikes": 3, "last_updated": "2025-04-17 10:13:19", "online": true, "youbike_version": 2, "en": {"name": "Pingtung Global Mall", "district": "Pingtung City", "address": "Gongyuan Rd./Ren'ai Rd.(Southeast)"}}}, {"id": "0e603a7564715e49d87670f5c074ef4f", "name": "\u6046\u6625\u8f49\u904b\u7ad9", "latitude": 22.00279, "longitude": 120.74548, "timestamp": "2025-04-17T03:06:57.723327Z", "free_bikes": 9, "empty_slots": 10, "extra": {"uid": "501403079", "district": "\u6046\u6625\u93ae", "address": "\u4e2d\u6b63\u8def30\u865f", "slots": 19, "normal_bikes": 4, "ebikes": 5, "last_updated": "2025-04-16 15:10:25", "online": true, "youbike_version": 2, "en": {"name": "Hengchun Bus Station", "district": "Hengchun Town", "address": "No. 30, Zhongzheng Rd."}}}, {"id": "12296ac3884e07ab0be07d9bc46faa5f", "name": "\u5fe0\u5b5d\u516c\u5712(\u5efa\u8c50\u8def)", "latitude": 22.67625, "longitude": 120.50434, "timestamp": "2025-04-17T03:06:57.723046Z", "free_bikes": 4, "empty_slots": 11, "extra": {"uid": "501401073", "district": "\u5c4f\u6771\u5e02", "address": "\u5efa\u8c50\u8def/\u9ad8\u8c50\u8857(\u6771\u5317\u5074)", "slots": 15, "normal_bikes": 1, "ebikes": 3, "last_updated": "2025-04-17 09:50:27", "online": true, "youbike_version": 2, "en": {"name": "Zhongxiao Park (Jianfeng Rd.)", "district": "Pingtung City", "address": "Jianfeng Rd./Gaofeng St.(Northeast)"}}}, {"id": "18f92584d8dad9557a53311a245fe2df", "name": "\u6c38\u5927\u5171\u878d\u516c\u5712", "latitude": 22.66042, "longitude": 120.47776, "timestamp": "2025-04-17T03:06:57.722998Z", "free_bikes": 2, "empty_slots": 16, "extra": {"uid": "501401053", "district": "\u5c4f\u6771\u5e02", "address": "\u6c38\u5927\u8def70\u865f\u65c1\u516c\u5712", "slots": 18, "normal_bikes": 2, "ebikes": 0, "last_updated": "2025-04-17 08:24:17", "online": true, "youbike_version": 2, "en": {"name": "Yongtai Community Park", "district": "Pingtung City", "address": "No. 70, Yongda Rd."}}}, {"id": "1b1852dbb2b3b439a845dbdebae41e98", "name": "\u6046\u6625\u7acb\u9ad4\u505c\u8eca\u5834", "latitude": 22.00418, "longitude": 120.74754, "timestamp": "2025-04-17T03:06:57.723315Z", "free_bikes": 7, "empty_slots": 16, "extra": {"uid": "501403075", "district": "\u6046\u6625\u93ae", "address": "\u6771\u9580\u8def124\u865f\u5c0d\u5074", "slots": 23, "normal_bikes": 3, "ebikes": 4, "last_updated": "2025-04-14 19:50:25", "online": true, "youbike_version": 2, "en": {"name": "Hengchun Parking Garage", "district": "Hengchun Town", "address": "No. 124, Dongmen Rd.(Opposite)"}}}, {"id": "1cb3e2ef5652fe73bfb3b2b9cdc5a1b1", "name": "\u6f6e\u5dde\u8f49\u904b\u7ad9\u524d\u505c\u8eca\u5834", "latitude": 22.55173, "longitude": 120.53682, "timestamp": "2025-04-17T03:06:57.723500Z", "free_bikes": 7, "empty_slots": 13, "extra": {"uid": "501404042", "district": "\u6f6e\u5dde\u93ae", "address": "\u4e2d\u5c71\u516b\u5df7/\u516d\u5408\u8def\u53e3(\u897f\u5317\u5074)", "slots": 20, "normal_bikes": 7, "ebikes": 0, "last_updated": "2025-04-17 09:22:18", "online": true, "youbike_version": 2, "en": {"name": "Chaozhou Bus Station opposite parking lot", "district": "Chaozhou Town", "address": "Zhongshan 8th Ln./Liuhe Rd.(Northwest)"}}}, {"id": "1d2b0405a62f585fee67bdc810b1bb02", "name": "\u5c4f\u6771\u7389\u7687\u5bae(\u81ea\u7acb\u8def)", "latitude": 22.66628572, "longitude": 120.4924628, "timestamp": "2025-04-17T03:06:57.722720Z", "free_bikes": 10, "empty_slots": 5, "extra": {"uid": "501401014", "district": "\u5c4f\u6771\u5e02", "address": "\u81ea\u7acb\u8def165\u865f\u5c0d\u5074", "slots": 15, "normal_bikes": 7, "ebikes": 3, "last_updated": "2025-04-17 10:50:25", "online": true, "youbike_version": 2, "en": {"name": "Pingtung Yuhuang Temple (Zili Rd.)", "district": "Pingtung City", "address": "No.165, Zili Rd.(Opposite)"}}}, {"id": "1db5cde996108fd41eb0f62f78500f2c", "name": "\u5fa9\u8208\u516c\u5712(\u81ea\u7acb\u5357\u8def)", "latitude": 22.65845, "longitude": 120.4812, "timestamp": "2025-04-17T03:06:57.723009Z", "free_bikes": 5, "empty_slots": 11, "extra": {"uid": "501401054", "district": "\u5c4f\u6771\u5e02", "address": "\u5fa9\u8208\u516c\u5712\u897f\u5357\u5074\u505c\u8eca\u5834", "slots": 16, "normal_bikes": 1, "ebikes": 4, "last_updated": "2025-04-17 08:40:24", "online": true, "youbike_version": 2, "en": {"name": "Fuxing Park (Zili S. Rd.)", "district": "Pingtung City", "address": "Fuxing Park (Southwest Parking Lot )"}}}, {"id": "1ed66caf4d3da16acf30e96ac267b360", "name": "\u6046\u6625\u5357\u9580(\u5357\u9580\u8def14\u5df7)", "latitude": 22.00092, "longitude": 120.74644, "timestamp": "2025-04-17T03:06:57.723381Z", "free_bikes": 5, "empty_slots": 15, "extra": {"uid": "501403108", "district": "\u6046\u6625\u93ae", "address": "\u5357\u9580\u8def14\u5df7/\u6797\u68ee\u8def(\u897f\u5357\u5074)", "slots": 20, "normal_bikes": 5, "ebikes": 0, "last_updated": "2025-04-17 06:40:25", "online": true, "youbike_version": 2, "en": {"name": "Hengchun South Gate(Ln. 14, Nanmen Rd.)", "district": "Hengchun Town", "address": "Ln. 14, Nanmen Rd./Linsen Rd.(Southwest)"}}}, {"id": "1fd06793e585d5c36d4f9238456a2a71", "name": "\u5149\u83ef\u570b\u5c0f", "latitude": 22.54815, "longitude": 120.5429, "timestamp": "2025-04-17T03:06:57.723506Z", "free_bikes": 1, "empty_slots": 14, "extra": {"uid": "501404043", "district": "\u6f6e\u5dde\u93ae", "address": "\u5357\u9032\u8def21\u865f\u5c0d\u5074", "slots": 15, "normal_bikes": 0, "ebikes": 1, "last_updated": "2025-04-16 17:47:18", "online": true, "youbike_version": 2, "en": {"name": "GuangHua  Elementary School", "district": "Chaozhou Town", "address": "No. 21, Nanjin Rd.(Opposite)"}}}, {"id": "23cf0ed1b70253c15107bb58b9cf4770", "name": "\u5c71\u8173\u91cc\u793e\u5340\u6d3b\u52d5\u4e2d\u5fc3", "latitude": 21.99792, "longitude": 120.74314, "timestamp": "2025-04-17T03:06:57.723338Z", "free_bikes": 10, "empty_slots": 12, "extra": {"uid": "501403081", "district": "\u6046\u6625\u93ae", "address": "\u6046\u5357\u8def1\u5df760\u865f\u5f8c", "slots": 22, "normal_bikes": 3, "ebikes": 7, "last_updated": "2025-04-16 01:10:25", "online": true, "youbike_version": 2, "en": {"name": "Shanjiao Community Center", "district": "Hengchun Town", "address": "No. 60, Ln. 1, Hengnan Rd."}}}, {"id": "286aba06a7427327588feb7dff5eeaeb", "name": "\u9678\u8208\u9ad8\u4e2d", "latitude": 22.67407, "longitude": 120.50072, "timestamp": "2025-04-17T03:06:57.722798Z", "free_bikes": 19, "empty_slots": 6, "extra": {"uid": "501401024", "district": "\u5c4f\u6771\u5e02", "address": "\u6c11\u5b78\u8def/\u5ee3\u6771\u8def\u53e3(\u6c11\u5b78\u8def\u5b78\u6821\u5074\u9580\u65c1)", "slots": 25, "normal_bikes": 2, "ebikes": 17, "last_updated": "2025-04-17 09:03:17", "online": true, "youbike_version": 2, "en": {"name": "Pingtung County Lu Shing Senior High School", "district": "Pingtung City", "address": "Minxue Rd./Guangdong Rd.(School side door)"}}}, {"id": "28c7e4df6438dd432901bf5a51161123", "name": "\u8b66\u653f\u5712\u5340", "latitude": 22.54667, "longitude": 120.56287, "timestamp": "2025-04-17T03:06:57.723487Z", "free_bikes": 8, "empty_slots": 7, "extra": {"uid": "501404038", "district": "\u6f6e\u5dde\u93ae", "address": "\u6f6e\u5dde\u7da0\u8272\u96a7\u9053(\u8b66\u653f\u5712\u5340)", "slots": 15, "normal_bikes": 5, "ebikes": 3, "last_updated": "2025-04-17 10:32:18", "online": true, "youbike_version": 2, "en": {"name": "Jing Jheng Park", "district": "Chaozhou Town", "address": "Chaozhou Green Tunnel(Police Park)"}}}, {"id": "2a44394fe3ac631d1eaabbd07dcc7efa", "name": "\u4e2d\u6b63\u570b\u4e2d(\u7530\u5bee\u5df7)", "latitude": 22.67363, "longitude": 120.50896, "timestamp": "2025-04-17T03:06:57.723026Z", "free_bikes": 4, "empty_slots": 25, "extra": {"uid": "501401059", "district": "\u5c4f\u6771\u5e02", "address": "\u7530\u5bee\u5df719\u4e4b16\u865f\u5c0d\u5074", "slots": 30, "normal_bikes": 3, "ebikes": 1, "last_updated": "2025-04-17 06:41:18", "online": true, "youbike_version": 2, "en": {"name": "Chungcheng Junior High School (Tianliao Ln.)", "district": "Pingtung City", "address": "No. 19-16, Tianliao Ln.(Opposite)"}}}, {"id": "31488deb0299ae73b7d1ed73f3cbaf16", "name": "\u5d07\u5927\u65b0\u57ce", "latitude": 22.66276, "longitude": 120.47878, "timestamp": "2025-04-17T03:06:57.723037Z", "free_bikes": 2, "empty_slots": 16, "extra": {"uid": "501401060", "district": "\u5c4f\u6771\u5e02", "address": "\u83ef\u76db\u8857/\u83ef\u76db\u885718\u5df7\u53e3", "slots": 19, "normal_bikes": 2, "ebikes": 0, "last_updated": "2025-04-17 09:10:25", "online": true, "youbike_version": 2, "en": {"name": "Chongdaxincheng", "district": "Pingtung City", "address": "Huasheng St./Ln. 18, Huasheng St."}}}, {"id": "3190bd28d23cd507d86f65426138592a", "name": "\u5927\u5149\u6d3b\u52d5\u4e2d\u5fc3", "latitude": 21.94993, "longitude": 120.74043, "timestamp": "2025-04-17T03:06:57.723406Z", "free_bikes": 4, "empty_slots": 11, "extra": {"uid": "501403112", "district": "\u6046\u6625\u93ae", "address": "\u5927\u5149\u8def26-6\u865f", "slots": 15, "normal_bikes": 4, "ebikes": 0, "last_updated": "2025-04-13 14:30:25", "online": true, "youbike_version": 2, "en": {"name": "Daguang Community Center", "district": "Hengchun Town", "address": "No. 26-6, Daguang Rd."}}}, {"id": "3833e0a220c140041ee06c1c72815245", "name": "\u5c4f\u6771\u5730\u65b9\u6cd5\u9662", "latitude": 22.65695, "longitude": 120.48356, "timestamp": "2025-04-17T03:06:57.723157Z", "free_bikes": 17, "empty_slots": 13, "extra": {"uid": "501401115", "district": "\u5c4f\u6771\u5e02", "address": "\u68d2\u7403\u8def9\u865f", "slots": 30, "normal_bikes": 15, "ebikes": 2, "last_updated": "2025-04-17 09:40:24", "online": true, "youbike_version": 2, "en": {"name": "Pingtung District Court", "district": "Pingtung City", "address": "No. 9, Bangqiu Rd."}}}, {"id": "3b38c0105c6691bed947942f38342691", "name": "\u5d07\u862d\u570b\u5c0f", "latitude": 22.68484341, "longitude": 120.4770433, "timestamp": "2025-04-17T03:06:57.722653Z", "free_bikes": 6, "empty_slots": 5, "extra": {"uid": "501401004", "district": "\u5c4f\u6771\u5e02", "address": "\u5ee3\u6771\u8def/\u5d07\u660e\u4e8c\u8857\u53e3", "slots": 11, "normal_bikes": 2, "ebikes": 4, "last_updated": "2025-04-17 09:10:25", "online": true, "youbike_version": 2, "en": {"name": "Chonglan Primary School", "district": "Pingtung City", "address": "Guangdong Rd./Chongming 2nd St.,"}}}, {"id": "3c4b26df1ffe0734c197872137b81985", "name": "\u5c4f\u6771\u69ae\u6c11\u7e3d\u91ab\u9662", "latitude": 22.66221034, "longitude": 120.4760297, "timestamp": "2025-04-17T03:06:57.722726Z", "free_bikes": 14, "empty_slots": 22, "extra": {"uid": "501401015", "district": "\u5c4f\u6771\u5e02", "address": "\u69ae\u7e3d\u6771\u8def(\u69ae\u7e3d\u6b63\u9580\u8eca\u9053\u5357\u5074\u4eba\u884c\u9053)", "slots": 36, "normal_bikes": 9, "ebikes": 5, "last_updated": "2025-04-17 10:50:25", "online": true, "youbike_version": 2, "en": {"name": "Pingtung Veterans General Hospital", "district": "Pingtung City", "address": "Rongzong East Rd.(South)"}}}, {"id": "3d2e361b4d2a26d78732b8065f4e4ac9", "name": "\u58be\u4e01\u5927\u7063\u8def\u53e3", "latitude": 21.94598, "longitude": 120.79579, "timestamp": "2025-04-17T03:06:57.723344Z", "free_bikes": 0, "empty_slots": 0, "extra": {"uid": "501403099", "district": "\u6046\u6625\u93ae", "address": "\u58be\u4e01\u8def/\u5927\u7063\u8def(\u6771\u5357\u5074)", "slots": 50, "normal_bikes": 0, "ebikes": 0, "last_updated": "2025-02-10 11:14:20", "online": false, "youbike_version": 2, "en": {"name": "Kending Dawan Rd. Intersection", "district": "Hengchun Town", "address": "Kending Rd./ Dawan Rd.(Southeast)"}}}, {"id": "40862bfee984048ed19735c84623fd11", "name": "\u6771\u6e2f\u884c\u653f\u4e2d\u5fc3\u7acb\u9ad4\u505c\u8eca\u5834", "latitude": 22.46475, "longitude": 120.45891, "timestamp": "2025-04-17T03:06:57.723297Z", "free_bikes": 6, "empty_slots": 9, "extra": {"uid": "501402130", "district": "\u6771\u6e2f\u93ae", "address": "\u65b0\u7fa9\u8def85\u865f", "slots": 15, "normal_bikes": 5, "ebikes": 1, "last_updated": "2025-04-16 07:40:25", "online": true, "youbike_version": 2, "en": {"name": "Donggang Administration Center Parking Garage", "district": "Donggang Town", "address": "No. 85, Xinyi Rd."}}}, {"id": "40fc62bddc46f152d05bb698e7c5da5e", "name": "\u6f6e\u5dde\u904b\u52d5\u516c\u5712", "latitude": 22.54554, "longitude": 120.548833, "timestamp": "2025-04-17T03:06:57.723549Z", "free_bikes": 6, "empty_slots": 9, "extra": {"uid": "501404094", "district": "\u6f6e\u5dde\u93ae", "address": "\u798f\u8208\u8def/\u4e09\u57ce\u8def(\u897f\u5357\u5074)", "slots": 15, "normal_bikes": 5, "ebikes": 1, "last_updated": "2025-04-17 00:00:24", "online": true, "youbike_version": 2, "en": {"name": "Chaozhou Sports Park", "district": "Chaozhou Town", "address": "Fuxing Rd./Sancheng Rd.(Southwest)"}}}, {"id": "41c847903d85bb5cb167e1687a70f79f", "name": "\u6c11\u6cbb\u6eaa(\u5357\u4eac\u8def)", "latitude": 22.54615, "longitude": 120.54194, "timestamp": "2025-04-17T03:06:57.723567Z", "free_bikes": 1, "empty_slots": 14, "extra": {"uid": "501404097", "district": "\u6f6e\u5dde\u93ae", "address": "\u5357\u4eac\u8def/\u5eec\u5c71\u8def(\u6771\u5317\u5074)", "slots": 15, "normal_bikes": 0, "ebikes": 1, "last_updated": "2025-04-17 08:40:24", "online": true, "youbike_version": 2, "en": {"name": "Minzhi River (Nanjing Rd.)", "district": "Chaozhou Town", "address": "Nanjing Rd./Lushan Rd.(Northeast)"}}}, {"id": "43c34531ea665ac489a7a18565ab3235", "name": "\u5c4f\u6771\u7e3d\u5716", "latitude": 22.67879, "longitude": 120.49777, "timestamp": "2025-04-17T03:06:57.722887Z", "free_bikes": 13, "empty_slots": 27, "extra": {"uid": "501401047", "district": "\u5c4f\u6771\u5e02", "address": "\u81ea\u7531\u8def349-1\u865f\u5c0d\u5074\u516c\u5712", "slots": 40, "normal_bikes": 13, "ebikes": 0, "last_updated": "2025-04-17 07:20:25", "online": true, "youbike_version": 2, "en": {"name": "Pingtung County Library", "district": "Pingtung City", "address": "No. 349-1, Ziyou Rd.(Opposite Park)"}}}, {"id": "43eaf7a278482ff725a4a44224c0d679", "name": "\u5c4f\u6771\u570b\u969b\u6ed1\u8f2a\u6e9c\u51b0\u5834", "latitude": 22.54525, "longitude": 120.5473, "timestamp": "2025-04-17T03:06:57.723555Z", "free_bikes": 1, "empty_slots": 14, "extra": {"uid": "501404095", "district": "\u6f6e\u5dde\u93ae", "address": "\u798f\u661f\u8def237\u5df7/\u798f\u661f\u8def(\u6771\u5357\u5074)", "slots": 15, "normal_bikes": 1, "ebikes": 0, "last_updated": "2025-04-16 20:08:18", "online": true, "youbike_version": 2, "en": {"name": "Pingtung International Roller Skating Rink", "district": "Chaozhou Town", "address": "No. 123, Fuxing Rd./Fuxing Rd.(Southeast)"}}}, {"id": "441bb9c25f16fec8c7146b325c746072", "name": "\u93ae\u6d77\u516c\u5712", "latitude": 22.46073, "longitude": 120.44129, "timestamp": "2025-04-17T03:06:57.723216Z", "free_bikes": 5, "empty_slots": 10, "extra": {"uid": "501402062", "district": "\u6771\u6e2f\u93ae", "address": "\u93ae\u6d77\u516c\u5712\u5165\u53e3\u5de6\u5074", "slots": 15, "normal_bikes": 3, "ebikes": 2, "last_updated": "2025-04-17 09:50:27", "online": true, "youbike_version": 2, "en": {"name": "Zhenhai Park", "district": "Donggang Town", "address": "Zhenhai Park Left Entrance"}}}, {"id": "44cd7c7ae8afe9d53591223dd893002c", "name": "\u8208\u8c50\u516c\u5712", "latitude": 22.68126, "longitude": 120.50879, "timestamp": "2025-04-17T03:06:57.723098Z", "free_bikes": 8, "empty_slots": 7, "extra": {"uid": "501401090", "district": "\u5c4f\u6771\u5e02", "address": "\u8208\u8c50\u8def/\u8208\u8c50\u8def104\u5df7(\u897f\u5357\u5074)", "slots": 15, "normal_bikes": 1, "ebikes": 7, "last_updated": "2025-04-17 06:50:26", "online": true, "youbike_version": 2, "en": {"name": "Xingfeng Park", "district": "Pingtung City", "address": "Xingfeng Rd./Ln. 104, Xingfeng Rd.(Southwest)"}}}, {"id": "45dfee5b2e6fe1e0e5da9a00472f3883", "name": "\u5c4f\u6771\u9ad8\u5de5(\u842c\u5e74\u516c\u5712)", "latitude": 22.66343, "longitude": 120.48654, "timestamp": "2025-04-17T03:06:57.722752Z", "free_bikes": 33, "empty_slots": 3, "extra": {"uid": "501401019", "district": "\u5c4f\u6771\u5e02", "address": "\u5efa\u570b\u8def25\u865f", "slots": 64, "normal_bikes": 5, "ebikes": 28, "last_updated": "2025-04-17 10:13:19", "online": true, "youbike_version": 2, "en": {"name": "National Pingtung Industrial Vocational High School", "district": "Pingtung City", "address": "No.25, Jianxing Rd."}}}, {"id": "483e9af0270509a8120b1a7bde1b6d69", "name": "\u5fe0\u5b5d\u8def\u5916\u505c\u8eca\u5834(\u6210\u529f\u5357\u4eac\u8def\u53e3)", "latitude": 22.67422, "longitude": 120.48608, "timestamp": "2025-04-17T03:06:57.723060Z", "free_bikes": 9, "empty_slots": 13, "extra": {"uid": "501401078", "district": "\u5c4f\u6771\u5e02", "address": "\u5fe0\u5b5d\u8def119\u865f", "slots": 22, "normal_bikes": 6, "ebikes": 3, "last_updated": "2025-04-17 10:13:19", "online": true, "youbike_version": 2, "en": {"name": "Zhongxiao Off-Street Parking Lot (Chenggong Nanjing Rd.Intersection)", "district": "Pingtung City", "address": "No. 119, Zhongxiao Rd."}}}, {"id": "488f4f3ed9a33f7b0dd0dc4101b37576", "name": "\u767d\u7802\u5927\u5ba2\u8eca\u505c\u8eca\u5834", "latitude": 21.93522, "longitude": 120.72036, "timestamp": "2025-04-17T03:06:57.723368Z", "free_bikes": 3, "empty_slots": 21, "extra": {"uid": "501403106", "district": "\u6046\u6625\u93ae", "address": "\u767d\u7802\u8def10\u865f\u5c0d\u5074", "slots": 24, "normal_bikes": 3, "ebikes": 0, "last_updated": "2025-04-13 15:40:25", "online": true, "youbike_version": 2, "en": {"name": "Baisha Bus Parking Area", "district": "Hengchun Town", "address": "No. 10, Baisha Rd.(Opposite)"}}}, {"id": "489bf314becdd9c0bae75a9388880a1b", "name": "\u5f8c\u58c1\u6e56", "latitude": 21.94544, "longitude": 120.74334, "timestamp": "2025-04-17T03:06:57.723400Z", "free_bikes": 12, "empty_slots": 18, "extra": {"uid": "501403111", "district": "\u6046\u6625\u93ae", "address": "\u5927\u5149\u8def79\u4e4b66\u865f\u5c0d\u5074", "slots": 30, "normal_bikes": 7, "ebikes": 5, "last_updated": "2025-04-16 14:30:24", "online": true, "youbike_version": 2, "en": {"name": "Houbihu", "district": "Hengchun Town", "address": "No. 79-66, Daguang Rd.(Opposite)"}}}, {"id": "496ad47deef95fd6858443c6b9f4dd06", "name": "\u6c38\u65b0\u516c\u5712(\u535a\u611b\u8def)", "latitude": 22.6764, "longitude": 120.48116, "timestamp": "2025-04-17T03:06:57.723078Z", "free_bikes": 11, "empty_slots": 4, "extra": {"uid": "501401084", "district": "\u5c4f\u6771\u5e02", "address": "\u535a\u611b\u8def169\u865f\u5de6\u5074", "slots": 15, "normal_bikes": 4, "ebikes": 7, "last_updated": "2025-04-17 07:00:26", "online": true, "youbike_version": 2, "en": {"name": "Yong Xin Park(Bo'Ai Rd.)", "district": "Pingtung City", "address": "No. 169, Bo'ai Rd.(Left)"}}}, {"id": "4ae603f611b19049e66fe38c20e171e4", "name": "\u9e7d\u7409\u7dda\u8239\u904b\u670d\u52d9\u4e2d\u5fc3", "latitude": 22.47154, "longitude": 120.4382, "timestamp": "2025-04-17T03:06:57.723647Z", "free_bikes": 6, "empty_slots": 16, "extra": {"uid": "501425131", "district": "\u65b0\u5712\u9109", "address": "\u65b0\u8208\u8def\u4e8c\u6bb51\u865f", "slots": 22, "normal_bikes": 5, "ebikes": 1, "last_updated": "2025-04-12 19:28:18", "online": true, "youbike_version": 2, "en": {"name": "Yan Liu Line Shipping Service Center", "district": "Xinyuan Township", "address": "No. 1, Sec. 2, Xinxing Rd."}}}, {"id": "4b224119c34bbb836fa659608436ce25", "name": "\u5c4f\u6771\u8f49\u904b\u7ad9", "latitude": 22.66948075, "longitude": 120.4847329, "timestamp": "2025-04-17T03:06:57.722733Z", "free_bikes": 33, "empty_slots": 23, "extra": {"uid": "501401016", "district": "\u5c4f\u6771\u5e02", "address": "\u91cd\u6176\u8def/\u5149\u5fa9\u8def\u53e3(\u6771\u5357\u5074)", "slots": 56, "normal_bikes": 33, "ebikes": 0, "last_updated": "2025-04-17 09:40:24", "online": true, "youbike_version": 2, "en": {"name": "Pingtung Bus Station", "district": "Pingtung City", "address": "Chongqing Rd./Guangfu Rd.(Southeast)"}}}, {"id": "4c471fffc8b0310b1bcd9cc8523c7f63", "name": "\u6c11\u5b78\u516c\u5712", "latitude": 22.67342, "longitude": 120.50288, "timestamp": "2025-04-17T03:06:57.722907Z", "free_bikes": 39, "empty_slots": 7, "extra": {"uid": "501401050", "district": "\u5c4f\u6771\u5e02", "address": "\u6c11\u5b78\u8def100\u865f\u5c0d\u5074", "slots": 50, "normal_bikes": 5, "ebikes": 34, "last_updated": "2025-04-17 09:50:27", "online": true, "youbike_version": 2, "en": {"name": "Minxue Park", "district": "Pingtung City", "address": "No. 100, Minxue Rd.(Opposite)"}}}, {"id": "4e1511d55870397fc29d085b33d5194c", "name": "\u9d5d\u947e\u9f3b\u516c\u5712\u505c\u8eca\u5834", "latitude": 21.90496, "longitude": 120.8518, "timestamp": "2025-04-17T03:06:57.723430Z", "free_bikes": 5, "empty_slots": 15, "extra": {"uid": "501403124", "district": "\u6046\u6625\u93ae", "address": "\u71c8\u5854\u8def249\u865f", "slots": 20, "normal_bikes": 5, "ebikes": 0, "last_updated": "2025-04-17 10:30:24", "online": true, "youbike_version": 2, "en": {"name": "Eluanbi Park Parking Lot", "district": "Hengchun Town", "address": "No. 249, Dengta Rd."}}}, {"id": "53a9f1194498d3bc22e5905d20a7ad3d", "name": "\u4ec1\u611b\u516c\u52e4\u8857\u53e3", "latitude": 22.68212, "longitude": 120.49706, "timestamp": "2025-04-17T03:06:57.722874Z", "free_bikes": 16, "empty_slots": 3, "extra": {"uid": "501401045", "district": "\u5c4f\u6771\u5e02", "address": "\u4ec1\u611b\u8def/\u516c\u52e4\u8857\u53e3(\u5357\u5074)", "slots": 20, "normal_bikes": 11, "ebikes": 5, "last_updated": "2025-04-17 10:10:24", "online": true, "youbike_version": 2, "en": {"name": "Ren'ai Gongqin St. Intersection", "district": "Pingtung City", "address": "Ren'ai Rd./Gongqin St.(South)"}}}, {"id": "54e8b378fffaf07738b52307fd8471f1", "name": "\u7af9\u7530\u8eca\u7ad9", "latitude": 22.58696, "longitude": 120.53983, "timestamp": "2025-04-17T03:06:57.723617Z", "free_bikes": 8, "empty_slots": 22, "extra": {"uid": "501408091", "district": "\u7af9\u7530\u9109", "address": "\u8c50\u660e\u8def29 \u865f", "slots": 30, "normal_bikes": 5, "ebikes": 3, "last_updated": "2025-04-17 09:50:27", "online": true, "youbike_version": 2, "en": {"name": "Zhutian Station", "district": "Zhutian Township", "address": "No. 29, Fongming Rd."}}}, {"id": "55065e4a84366dfa515e96f9516a7931", "name": "\u9e9f\u6d1b\u8eca\u7ad9", "latitude": 22.63437, "longitude": 120.51464, "timestamp": "2025-04-17T03:06:57.723653Z", "free_bikes": 10, "empty_slots": 20, "extra": {"uid": "501432086", "district": "\u9e9f\u6d1b\u9109", "address": "\u4e2d\u83ef\u8def\u7ad9\u524d\u5df7 15 \u865f", "slots": 30, "normal_bikes": 7, "ebikes": 3, "last_updated": "2025-04-17 06:42:21", "online": true, "youbike_version": 2, "en": {"name": "Linluo Station, TRA", "district": "Linluo Township", "address": "No. 15, Zhanqian Ln."}}}, {"id": "5680e7cb5039fcb8dca8eaf2962a55c2", "name": "\u7e23\u6c11\u516c\u5712\u6a5f\u8eca\u505c\u8eca\u5834", "latitude": 22.65649, "longitude": 120.4871, "timestamp": "2025-04-17T03:06:57.722758Z", "free_bikes": 4, "empty_slots": 12, "extra": {"uid": "501401020", "district": "\u5c4f\u6771\u5e02", "address": "\u7e23\u6c11\u516c\u5712\u6a5f\u8eca\u505c\u8eca\u5834(\u5fa9\u8208\u8def)", "slots": 16, "normal_bikes": 4, "ebikes": 0, "last_updated": "2025-04-17 09:20:25", "online": true, "youbike_version": 2, "en": {"name": "Pingtung County Park motorcycle parking lot", "district": "Pingtung City", "address": "Pingtung County Park motorcycle parking lot (Fuxing Rd.)"}}}, {"id": "5a693d0ab5f29d355ed7dcb125c46535", "name": "\u5149\u5fa9\u6771\u9686\u8857\u53e3", "latitude": 22.46466, "longitude": 120.44893, "timestamp": "2025-04-17T03:06:57.723277Z", "free_bikes": 3, "empty_slots": 23, "extra": {"uid": "501402072", "district": "\u6771\u6e2f\u93ae", "address": "\u5149\u5fa9\u8def\u4e09\u6bb5/\u6771\u9686\u8857(\u6771\u5074)", "slots": 26, "normal_bikes": 3, "ebikes": 0, "last_updated": "2025-04-17 07:40:27", "online": true, "youbike_version": 2, "en": {"name": "Guangfu Donglong St. Intersection", "district": "Donggang Town", "address": "Sec. 3, Guangfu Rd./Donglong St.(East)"}}}, {"id": "5a70bc78696781b90b8462643f802648", "name": "\u52de\u52d5\u66a8\u9752\u5e74\u767c\u5c55\u8655(\u81ea\u7531\u8def\u897f\u6bb5)", "latitude": 22.66631583, "longitude": 120.4843156, "timestamp": "2025-04-17T03:06:57.722706Z", "free_bikes": 5, "empty_slots": 10, "extra": {"uid": "501401012", "district": "\u5c4f\u6771\u5e02", "address": "\u81ea\u7531\u8def\u897f\u6bb5/\u5efa\u83ef\u4e09\u8857\u53e3", "slots": 15, "normal_bikes": 4, "ebikes": 1, "last_updated": "2025-04-17 10:50:25", "online": true, "youbike_version": 2, "en": {"name": "Labor and Youth Development Department (Sec. W., Ziyou Rd.)", "district": "Pingtung City", "address": "W. Sec., Zihyou Rd./Jianhua 3rd St."}}}, {"id": "5ac4795939072b4dae14a79ea4688f45", "name": "\u6046\u6625\u6771\u9580", "latitude": 22.00424, "longitude": 120.74999, "timestamp": "2025-04-17T03:06:57.723350Z", "free_bikes": 4, "empty_slots": 11, "extra": {"uid": "501403101", "district": "\u6046\u6625\u93ae", "address": "\u6771\u9580\u8def2\u5df7/\u6771\u9580\u8def(\u6771\u5317\u5074)", "slots": 15, "normal_bikes": 3, "ebikes": 1, "last_updated": "2025-04-16 19:10:28", "online": true, "youbike_version": 2, "en": {"name": "Hengchun East Gate", "district": "Hengchun Town", "address": "Ln. 2, Dongmen Rd./Dongmen Rd.(Northeast)"}}}, {"id": "5f027db6dd823cb6fc11a66d46238113", "name": "\u6046\u6625\u897f\u9580", "latitude": 22.00517, "longitude": 120.74281, "timestamp": "2025-04-17T03:06:57.723362Z", "free_bikes": 7, "empty_slots": 8, "extra": {"uid": "501403103", "district": "\u6046\u6625\u93ae", "address": "\u4e2d\u5c71\u8def181\u865f\u5de6\u524d\u65b9", "slots": 15, "normal_bikes": 5, "ebikes": 2, "last_updated": "2025-04-17 06:39:21", "online": true, "youbike_version": 2, "en": {"name": "Hengchun West Gate", "district": "Hengchun Town", "address": "No. 181, Zhongshan Rd.(Left front)"}}}, {"id": "614d6ae47f253e4b57368a294c21c553", "name": "\u6771\u7409\u7dda\u8239\u904b\u670d\u52d9\u4e2d\u5fc3", "latitude": 22.4688, "longitude": 120.44607, "timestamp": "2025-04-17T03:06:57.723209Z", "free_bikes": 8, "empty_slots": 17, "extra": {"uid": "501402061", "district": "\u6771\u6e2f\u93ae", "address": "\u671d\u9686\u8def66\u865f\u5c0d\u5074", "slots": 25, "normal_bikes": 8, "ebikes": 0, "last_updated": "2025-04-17 03:36:18", "online": true, "youbike_version": 2, "en": {"name": "Donggang Ferry Terminal", "district": "Donggang Town", "address": "No. 66, Chaolong Rd.(Opposite)"}}}, {"id": "619b42c617ad651c6623b7296951c89e", "name": "\u5c4f\u6771\u5e02\u7acb\u5fa9\u8208\u5716\u66f8\u9928", "latitude": 22.6603, "longitude": 120.48133, "timestamp": "2025-04-17T03:06:57.723053Z", "free_bikes": 9, "empty_slots": 6, "extra": {"uid": "501401077", "district": "\u5c4f\u6771\u5e02", "address": "\u5efa\u5357\u8def162\u865f", "slots": 15, "normal_bikes": 2, "ebikes": 7, "last_updated": "2025-04-16 18:30:24", "online": true, "youbike_version": 2, "en": {"name": "Pingtung Municipal Fuxing Library", "district": "Pingtung City", "address": "No. 162, Jiannan Rd."}}}, {"id": "61b02cd9cfa938bba53f085c68fe14ce", "name": "\u5c4f\u6771\u5927\u5b78(\u5c4f\u5546\u6821\u5340)", "latitude": 22.6593, "longitude": 120.51221, "timestamp": "2025-04-17T03:06:57.722842Z", "free_bikes": 33, "empty_slots": 33, "extra": {"uid": "501401029", "district": "\u5c4f\u6771\u5e02", "address": "\u6c11\u751f\u6771\u8def40\u865f\u5c0d\u5074", "slots": 66, "normal_bikes": 22, "ebikes": 11, "last_updated": "2025-04-17 08:50:25", "online": true, "youbike_version": 2, "en": {"name": "National Pingtung University Pingshang Campus", "district": "Pingtung City", "address": "No. 40, Minsheng E. Rd.(Opposite)"}}}, {"id": "62314bc4cc8284f3d903d134bf94d437", "name": "\u5c4f\u6771\u5927\u5b78(\u6c11\u751f\u6821\u5340)", "latitude": 22.66413, "longitude": 120.50413, "timestamp": "2025-04-17T03:06:57.722828Z", "free_bikes": 35, "empty_slots": 24, "extra": {"uid": "501401027", "district": "\u5c4f\u6771\u5e02", "address": "\u6c11\u751f\u8def4-18\u865f", "slots": 59, "normal_bikes": 27, "ebikes": 8, "last_updated": "2025-04-17 07:30:25", "online": true, "youbike_version": 2, "en": {"name": "National Pingtung University Minsheng Campus", "district": "Pingtung City", "address": "No. 4-18, Minsheng Rd."}}}, {"id": "64bb3c0caf4acd2624d770f6742d24fe", "name": "\u6771\u6e2f\u9ad8\u4e2d", "latitude": 22.46467, "longitude": 120.45579, "timestamp": "2025-04-17T03:06:57.723240Z", "free_bikes": 12, "empty_slots": 5, "extra": {"uid": "501402066", "district": "\u6771\u6e2f\u93ae", "address": "\u8239\u982d\u8def1\u865f", "slots": 17, "normal_bikes": 11, "ebikes": 1, "last_updated": "2025-04-17 05:47:18", "online": true, "youbike_version": 2, "en": {"name": "Donggang Senior High School", "district": "Donggang Town", "address": "No. 1, Chuantou Rd."}}}, {"id": "6ba110549de28893500356630e5f45a6", "name": "\u6c34\u9580\u8f49\u904b\u7ad9", "latitude": 22.7098, "longitude": 120.63642, "timestamp": "2025-04-17T03:06:57.723605Z", "free_bikes": 11, "empty_slots": 16, "extra": {"uid": "501407134", "district": "\u5167\u57d4\u9109", "address": "\u6210\u529f\u8def251\u865f", "slots": 27, "normal_bikes": 11, "ebikes": 0, "last_updated": "2025-04-08 16:51:19", "online": true, "youbike_version": 2, "en": {"name": "Shueimen Bus Station", "district": "Neipu Township", "address": "No. 251, Chenggong Rd."}}}, {"id": "6bad7175398dcaa4e243e95e638da214", "name": "\u5f8c\u7063", "latitude": 22.03955, "longitude": 120.69504, "timestamp": "2025-04-17T03:06:57.723635Z", "free_bikes": 4, "empty_slots": 21, "extra": {"uid": "501410125", "district": "\u8eca\u57ce\u9109", "address": "\u5f8c\u7063\u8def161\u865f\u524d", "slots": 25, "normal_bikes": 4, "ebikes": 0, "last_updated": "2025-04-08 22:01:18", "online": true, "youbike_version": 2, "en": {"name": "Back Bay", "district": "Checheng Township", "address": "No. 161, Houwan Rd."}}}, {"id": "6d5e9454ec055f876e24d267473393da", "name": "\u65b0\u751f\u5fe0\u5b5d\u8def\u53e3", "latitude": 22.55009, "longitude": 120.53861, "timestamp": "2025-04-17T03:06:57.723573Z", "free_bikes": 7, "empty_slots": 7, "extra": {"uid": "501404098", "district": "\u6f6e\u5dde\u93ae", "address": "\u65b0\u751f\u8def/\u5fe0\u5b5d\u8def(\u6771\u5357\u5074)", "slots": 14, "normal_bikes": 7, "ebikes": 0, "last_updated": "2025-04-17 08:30:25", "online": true, "youbike_version": 2, "en": {"name": "Xinsheng Zhongxiao Rd. Intersection", "district": "Chaozhou Town", "address": "Xinsheng Rd./Zhongxiao Rd.(Southeast)"}}}, {"id": "6da218024d68417469a3d8607aa2f22e", "name": "\u671d\u6607\u8def\u516c\u6709\u505c\u8eca\u5834", "latitude": 22.55617, "longitude": 120.54132, "timestamp": "2025-04-17T03:06:57.723597Z", "free_bikes": 7, "empty_slots": 13, "extra": {"uid": "501404137", "district": "\u6f6e\u5dde\u93ae", "address": "\u671d\u6607\u8def243\u865f", "slots": 20, "normal_bikes": 5, "ebikes": 2, "last_updated": "2025-04-16 02:46:18", "online": true, "youbike_version": 2, "en": {"name": "Chaosheng Rd. Parking Lot", "district": "Chaozhou Town", "address": "No. 243, Chaosheng Rd."}}}, {"id": "6e6f1b8d3824d1381db7922cd9eca136", "name": "\u5c4f\u6771\u9ad8\u4e2d", "latitude": 22.68773177, "longitude": 120.4887127, "timestamp": "2025-04-17T03:06:57.722619Z", "free_bikes": 39, "empty_slots": 1, "extra": {"uid": "501401001", "district": "\u5c4f\u6771\u5e02", "address": "\u5ee3\u6771\u8def/\u5fe0\u5b5d\u8def\u53e3(\u897f\u5357\u5074)", "slots": 40, "normal_bikes": 24, "ebikes": 15, "last_updated": "2025-04-17 11:06:18", "online": true, "youbike_version": 2, "en": {"name": "National Pingtung Senior High School", "district": "Pingtung City", "address": "Guangdong Rd./Zhongxiao Rd.(Southwest)"}}}, {"id": "72b664451c01c53553e70fe69cd01720", "name": "\u8239\u5e06\u77f3", "latitude": 21.93356, "longitude": 120.8235, "timestamp": "2025-04-17T03:06:57.723418Z", "free_bikes": 10, "empty_slots": 8, "extra": {"uid": "501403122", "district": "\u6046\u6625\u93ae", "address": "\u8239\u5e06\u8def698\u865f\u524d", "slots": 18, "normal_bikes": 10, "ebikes": 0, "last_updated": "2025-04-16 05:43:22", "online": true, "youbike_version": 2, "en": {"name": "Chuanfanshi", "district": "Hengchun Town", "address": "No. 698, Chuanfan Rd."}}}, {"id": "73d56ab6329f96357ee221463a6e31ce", "name": "\u6c11\u751f\u745e\u6c11\u8def\u53e3(\u6f14\u85dd\u5ef3)", "latitude": 22.66282, "longitude": 120.50641, "timestamp": "2025-04-17T03:06:57.722971Z", "free_bikes": 11, "empty_slots": 8, "extra": {"uid": "501401051", "district": "\u5c4f\u6771\u5e02", "address": "\u745e\u6c11\u8def2\u865f", "slots": 20, "normal_bikes": 8, "ebikes": 3, "last_updated": "2025-04-17 08:30:25", "online": true, "youbike_version": 2, "en": {"name": "Minsheng Ruimin Rd. Intersection (Performing Arts Center)", "district": "Pingtung City", "address": "No. 2, Ruimin Rd."}}}, {"id": "7a14c422cafbeb565fe044e3527cbe56", "name": "\u5927\u9023\u5ee3\u6771\u8def\u53e3(\u5357\u5074)", "latitude": 22.68104, "longitude": 120.50097, "timestamp": "2025-04-17T03:06:57.722784Z", "free_bikes": 15, "empty_slots": 4, "extra": {"uid": "501401023", "district": "\u5c4f\u6771\u5e02", "address": "\u5927\u9023\u8def/\u5ee3\u6771\u8def\u53e3(\u5357\u5074\u516c\u5712)", "slots": 19, "normal_bikes": 13, "ebikes": 2, "last_updated": "2025-04-17 10:50:25", "online": true, "youbike_version": 2, "en": {"name": "Dalian Guangdong Rd. Intersection (South)", "district": "Pingtung City", "address": "Dalian Rd./Guangdong Rd.(South)"}}}, {"id": "7bf0b0c04bd71001ccce4787453139b9", "name": "\u5c4f\u6771\u5e02\u6975\u9650\u904b\u52d5\u5834", "latitude": 22.67687738, "longitude": 120.4847597, "timestamp": "2025-04-17T03:06:57.722694Z", "free_bikes": 7, "empty_slots": 13, "extra": {"uid": "501401010", "district": "\u5c4f\u6771\u5e02", "address": "\u4e2d\u5c71\u8def73\u865f\u65c1\u516c\u5712", "slots": 20, "normal_bikes": 7, "ebikes": 0, "last_updated": "2025-04-17 07:40:27", "online": true, "youbike_version": 2, "en": {"name": "Pingtung City Sport Field", "district": "Pingtung City", "address": "No.73, Zhongshan Rd."}}}, {"id": "7f9f296ef8dbf3137c0e388a2b72a8fc", "name": "\u6f6e\u53e3\u5e73\u53f0", "latitude": 22.45199, "longitude": 120.45816, "timestamp": "2025-04-17T03:06:57.723271Z", "free_bikes": 5, "empty_slots": 14, "extra": {"uid": "501402071", "district": "\u6771\u6e2f\u93ae", "address": "\u6f6e\u53e3\u5e73\u53f0\u65c1", "slots": 19, "normal_bikes": 4, "ebikes": 1, "last_updated": "2025-04-17 06:04:18", "online": true, "youbike_version": 2, "en": {"name": "Bayfun Land", "district": "Donggang Town", "address": "Bayfun Land"}}}, {"id": "81cc7def6bde23a9987b8587628dfb5a", "name": "\u5ee3\u8208\u516c\u5712(\u5ee3\u52dd\u8def)", "latitude": 22.69125533, "longitude": 120.4873344, "timestamp": "2025-04-17T03:06:57.722637Z", "free_bikes": 2, "empty_slots": 13, "extra": {"uid": "501401002", "district": "\u5c4f\u6771\u5e02", "address": "\u5ee3\u52dd\u8def/\u6210\u529f\u4e00\u5df7\u53e3(\u516c\u5712\u5165\u53e3)", "slots": 15, "normal_bikes": 2, "ebikes": 0, "last_updated": "2025-04-17 07:40:27", "online": true, "youbike_version": 2, "en": {"name": "Guangxing Park (Guangsheng Rd.)", "district": "Pingtung City", "address": "Guangsheng Rd./ Chenggong 1st Ln."}}}, {"id": "81f5d34f85e6642a81fa530c6740df76", "name": "\u5c4f\u6771\u7e23\u653f\u5e9c", "latitude": 22.6834319, "longitude": 120.4889218, "timestamp": "2025-04-17T03:06:57.722700Z", "free_bikes": 30, "empty_slots": 10, "extra": {"uid": "501401011", "district": "\u5c4f\u6771\u5e02", "address": "\u81ea\u7531\u8def/\u5fe0\u5b5d\u8def\u53e3(\u897f\u5357\u5074)", "slots": 41, "normal_bikes": 20, "ebikes": 10, "last_updated": "2025-04-17 09:53:18", "online": true, "youbike_version": 2, "en": {"name": "Pingtung  County  Government", "district": "Pingtung City", "address": "Ziyou Rd./Zhongxiao Rd.(Southwest)"}}}, {"id": "820a84c037f5a6f38f07853309a9b124", "name": "\u6797\u908a\u8eca\u7ad9", "latitude": 22.4315, "longitude": 120.5158, "timestamp": "2025-04-17T03:06:57.723641Z", "free_bikes": 10, "empty_slots": 20, "extra": {"uid": "501416117", "district": "\u6797\u908a\u9109", "address": "\u4ec1\u611b\u8def33\u865f", "slots": 30, "normal_bikes": 10, "ebikes": 0, "last_updated": "2025-04-17 10:10:24", "online": true, "youbike_version": 2, "en": {"name": "Linbian Station, TRA", "district": "Linbian Township", "address": "No. 33, Ren'ai Rd."}}}, {"id": "830f5767bdcf07927f1a508b494b935b", "name": "\u897f\u52e2\u8eca\u7ad9", "latitude": 22.61605, "longitude": 120.52627, "timestamp": "2025-04-17T03:06:57.723611Z", "free_bikes": 9, "empty_slots": 14, "extra": {"uid": "501408087", "district": "\u7af9\u7530\u9109", "address": "\u897f\u8c50\u8def 2 \u865f", "slots": 23, "normal_bikes": 9, "ebikes": 0, "last_updated": "2025-04-17 10:30:24", "online": true, "youbike_version": 2, "en": {"name": "Xishi Station, TRA", "district": "Zhutian Township", "address": "No. 2, Xifeng Rd."}}}, {"id": "84398169431fe08788f612be073d03eb", "name": "\u6771\u5149\u570b\u5c0f", "latitude": 22.4674, "longitude": 120.45944, "timestamp": "2025-04-17T03:06:57.723222Z", "free_bikes": 5, "empty_slots": 10, "extra": {"uid": "501402063", "district": "\u6771\u6e2f\u93ae", "address": "\u9577\u6625\u4e8c\u8def/\u65b0\u8208\u4e09\u8857(\u6771\u5074)", "slots": 15, "normal_bikes": 2, "ebikes": 3, "last_updated": "2025-04-17 09:02:19", "online": true, "youbike_version": 2, "en": {"name": "Dung Kuang Elementary School", "district": "Donggang Town", "address": "Changchun 2nd Rd./Xinxing 3rd St.(East)"}}}, {"id": "87016c36fb1da8df65354d2fed1bf757", "name": "\u6f6e\u5dde\u7b2c\u4e00\u7acb\u9ad4\u505c\u8eca\u5834", "latitude": 22.55323, "longitude": 120.53823, "timestamp": "2025-04-17T03:06:57.723585Z", "free_bikes": 6, "empty_slots": 19, "extra": {"uid": "501404133", "district": "\u6f6e\u5dde\u93ae", "address": "\u516c\u5712\u8def2\u865f", "slots": 25, "normal_bikes": 4, "ebikes": 2, "last_updated": "2025-04-17 06:39:21", "online": true, "youbike_version": 2, "en": {"name": "Chaozhou First Parking Garage", "district": "Chaozhou Town", "address": "No. 2, Gongyuan Rd."}}}, {"id": "87e63f8823bd98f66a2566f81b38aa69", "name": "\u842c\u5009\u4ec1\u611b\u8def\u53e3", "latitude": 22.66829, "longitude": 120.49159, "timestamp": "2025-04-17T03:06:57.722746Z", "free_bikes": 6, "empty_slots": 9, "extra": {"uid": "501401018", "district": "\u5c4f\u6771\u5e02", "address": "\u842c\u5009\u8857/\u4ec1\u611b\u8def(\u6771\u5357\u5074)", "slots": 15, "normal_bikes": 6, "ebikes": 0, "last_updated": "2025-04-17 07:40:27", "online": true, "youbike_version": 2, "en": {"name": "Wancang Ren'ai  Rd. Intersection", "district": "Pingtung City", "address": "Wancang St./Ren'ai  Rd.(Southeast)"}}}, {"id": "881f38d06bacc3ee2a778b34186af02b", "name": "\u5c4f\u6771\u7e23\u653f\u5e9c\u8b66\u5bdf\u5c40(\u5317\u5074)", "latitude": 22.67454, "longitude": 120.4894, "timestamp": "2025-04-17T03:06:57.722893Z", "free_bikes": 12, "empty_slots": 16, "extra": {"uid": "501401048", "district": "\u5c4f\u6771\u5e02", "address": "\u516c\u5712\u8def/\u4e2d\u6b63\u8def\u53e3(\u897f\u5357\u5074)", "slots": 28, "normal_bikes": 8, "ebikes": 4, "last_updated": "2025-04-17 09:42:17", "online": true, "youbike_version": 2, "en": {"name": "Pingtung County Police Bureau (North)", "district": "Pingtung City", "address": "Gongyuan Rd./Zhongzheng Rd.(Southwest)"}}}, {"id": "889cc9cceca9dabfc884f629efee0b15", "name": "\u6771\u6e2f\u570b\u5c0f", "latitude": 22.470764, "longitude": 120.45426, "timestamp": "2025-04-17T03:06:57.723303Z", "free_bikes": 3, "empty_slots": 17, "extra": {"uid": "501402139", "district": "\u6771\u6e2f\u93ae", "address": "\u4e2d\u6b63\u8def\u4e00\u6bb510\u865f", "slots": 20, "normal_bikes": 3, "ebikes": 0, "last_updated": "2025-04-16 14:10:24", "online": true, "youbike_version": 2, "en": {"name": "Donggang Elementary School", "district": "Donggang Town", "address": "No. 10, Sec. 1, Zhongzheng Rd."}}}, {"id": "88cf01afdba2a186495640ee866cc541", "name": "\u570b\u7acb\u6d77\u6d0b\u751f\u7269\u535a\u7269\u9928", "latitude": 22.04602, "longitude": 120.6998, "timestamp": "2025-04-17T03:06:57.723629Z", "free_bikes": 4, "empty_slots": 32, "extra": {"uid": "501410100", "district": "\u8eca\u57ce\u9109", "address": "\u5f8c\u7063\u8def2\u865f", "slots": 36, "normal_bikes": 4, "ebikes": 0, "last_updated": "2025-04-14 16:56:18", "online": true, "youbike_version": 2, "en": {"name": "National Museum Of Marine Biology And Aquarium", "district": "Checheng Township", "address": "No. 2, Houwan Rd."}}}, {"id": "8b1743ba5c5f541b481bcd86dfa3036e", "name": "\u5c4f\u6771\u516c\u5712\u4e2d\u83ef\u8def\u505c\u8eca\u5834", "latitude": 22.67595882, "longitude": 120.4911726, "timestamp": "2025-04-17T03:06:57.722673Z", "free_bikes": 5, "empty_slots": 10, "extra": {"uid": "501401007", "district": "\u5c4f\u6771\u5e02", "address": "\u4e2d\u83ef\u8def/\u958b\u5c01\u8857\u53e3", "slots": 15, "normal_bikes": 4, "ebikes": 1, "last_updated": "2025-04-17 07:00:26", "online": true, "youbike_version": 2, "en": {"name": "Pingtung Park Zhonghua Road Parking Lot", "district": "Pingtung City", "address": "Zhonghua Rd./Kaifeng St."}}}, {"id": "8ce2abb9dbfe30355a5fd340214e5d46", "name": "\u81f3\u6b63\u570b\u4e2d", "latitude": 22.69127, "longitude": 120.49372, "timestamp": "2025-04-17T03:06:57.723072Z", "free_bikes": 2, "empty_slots": 13, "extra": {"uid": "501401083", "district": "\u5c4f\u6771\u5e02", "address": "\u516c\u88d5\u8857300\u865f", "slots": 17, "normal_bikes": 1, "ebikes": 1, "last_updated": "2025-04-17 06:45:23", "online": true, "youbike_version": 2, "en": {"name": "Jyh Jeng Junior High School", "district": "Pingtung City", "address": "No. 300, Gongyu St."}}}, {"id": "8e2d5f62289706df597762c88f1abadb", "name": "\u6b66\u660c\u4e94\u798f\u8def\u53e3", "latitude": 22.54537, "longitude": 120.5355, "timestamp": "2025-04-17T03:06:57.723561Z", "free_bikes": 8, "empty_slots": 10, "extra": {"uid": "501404096", "district": "\u6f6e\u5dde\u93ae", "address": "\u6b66\u660c\u8857/\u4e94\u798f\u8def(2\u5074)", "slots": 18, "normal_bikes": 5, "ebikes": 3, "last_updated": "2025-04-17 07:30:25", "online": true, "youbike_version": 2, "en": {"name": "Wuchang Wufu Rd. Intersection", "district": "Chaozhou Town", "address": "Wuchang St./Wufu Rd.(2 sides)"}}}, {"id": "8e9cc4b4f6bcb198b606b1a70f3435b8", "name": "\u5c4f\u6771\u516c\u5712\u4ec1\u611b\u8def\u505c\u8eca\u5834", "latitude": 22.67669929, "longitude": 120.4941125, "timestamp": "2025-04-17T03:06:57.722680Z", "free_bikes": 9, "empty_slots": 10, "extra": {"uid": "501401008", "district": "\u5c4f\u6771\u5e02", "address": "\u4ec1\u611b\u8def98\u865f\u5c0d\u5074", "slots": 19, "normal_bikes": 8, "ebikes": 1, "last_updated": "2025-04-17 06:50:26", "online": true, "youbike_version": 2, "en": {"name": "Pingtung Park Ren'ai Road Parking Garage", "district": "Pingtung City", "address": "No.98, Ren'ai Rd.(Opposite)"}}}, {"id": "91061a611fd8b98e75eeea52bb2f1354", "name": "\u611b\u570b\u8def91\u5df7\u53e3", "latitude": 22.55184, "longitude": 120.54782, "timestamp": "2025-04-17T03:06:57.723537Z", "free_bikes": 5, "empty_slots": 11, "extra": {"uid": "501404092", "district": "\u6f6e\u5dde\u93ae", "address": "\u611b\u570b\u8def/\u611b\u570b\u8def91\u5df7\u53e3(\u6771\u5317\u5074)", "slots": 16, "normal_bikes": 5, "ebikes": 0, "last_updated": "2025-04-17 09:42:17", "online": true, "youbike_version": 2, "en": {"name": "Ln. 91, Aiguo Rd. Intersection", "district": "Chaozhou Town", "address": "Aiguo Rd./Ln. 91, Aiguo Rd.(Northeast)"}}}, {"id": "91338b2e3bd8149b06c09a7877a8cd2a", "name": "\u5c4f\u6771\u897f\u5e02\u5834", "latitude": 22.67371, "longitude": 120.47831, "timestamp": "2025-04-17T03:06:57.723190Z", "free_bikes": 7, "empty_slots": 13, "extra": {"uid": "501401128", "district": "\u5c4f\u6771\u5e02", "address": "\u548c\u5e73\u8def/\u548c\u5e73\u8def290\u5df7(\u6771\u5317\u5074)", "slots": 20, "normal_bikes": 4, "ebikes": 3, "last_updated": "2025-04-17 08:20:25", "online": true, "youbike_version": 2, "en": {"name": "Pingtung West Market", "district": "Pingtung City", "address": "Heping Rd./Ln. 290, Heping Rd.(Northeast)"}}}, {"id": "91ed00e1a4dce2e70d77d6ee79b68a40", "name": "\u5609\u65b0\u8def\u53e3", "latitude": 22.45979, "longitude": 120.45711, "timestamp": "2025-04-17T03:06:57.723285Z", "free_bikes": 12, "empty_slots": 28, "extra": {"uid": "501402089", "district": "\u6771\u6e2f\u93ae", "address": "\u5609\u65b0\u8def87\u4e4b1\u865f\u53f3\u5074", "slots": 40, "normal_bikes": 4, "ebikes": 8, "last_updated": "2025-04-17 10:20:23", "online": true, "youbike_version": 2, "en": {"name": "Jiaxin Rd. Intersection", "district": "Donggang Town", "address": "No. 87-1, Jiaxin Rd.(Right)"}}}, {"id": "928dcf6f61947931219c13f0d9f02eb9", "name": "\u6f6e\u5dde\u9435\u9053\u5712\u5340", "latitude": 22.52646, "longitude": 120.53628, "timestamp": "2025-04-17T03:06:57.723455Z", "free_bikes": 18, "empty_slots": 12, "extra": {"uid": "501404033", "district": "\u6f6e\u5dde\u93ae", "address": "\u5149\u5fa9\u8def461\u865f\u524d", "slots": 30, "normal_bikes": 17, "ebikes": 1, "last_updated": "2025-04-17 10:13:19", "online": true, "youbike_version": 2, "en": {"name": "Chaozhou Railway Park", "district": "Chaozhou Town", "address": "No. 461, Guangfu Rd."}}}, {"id": "95228ff9eb57054bb53f9c2e66e7b2ee", "name": "\u6046\u6625\u76e3\u5de5\u7ad9", "latitude": 22.00781, "longitude": 120.74357, "timestamp": "2025-04-17T03:06:57.723412Z", "free_bikes": 10, "empty_slots": 7, "extra": {"uid": "501403113", "district": "\u6046\u6625\u93ae", "address": "\u897f\u9580\u8def92\u865f", "slots": 17, "normal_bikes": 8, "ebikes": 2, "last_updated": "2025-04-17 07:20:25", "online": true, "youbike_version": 2, "en": {"name": "Hengchun Supervisor Station", "district": "Hengchun Town", "address": "No. 92, Ximen Rd."}}}, {"id": "958a5348a316d0db48bf92741a75ca23", "name": "\u6046\u6625\u5317\u9580", "latitude": 22.00763, "longitude": 120.74725, "timestamp": "2025-04-17T03:06:57.723356Z", "free_bikes": 5, "empty_slots": 21, "extra": {"uid": "501403102", "district": "\u6046\u6625\u93ae", "address": "\u5317\u9580\u8def174\u5df7/\u5317\u9580\u8def(\u897f\u5317\u5074)", "slots": 26, "normal_bikes": 0, "ebikes": 5, "last_updated": "2025-04-15 23:36:18", "online": true, "youbike_version": 2, "en": {"name": "Hengchun Nouth Gate", "district": "Hengchun Town", "address": "Ln. 174, Beimen Rd./Beimen Rd.(Northwest)"}}}, {"id": "95b6cc3b331839db2ce939220270a641", "name": "\u6f6e\u5dde\u93ae\u516c\u6709\u505c\u8eca\u5834", "latitude": 22.55241, "longitude": 120.54041, "timestamp": "2025-04-17T03:06:57.723518Z", "free_bikes": 4, "empty_slots": 25, "extra": {"uid": "501404056", "district": "\u6f6e\u5dde\u93ae", "address": "\u5ef6\u5e73\u8def35\u865f\u5c0d\u5074\u505c\u8eca\u5834", "slots": 29, "normal_bikes": 0, "ebikes": 4, "last_updated": "2025-04-17 10:10:24", "online": true, "youbike_version": 2, "en": {"name": "Chaozhou public parking lot", "district": "Chaozhou Town", "address": "No. 35, Yanping Rd.(Opposite)"}}}, {"id": "95f638ea5e0bbdba519771325a974e15", "name": "\u5c4f\u6771\u548c\u5e73\u6559\u6703", "latitude": 22.67143, "longitude": 120.47922, "timestamp": "2025-04-17T03:06:57.723171Z", "free_bikes": 5, "empty_slots": 11, "extra": {"uid": "501401118", "district": "\u5c4f\u6771\u5e02", "address": "\u6c11\u65cf\u8def399\u865f", "slots": 16, "normal_bikes": 4, "ebikes": 1, "last_updated": "2025-04-17 08:20:25", "online": true, "youbike_version": 2, "en": {"name": "Pingtung Peace Church", "district": "Pingtung City", "address": "No. 399, Minzu Rd."}}}, {"id": "97052a475507f8b3c6027c1e09473754", "name": "\u5927\u6b66\u69ae\u7e3d\u5357\u8def\u53e3", "latitude": 22.66056, "longitude": 120.47309, "timestamp": "2025-04-17T03:06:57.722821Z", "free_bikes": 12, "empty_slots": 3, "extra": {"uid": "501401026", "district": "\u5c4f\u6771\u5e02", "address": "\u5927\u6b66\u8def/\u69ae\u7e3d\u5357\u8def\u53e3(\u6771\u5357\u5074)", "slots": 15, "normal_bikes": 10, "ebikes": 2, "last_updated": "2025-04-17 07:50:24", "online": true, "youbike_version": 2, "en": {"name": "Dawu Rongzong S. Rd. Intersection", "district": "Pingtung City", "address": "Dawu Rd./Rongzong S. Rd. Intersection(Southeast)"}}}, {"id": "98385af1dcc94757712cb26cf63699a9", "name": "\u6f6e\u5dde\u8eca\u7ad9", "latitude": 22.5496, "longitude": 120.53648, "timestamp": "2025-04-17T03:06:57.723512Z", "free_bikes": 19, "empty_slots": 40, "extra": {"uid": "501404055", "district": "\u6f6e\u5dde\u93ae", "address": "\u4e2d\u5c71\u8def191\u865f\u5c0d\u5074", "slots": 61, "normal_bikes": 18, "ebikes": 1, "last_updated": "2025-04-17 10:20:23", "online": true, "youbike_version": 2, "en": {"name": "Chaozhou Station", "district": "Chaozhou Town", "address": "No. 191, Zhongshan Rd.(Opposite)"}}}, {"id": "9ab5f349db6347e90c9445c764944e16", "name": "\u5c4f\u6771\u9752\u5cf6\u8857\u505c\u8eca\u5834", "latitude": 22.67875, "longitude": 120.48811, "timestamp": "2025-04-17T03:06:57.723184Z", "free_bikes": 14, "empty_slots": 22, "extra": {"uid": "501401127", "district": "\u5c4f\u6771\u5e02", "address": "\u9752\u5cf6\u8857/\u5fe0\u5b5d\u8def(\u897f\u5317\u5074)", "slots": 36, "normal_bikes": 10, "ebikes": 4, "last_updated": "2025-04-17 10:02:18", "online": true, "youbike_version": 2, "en": {"name": "Pingtung Qingdao Street Parking Lot", "district": "Pingtung City", "address": "Qingdao St./Zhongxiao Rd.(Northwest)"}}}, {"id": "9df49920198bca62bd6d109233d499e3", "name": "\u5d07\u671d\u4e00\u8def\u53e3", "latitude": 22.68768, "longitude": 120.47507, "timestamp": "2025-04-17T03:06:57.723117Z", "free_bikes": 2, "empty_slots": 18, "extra": {"uid": "501401114", "district": "\u5c4f\u6771\u5e02", "address": "\u5d07\u671d\u4e00\u8def158\u865f\u5c0d\u5074", "slots": 20, "normal_bikes": 0, "ebikes": 2, "last_updated": "2025-04-17 08:20:25", "online": true, "youbike_version": 2, "en": {"name": "Chongchao 1st Rd. Intersection", "district": "Pingtung City", "address": "No. 158, Chongchao 1st Rd.(Opposite)"}}}, {"id": "a18c3b3c72cae241c5c6ee42716464e7", "name": "\u5c0f\u7063\u904a\u5ba2\u670d\u52d9\u4e2d\u5fc3\u505c\u8eca\u5834", "latitude": 21.94336, "longitude": 120.80212, "timestamp": "2025-04-17T03:06:57.723436Z", "free_bikes": 8, "empty_slots": 22, "extra": {"uid": "501403132", "district": "\u6046\u6625\u93ae", "address": "\u58be\u4e01\u8def321\u865f \u5de6\u5074", "slots": 30, "normal_bikes": 8, "ebikes": 0, "last_updated": "2025-04-16 14:50:26", "online": true, "youbike_version": 2, "en": {"name": "Xiaowan Visitor Center Parking Lot", "district": "Hengchun Town", "address": "No. 321, Kending Rd.(Left)"}}}, {"id": "a43cc477d2e368635dde1fa03697547b", "name": "\u5357\u9580\u90f5\u5c40", "latitude": 22.00249, "longitude": 120.74456, "timestamp": "2025-04-17T03:06:57.723332Z", "free_bikes": 15, "empty_slots": 6, "extra": {"uid": "501403080", "district": "\u6046\u6625\u93ae", "address": "\u4e2d\u6b63\u8def51\u865f\u524d", "slots": 21, "normal_bikes": 4, "ebikes": 11, "last_updated": "2025-04-17 08:30:25", "online": true, "youbike_version": 2, "en": {"name": "Hengchun Nanmen Post Office", "district": "Hengchun Town", "address": "No. 51, Zhongzheng Rd."}}}, {"id": "a5d099ac09570ccf051412ceb7cba449", "name": "\u4fe1\u7fa9\u8def\u7acb\u9ad4\u505c\u8eca\u5834", "latitude": 22.67575007, "longitude": 120.4885925, "timestamp": "2025-04-17T03:06:57.722666Z", "free_bikes": 7, "empty_slots": 15, "extra": {"uid": "501401006", "district": "\u5c4f\u6771\u5e02", "address": "\u5317\u5e73\u8def26\u865f\u5c0d\u5074", "slots": 23, "normal_bikes": 5, "ebikes": 2, "last_updated": "2025-04-17 10:30:24", "online": true, "youbike_version": 2, "en": {"name": "Xinyi Road Parking Garage", "district": "Pingtung City", "address": "No.26, Beiping Rd.(Opposite)"}}}, {"id": "a82778fdd1e3e4cb0111de70887c54c9", "name": "\u52dd\u5229\u661f\u6751\u505c\u8eca\u5834", "latitude": 22.67878818, "longitude": 120.4818145, "timestamp": "2025-04-17T03:06:57.722646Z", "free_bikes": 3, "empty_slots": 17, "extra": {"uid": "501401003", "district": "\u5c4f\u6771\u5e02", "address": "\u535a\u611b\u8def202\u865f\u505c\u8eca\u5834\u5167", "slots": 20, "normal_bikes": 3, "ebikes": 0, "last_updated": "2025-04-17 10:52:17", "online": true, "youbike_version": 2, "en": {"name": "Victorystar in Pingtung Parking Lot", "district": "Pingtung City", "address": "No.202, Bo'ai  Rd"}}}, {"id": "a86083b98e94c9aad001a0d4c9cc6dad", "name": "\u6f6e\u5dde\u5fe0\u7fa9\u7960", "latitude": 22.55269, "longitude": 120.55014, "timestamp": "2025-04-17T03:06:57.723591Z", "free_bikes": 3, "empty_slots": 27, "extra": {"uid": "501404136", "district": "\u6f6e\u5dde\u93ae", "address": "\u5fe0\u7fa9\u8def101\u865f(\u897f\u5317\u5074)", "slots": 30, "normal_bikes": 3, "ebikes": 0, "last_updated": "2025-04-16 11:20:24", "online": true, "youbike_version": 2, "en": {"name": "Chaozhou  Zhongyi Temple", "district": "Chaozhou Town", "address": "No. 101, Zhongyi Rd.(Northwest)"}}}, {"id": "af039047162d812d2cbcda6e23b9a540", "name": "\u6ff1\u7063\u78bc\u982d", "latitude": 22.43847, "longitude": 120.47365, "timestamp": "2025-04-17T03:06:57.723259Z", "free_bikes": 13, "empty_slots": 17, "extra": {"uid": "501402069", "district": "\u6771\u6e2f\u93ae", "address": "\u5927\u9d6c\u7063\u74b0\u7063\u9053\u8def\u4e94\u6bb550\u865f", "slots": 30, "normal_bikes": 12, "ebikes": 1, "last_updated": "2025-04-17 05:59:18", "online": true, "youbike_version": 2, "en": {"name": "Dapeng Bay Marina", "district": "Donggang Town", "address": "No. 50, Sec. 5, Pengwan Blvd."}}}, {"id": "afdee220ef1a887d03de0ebc99239488", "name": "\u6f6e\u5dde\u9ad8\u4e2d", "latitude": 22.54966, "longitude": 120.54417, "timestamp": "2025-04-17T03:06:57.723543Z", "free_bikes": 46, "empty_slots": 10, "extra": {"uid": "501404093", "district": "\u6f6e\u5dde\u93ae", "address": "\u4e2d\u5c71\u8def/\u4e2d\u5c71\u4e8c\u5df7(\u6771\u5357\u5074)", "slots": 56, "normal_bikes": 18, "ebikes": 28, "last_updated": "2025-04-17 10:13:19", "online": true, "youbike_version": 2, "en": {"name": "National Chaochou Senior High School", "district": "Chaozhou Town", "address": "Zhongshan Rd./Ln. 2, Zhongshan Rd.(Southeast)"}}}, {"id": "b07e8f73dd473f86548e7b4bd3b415e7", "name": "\u4e2d\u5c71\u862d\u5dde\u8857\u53e3", "latitude": 22.68029, "longitude": 120.48452, "timestamp": "2025-04-17T03:06:57.723196Z", "free_bikes": 12, "empty_slots": 13, "extra": {"uid": "501401129", "district": "\u5c4f\u6771\u5e02", "address": "\u4e2d\u5c71\u8def/\u862d\u5dde\u8857(\u897f\u5317\u5074)", "slots": 25, "normal_bikes": 5, "ebikes": 7, "last_updated": "2025-04-17 11:00:23", "online": true, "youbike_version": 2, "en": {"name": "Zhongshan Lanzhou Rd. Intersection", "district": "Pingtung City", "address": "Zhongshan Rd./Lanzhou Rd.(Northwest)"}}}, {"id": "b096bfbdaff6a73d82f2756aa52618fa", "name": "\u5149\u6625\u570b\u5c0f", "latitude": 22.54069, "longitude": 120.53718, "timestamp": "2025-04-17T03:06:57.723467Z", "free_bikes": 6, "empty_slots": 9, "extra": {"uid": "501404035", "district": "\u6f6e\u5dde\u93ae", "address": "\u5fd7\u6210\u8def201\u865f\u524d", "slots": 15, "normal_bikes": 4, "ebikes": 2, "last_updated": "2025-04-17 10:50:25", "online": true, "youbike_version": 2, "en": {"name": "Guang-Chun Elementary School", "district": "Chaozhou Town", "address": "No. 201, Zhicheng Rd."}}}, {"id": "b3ef48508adc60bce1ac19402241b27e", "name": "\u6046\u66251\u865f\u5152\u7ae5\u516c\u5712", "latitude": 22.00635, "longitude": 120.74519, "timestamp": "2025-04-17T03:06:57.723321Z", "free_bikes": 0, "empty_slots": 0, "extra": {"uid": "501403076", "district": "\u6046\u6625\u93ae", "address": "\u65b0\u8208\u8def106\u5df715-1\u865f", "slots": 15, "normal_bikes": 0, "ebikes": 0, "last_updated": "2024-11-29 11:47:19", "online": false, "youbike_version": 2, "en": {"name": "Hengchun Children's Park No.1", "district": "Hengchun Town", "address": "No. 15-1, Ln. 106, Xinxing Rd."}}}, {"id": "b414eb788d7d50cc2b4ac0c49d0f07d9", "name": "\u6771\u6e2f\u8f49\u904b\u7ad9", "latitude": 22.46425, "longitude": 120.45767, "timestamp": "2025-04-17T03:06:57.723291Z", "free_bikes": 16, "empty_slots": 14, "extra": {"uid": "501402121", "district": "\u6771\u6e2f\u93ae", "address": "\u8239\u982d\u8def3\u865f", "slots": 30, "normal_bikes": 9, "ebikes": 7, "last_updated": "2025-04-17 06:20:26", "online": true, "youbike_version": 2, "en": {"name": "Donggang Bus Station", "district": "Donggang Town", "address": "No. 3, Chuantou Rd."}}}, {"id": "b49eb4a4ca0b035bf3eb2008953ba762", "name": "\u7d93\u6fdf\u90e8\u5c4f\u6771\u7522\u696d\u5712\u5340\u670d\u52d9\u4e2d\u5fc3", "latitude": 22.66329, "longitude": 120.49991, "timestamp": "2025-04-17T03:06:57.723092Z", "free_bikes": 9, "empty_slots": 6, "extra": {"uid": "501401088", "district": "\u5c4f\u6771\u5e02", "address": "\u5de5\u696d\u4e00\u8def5\u865f", "slots": 15, "normal_bikes": 5, "ebikes": 4, "last_updated": "2025-04-17 10:20:23", "online": true, "youbike_version": 2, "en": {"name": "Pingtung Industrial Park Service Center", "district": "Pingtung City", "address": "No. 5, Gongye 1st Rd."}}}, {"id": "b5091f3bea3d3283a7e2197fa312ade2", "name": "\u6f6e\u5dde\u570b\u4e2d", "latitude": 22.553762, "longitude": 120.54271, "timestamp": "2025-04-17T03:06:57.723449Z", "free_bikes": 11, "empty_slots": 19, "extra": {"uid": "501404032", "district": "\u6f6e\u5dde\u93ae", "address": "\u6c38\u5764\u8def/\u6587\u5316\u8def\u53e3(\u6771\u5317\u5074)", "slots": 30, "normal_bikes": 6, "ebikes": 5, "last_updated": "2025-04-17 07:30:25", "online": true, "youbike_version": 2, "en": {"name": "Chaozhou Junior High School", "district": "Chaozhou Town", "address": "Yongkun Rd./Wenhua Rd.(Northeast)"}}}, {"id": "b818702a4d87104f4f9b0ae0feb61e2d", "name": "\u5357\u7063\u904a\u61a9\u5340", "latitude": 21.96082, "longitude": 120.7634, "timestamp": "2025-04-17T03:06:57.723375Z", "free_bikes": 9, "empty_slots": 7, "extra": {"uid": "501403107", "district": "\u6046\u6625\u93ae", "address": "\u5357\u7063\u8def202\u865f\u5c0d\u5074", "slots": 16, "normal_bikes": 9, "ebikes": 0, "last_updated": "2025-04-14 15:40:24", "online": true, "youbike_version": 2, "en": {"name": "South Bay Recreation Area", "district": "Hengchun Town", "address": "No. 202, Nanwan Rd.(Opposite)"}}}, {"id": "b94ba4e3fee204e8bf2e2a5b5082b9fc", "name": "\u6f6e\u5dde\u570b\u5c0f", "latitude": 22.54864, "longitude": 120.54032, "timestamp": "2025-04-17T03:06:57.723473Z", "free_bikes": 6, "empty_slots": 9, "extra": {"uid": "501404036", "district": "\u6f6e\u5dde\u93ae", "address": "\u6e05\u6c34\u5357\u8def35\u865f\u5c0d\u5074", "slots": 15, "normal_bikes": 5, "ebikes": 1, "last_updated": "2025-04-16 15:10:25", "online": true, "youbike_version": 2, "en": {"name": "Chaozhou Elementary School", "district": "Chaozhou Town", "address": "No. 35, Qingshui S. Rd.(Opposite)"}}}, {"id": "ba6a1554ca03ae67a4392434bb62cde3", "name": "\u7802\u5cf6", "latitude": 21.91345, "longitude": 120.84782, "timestamp": "2025-04-17T03:06:57.723424Z", "free_bikes": 5, "empty_slots": 14, "extra": {"uid": "501403123", "district": "\u6046\u6625\u93ae", "address": "\u7802\u5cf6\u8def234-1\u865f", "slots": 20, "normal_bikes": 5, "ebikes": 0, "last_updated": "2025-04-11 16:23:18", "online": true, "youbike_version": 2, "en": {"name": "Shadao", "district": "Hengchun Town", "address": "No. 234-1, Shadao Rd."}}}, {"id": "ba6b9056e5a7cdfd189ef9dd663ad329", "name": "\u5c4f\u6771\u5927\u5b78\u8868\u6f14\u5ef3(\u897f\u5074)", "latitude": 22.67035, "longitude": 120.50084, "timestamp": "2025-04-17T03:06:57.722835Z", "free_bikes": 29, "empty_slots": 18, "extra": {"uid": "501401028", "district": "\u5c4f\u6771\u5e02", "address": "\u6c11\u6559\u8def/\u6797\u68ee\u8def\u53e3", "slots": 47, "normal_bikes": 27, "ebikes": 2, "last_updated": "2025-04-17 10:13:19", "online": true, "youbike_version": 2, "en": {"name": "National Pingtung University Concert Hall (west)", "district": "Pingtung City", "address": "No. 2, Ruimin Rd."}}}, {"id": "bc170b8a89eb9bcfc1764abb392d94ff", "name": "\u5c4f\u83f81936\u6587\u5316\u57fa\u5730\u7acb\u9ad4\u505c\u8eca\u5834", "latitude": 22.66208, "longitude": 120.50491, "timestamp": "2025-04-17T03:06:57.722861Z", "free_bikes": 12, "empty_slots": 3, "extra": {"uid": "501401041", "district": "\u5c4f\u6771\u5e02", "address": "\u83f8\u5ee0\u8def1\u865f\u524d\u6a5f\u8eca\u505c\u8eca\u5834", "slots": 15, "normal_bikes": 12, "ebikes": 0, "last_updated": "2025-04-16 13:40:25", "online": true, "youbike_version": 2, "en": {"name": "Pingtung 1936 Tobacco Culture Base Parking Garage", "district": "Pingtung City", "address": "No. 1, Yanchang Rd.(motorcycle parking lot)"}}}, {"id": "bca821e54e122ba66970366aa50d87c3", "name": "\u4e0b\u842c\u91cc\u6850", "latitude": 21.99768, "longitude": 120.7059, "timestamp": "2025-04-17T03:06:57.723394Z", "free_bikes": 5, "empty_slots": 10, "extra": {"uid": "501403110", "district": "\u6046\u6625\u93ae", "address": "\u842c\u91cc\u8def27-8\u865f\u5c0d\u5074", "slots": 15, "normal_bikes": 4, "ebikes": 1, "last_updated": "2025-04-16 06:46:23", "online": true, "youbike_version": 2, "en": {"name": "Xiawanlitong", "district": "Hengchun Town", "address": "No. 27-8, Wanli Rd.(Opposite)"}}}, {"id": "c15d12cee957148fb8d9d5fd7141151a", "name": "\u5c4f\u6771\u7e23\u5ba2\u5bb6\u6587\u5316\u4e2d\u5fc3", "latitude": 22.617542, "longitude": 120.52319, "timestamp": "2025-04-17T03:06:57.723623Z", "free_bikes": 9, "empty_slots": 8, "extra": {"uid": "501408140", "district": "\u7af9\u7530\u9109", "address": "\u9f8d\u9580\u8def97\u865f", "slots": 17, "normal_bikes": 9, "ebikes": 0, "last_updated": "2025-04-17 06:50:26", "online": true, "youbike_version": 2, "en": {"name": "Pingtung County Hakka Cultural Center", "district": "Zhutian Township", "address": "No. 97, Longmen Rd."}}}, {"id": "c27a94c16687f4b62ab2874b244cdc57", "name": "\u6f6e\u5dde\u6cd7\u6797\u7da0\u8272\u96a7\u9053", "latitude": 22.54939, "longitude": 120.55576, "timestamp": "2025-04-17T03:06:57.723494Z", "free_bikes": 12, "empty_slots": 6, "extra": {"uid": "501404039", "district": "\u6f6e\u5dde\u93ae", "address": "\u6f6e\u5dde\u7da0\u8272\u96a7\u9053(\u6f6e\u5dde\u8def)", "slots": 18, "normal_bikes": 11, "ebikes": 1, "last_updated": "2025-04-17 10:13:19", "online": true, "youbike_version": 2, "en": {"name": "Chaozhou Silin walking trail", "district": "Chaozhou Town", "address": "Chaozhou Green Tunnel(Chaozhou Rd.)"}}}, {"id": "cac7dd077f60cbfd1ec812fa1750abc1", "name": "\u745e\u5149\u91cc\u6d3b\u52d5\u4e2d\u5fc3", "latitude": 22.66527, "longitude": 120.50819, "timestamp": "2025-04-17T03:06:57.723203Z", "free_bikes": 6, "empty_slots": 24, "extra": {"uid": "501401138", "district": "\u5c4f\u6771\u5e02", "address": "\u745e\u4e2d\u885713\u865f", "slots": 30, "normal_bikes": 6, "ebikes": 0, "last_updated": "2025-04-17 05:58:18", "online": true, "youbike_version": 2, "en": {"name": "Ruiguang  Community Center", "district": "Pingtung City", "address": "No. 13, Ruizhong St."}}}, {"id": "cddbfcc1f905c3b0566ed063e150a78b", "name": "\u6f6e\u597d\u73a9\u5e78\u798f\u6751", "latitude": 22.53357, "longitude": 120.53894, "timestamp": "2025-04-17T03:06:57.723461Z", "free_bikes": 7, "empty_slots": 8, "extra": {"uid": "501404034", "district": "\u6f6e\u5dde\u93ae", "address": "\u5149\u6625\u8def292\u865f", "slots": 15, "normal_bikes": 1, "ebikes": 6, "last_updated": "2025-04-14 20:20:25", "online": true, "youbike_version": 2, "en": {"name": "Chaozhou Happiness Village", "district": "Chaozhou Town", "address": "No. 292, Guangchun Rd."}}}, {"id": "d0989b43c106baf7b42ccdd0cd83ba25", "name": "\u5c4f\u6771\u7e23\u74b0\u4fdd\u5c40", "latitude": 22.68843, "longitude": 120.49477, "timestamp": "2025-04-17T03:06:57.722765Z", "free_bikes": 10, "empty_slots": 4, "extra": {"uid": "501401021", "district": "\u5c4f\u6771\u5e02", "address": "\u5317\u8208\u885756\u865f\u524d", "slots": 14, "normal_bikes": 7, "ebikes": 3, "last_updated": "2025-04-17 07:40:27", "online": true, "youbike_version": 2, "en": {"name": "Environmental Protection Bureau, Pingtung County Government", "district": "Pingtung City", "address": "No.56, Beixing St."}}}, {"id": "d0b9ab470adc10190e636c925fc8e610", "name": "\u5c4f\u6771\u516c\u5712", "latitude": 22.67365796, "longitude": 120.4930977, "timestamp": "2025-04-17T03:06:57.722740Z", "free_bikes": 69, "empty_slots": 6, "extra": {"uid": "501401017", "district": "\u5c4f\u6771\u5e02", "address": "\u516c\u5712\u8def19\u865f\u5c0d\u5074", "slots": 75, "normal_bikes": 19, "ebikes": 50, "last_updated": "2025-04-17 10:13:19", "online": true, "youbike_version": 2, "en": {"name": "Pingtung Park(Gongyuan Rd.)", "district": "Pingtung City", "address": "No.19, Gongyuan Rd.(Opposite)"}}}, {"id": "d1501d3923fa5b8d1328d1231ed78e62", "name": "\u5343\u79a7\u516c\u5712(\u52dd\u5229\u6771\u8def)", "latitude": 22.67673, "longitude": 120.50008, "timestamp": "2025-04-17T03:06:57.722855Z", "free_bikes": 1, "empty_slots": 10, "extra": {"uid": "501401031", "district": "\u5c4f\u6771\u5e02", "address": "\u52dd\u5229\u6771\u8def15\u865f\u5c0d\u5074", "slots": 11, "normal_bikes": 0, "ebikes": 1, "last_updated": "2025-04-17 07:41:17", "online": true, "youbike_version": 2, "en": {"name": "Millennium Park(Shengli E. Rd.)", "district": "Pingtung City", "address": "No. 15, Shengli E. Rd.(Opposite)"}}}, {"id": "d2d25ab8377092dc177628e55887f754", "name": "\u6f6e\u5dde\u620e\u514b\u8239\u5ee3\u5834", "latitude": 22.56362, "longitude": 120.54119, "timestamp": "2025-04-17T03:06:57.723579Z", "free_bikes": 5, "empty_slots": 9, "extra": {"uid": "501404119", "district": "\u6f6e\u5dde\u93ae", "address": "\u91cd\u7fa9\u5df769\u865f", "slots": 14, "normal_bikes": 3, "ebikes": 2, "last_updated": "2025-04-14 09:10:24", "online": true, "youbike_version": 2, "en": {"name": "Chaozhou Junk Plaza", "district": "Chaozhou Town", "address": "No. 69, Chongyi Ln."}}}, {"id": "d2f1356c484085f7a9ea42dc2bbdea76", "name": "\u6d77\u8c50\u570b\u5c0f", "latitude": 22.69861, "longitude": 120.50836, "timestamp": "2025-04-17T03:06:57.723177Z", "free_bikes": 7, "empty_slots": 7, "extra": {"uid": "501401120", "district": "\u5c4f\u6771\u5e02", "address": "\u6d77\u8c50\u88573\u865f", "slots": 15, "normal_bikes": 6, "ebikes": 1, "last_updated": "2025-04-17 01:41:23", "online": true, "youbike_version": 2, "en": {"name": "Hai Fong Elementary School", "district": "Pingtung City", "address": "No. 3, Haifeng St."}}}, {"id": "d327f1cc0ec81d980704460d30181c1b", "name": "\u516c\u6b63\u570b\u4e2d", "latitude": 22.64092, "longitude": 120.48402, "timestamp": "2025-04-17T03:06:57.723111Z", "free_bikes": 5, "empty_slots": 11, "extra": {"uid": "501401105", "district": "\u5c4f\u6771\u5e02", "address": "\u516c\u8208\u8def/\u516c\u8208\u8def60\u5df7(\u6771\u5317\u5074)", "slots": 16, "normal_bikes": 5, "ebikes": 0, "last_updated": "2025-04-17 04:37:18", "online": true, "youbike_version": 2, "en": {"name": "Pingtung County Kung Cheng Junior High School", "district": "Pingtung City", "address": "Gongxing Rd./Ln. 60, Gongxing Rd.(Northeast)"}}}, {"id": "d4502204a61a47277d71a1fea517c173", "name": "\u5c4f\u5927\u9644\u5c0f", "latitude": 22.66874, "longitude": 120.49834, "timestamp": "2025-04-17T03:06:57.723085Z", "free_bikes": 8, "empty_slots": 7, "extra": {"uid": "501401085", "district": "\u5c4f\u6771\u5e02", "address": "\u5ee3\u6771\u8def20\u865f", "slots": 15, "normal_bikes": 6, "ebikes": 2, "last_updated": "2025-04-17 08:10:24", "online": true, "youbike_version": 2, "en": {"name": "NPTUPS", "district": "Pingtung City", "address": "No. 20, Guangdong Rd."}}}, {"id": "d62bab924ea620db5e042513d383b85c", "name": "\u5e78\u798f\u516c\u5712", "latitude": 22.67852491, "longitude": 120.4919051, "timestamp": "2025-04-17T03:06:57.722687Z", "free_bikes": 0, "empty_slots": 15, "extra": {"uid": "501401009", "district": "\u5c4f\u6771\u5e02", "address": "\u4e2d\u83ef\u8def/\u52dd\u5229\u8def\u53e3(\u897f\u5357\u5074)", "slots": 15, "normal_bikes": 0, "ebikes": 0, "last_updated": "2025-04-17 11:05:17", "online": true, "youbike_version": 2, "en": {"name": "Singfu Park Parking Garage", "district": "Pingtung City", "address": "Zhonghua Rd./Shengli Rd.(Southwest)"}}}, {"id": "d6d3db4fdd75a449d5bb4ab6369c9482", "name": "\u6b78\u4f86\u8eca\u7ad9", "latitude": 22.6523, "longitude": 120.50263, "timestamp": "2025-04-17T03:06:57.722849Z", "free_bikes": 15, "empty_slots": 13, "extra": {"uid": "501401030", "district": "\u5c4f\u6771\u5e02", "address": "\u6b78\u4ec1\u8def1\u5df7(\u6b78\u4f86\u8eca\u7ad92\u865f\u6708\u53f0\u4e0b)", "slots": 28, "normal_bikes": 12, "ebikes": 3, "last_updated": "2025-04-17 08:30:25", "online": true, "youbike_version": 2, "en": {"name": "Guilai Station, TRA", "district": "Pingtung City", "address": "Guiren 1st Ln.(Under platform 2 of Guilai Station)"}}}, {"id": "db59839061f9947a8a668d3f557c86c5", "name": "\u7389\u6210\u793e\u5340\u6d3b\u52d5\u4e2d\u5fc3", "latitude": 22.63656, "longitude": 120.4738, "timestamp": "2025-04-17T03:06:57.723164Z", "free_bikes": 5, "empty_slots": 12, "extra": {"uid": "501401116", "district": "\u5c4f\u6771\u5e02", "address": "\u516c\u8208\u8def621\u865f", "slots": 17, "normal_bikes": 4, "ebikes": 1, "last_updated": "2025-04-17 04:26:21", "online": true, "youbike_version": 2, "en": {"name": "Yucheng Community Center", "district": "Pingtung City", "address": "No. 621, Gongxing Rd."}}}, {"id": "e1b8aa902315d326e3b4ad7e3b9169a5", "name": "\u53f0\u7cd6\u5fa9\u8208\u8def\u53e3", "latitude": 22.66281, "longitude": 120.48884, "timestamp": "2025-04-17T03:06:57.722986Z", "free_bikes": 8, "empty_slots": 22, "extra": {"uid": "501401052", "district": "\u5c4f\u6771\u5e02", "address": "\u53f0\u7cd6\u88573\u865f\u5c0d\u5074", "slots": 30, "normal_bikes": 2, "ebikes": 6, "last_updated": "2025-04-17 08:20:25", "online": true, "youbike_version": 2, "en": {"name": "Taitang Fuxing Rd. Intersection", "district": "Pingtung City", "address": "No. 3, Taitang St.(Opposite)"}}}, {"id": "e4311efd658a542890ea283f5124c6f3", "name": "\u4fe1\u7fa9\u570b\u5c0f", "latitude": 22.68488, "longitude": 120.49127, "timestamp": "2025-04-17T03:06:57.723066Z", "free_bikes": 3, "empty_slots": 12, "extra": {"uid": "501401082", "district": "\u5c4f\u6771\u5e02", "address": "\u4fe1\u7fa9\u8def262\u865f", "slots": 15, "normal_bikes": 2, "ebikes": 1, "last_updated": "2025-04-17 10:30:24", "online": true, "youbike_version": 2, "en": {"name": "Xin-Yi Elementary School", "district": "Pingtung City", "address": "No. 262, Xinyi Rd."}}}, {"id": "e60e03dbb1af96ad732ec764cd334109", "name": "\u5c4f\u6771\u8eca\u7ad9", "latitude": 22.66921993, "longitude": 120.4874209, "timestamp": "2025-04-17T03:06:57.722713Z", "free_bikes": 8, "empty_slots": 85, "extra": {"uid": "501401013", "district": "\u5c4f\u6771\u5e02", "address": "\u5149\u5fa9\u8def/\u5357\u660c\u8857\u53e3(\u5357\u5074)", "slots": 94, "normal_bikes": 8, "ebikes": 0, "last_updated": "2025-04-17 11:00:23", "online": true, "youbike_version": 2, "en": {"name": "Pingtung Station, TRA", "district": "Pingtung City", "address": "Guangfu Rd./Nanchang St.(South)"}}}, {"id": "eae4b841f3bc74467918fd230881b33b", "name": "\u6046\u6625\u5de5\u5546", "latitude": 21.99228, "longitude": 120.74712, "timestamp": "2025-04-17T03:06:57.723309Z", "free_bikes": 7, "empty_slots": 11, "extra": {"uid": "501403074", "district": "\u6046\u6625\u93ae", "address": "\u6052\u5357\u8def38\u865f", "slots": 18, "normal_bikes": 2, "ebikes": 5, "last_updated": "2025-04-17 07:40:27", "online": true, "youbike_version": 2, "en": {"name": "National Hengchun Vocational High School", "district": "Hengchun Town", "address": "No. 38, Hengnan Rd."}}}, {"id": "eb153f52d625c2f175f9dcce30966424", "name": "\u548c\u5e73\u516c\u5712(\u6771\u5317\u5074)", "latitude": 22.68629, "longitude": 120.50168, "timestamp": "2025-04-17T03:06:57.722774Z", "free_bikes": 6, "empty_slots": 10, "extra": {"uid": "501401022", "district": "\u5c4f\u6771\u5e02", "address": "\u83ef\u6b63\u8def77\u865f(\u897f\u5074\u516c\u5712)", "slots": 16, "normal_bikes": 4, "ebikes": 2, "last_updated": "2025-04-17 08:10:24", "online": true, "youbike_version": 2, "en": {"name": "Peace Park(Northeast)", "district": "Pingtung City", "address": "No.77, Huazheng Rd.(West)"}}}, {"id": "edb603d1f96863fc7e3a5ce95b76de14", "name": "\u5c0f\u7063", "latitude": 21.94138, "longitude": 120.80612, "timestamp": "2025-04-17T03:06:57.723388Z", "free_bikes": 5, "empty_slots": 20, "extra": {"uid": "501403109", "district": "\u6046\u6625\u93ae", "address": "\u58be\u4e01\u8def2\u865f", "slots": 25, "normal_bikes": 5, "ebikes": 0, "last_updated": "2025-04-13 13:40:25", "online": true, "youbike_version": 2, "en": {"name": "Xiaowan", "district": "Hengchun Town", "address": "No. 2, Kending Rd."}}}, {"id": "f18c488ab8daa1adf038bf9ec7895fe1", "name": "\u5c4f\u6771\u6771\u5c71\u6cb3\u793e\u5340", "latitude": 22.68747, "longitude": 120.47129, "timestamp": "2025-04-17T03:06:57.722868Z", "free_bikes": 15, "empty_slots": 24, "extra": {"uid": "501401044", "district": "\u5c4f\u6771\u5e02", "address": "\u6a5f\u5834\u5317\u8def/\u5d07\u52dd\u4e00\u8857\u53e3(\u6771\u5357\u5074)", "slots": 40, "normal_bikes": 13, "ebikes": 2, "last_updated": "2025-04-17 08:10:24", "online": true, "youbike_version": 2, "en": {"name": "Pingtung Dongshanhe Community", "district": "Pingtung City", "address": "Jichang N. Rd./Chongming 1st St.(Southeast)"}}}, {"id": "f5ff82a71978c184e991f079f30ffd70", "name": "\u9752\u6d32\u6ff1\u6d77\u904a\u61a9\u5340", "latitude": 22.44713, "longitude": 120.45511, "timestamp": "2025-04-17T03:06:57.723265Z", "free_bikes": 6, "empty_slots": 14, "extra": {"uid": "501402070", "district": "\u6771\u6e2f\u93ae", "address": "\u5357\u5e73\u8def631\u865f", "slots": 20, "normal_bikes": 3, "ebikes": 3, "last_updated": "2025-04-17 04:50:27", "online": true, "youbike_version": 2, "en": {"name": "Qingzhou Coastal Recreation Area", "district": "Donggang Town", "address": "No. 631, Nanping Rd."}}}, {"id": "f80c4445388117f966f7c45378108098", "name": "\u6f6e\u5dde\u93ae\u7acb\u5716\u66f8\u9928", "latitude": 22.54668, "longitude": 120.54953, "timestamp": "2025-04-17T03:06:57.723524Z", "free_bikes": 5, "empty_slots": 16, "extra": {"uid": "501404057", "district": "\u6f6e\u5dde\u93ae", "address": "\u4e09\u661f\u8def39\u865f\u6771\u5074\u505c\u8eca\u5834", "slots": 21, "normal_bikes": 4, "ebikes": 1, "last_updated": "2025-04-14 17:40:27", "online": true, "youbike_version": 2, "en": {"name": "Chaozhou Township Library", "district": "Chaozhou Town", "address": "No. 39, Sanxing Rd.(Opposite)"}}}, {"id": "f812458d446072bb765a6a9a76644619", "name": "\u5c4f\u6771\u85dd\u8853\u9928", "latitude": 22.67686, "longitude": 120.47776, "timestamp": "2025-04-17T03:06:57.722881Z", "free_bikes": 15, "empty_slots": 27, "extra": {"uid": "501401046", "district": "\u5c4f\u6771\u5e02", "address": "\u548c\u5e73\u8def427\u865f", "slots": 42, "normal_bikes": 5, "ebikes": 10, "last_updated": "2025-04-17 10:30:24", "online": true, "youbike_version": 2, "en": {"name": "Pingtung Performing Arts Hall", "district": "Pingtung City", "address": "No. 427, Heping Rd."}}}, {"id": "f9af8e2bd45cd06f77ef30480157e86f", "name": "\u516c\u9928\u570b\u5c0f", "latitude": 22.63757, "longitude": 120.48098, "timestamp": "2025-04-17T03:06:57.723105Z", "free_bikes": 5, "empty_slots": 10, "extra": {"uid": "501401104", "district": "\u5c4f\u6771\u5e02", "address": "\u516c\u83ef\u8857/\u516c\u6210\u8def(\u6771\u5357\u5074)", "slots": 15, "normal_bikes": 4, "ebikes": 1, "last_updated": "2025-04-17 06:27:18", "online": true, "youbike_version": 2, "en": {"name": "Pingtung County Gungguan Elementary School", "district": "Pingtung City", "address": "Gonghua St./Gongcheng Rd.(Southeast)"}}}, {"id": "f9d2806337cd831aefb509400d09bf59", "name": "\u6771\u6e2f\u93ae\u7acb\u5716\u66f8\u9928", "latitude": 22.46738, "longitude": 120.45452, "timestamp": "2025-04-17T03:06:57.723234Z", "free_bikes": 10, "empty_slots": 5, "extra": {"uid": "501402065", "district": "\u6771\u6e2f\u93ae", "address": "\u65b0\u52dd\u885720\u865f", "slots": 15, "normal_bikes": 3, "ebikes": 7, "last_updated": "2025-04-17 02:28:17", "online": true, "youbike_version": 2, "en": {"name": "Donggang Township Library", "district": "Donggang Town", "address": "No. 20, Xinsheng St."}}}, {"id": "fa4be07e921d296b63a5163a6aef9bd4", "name": "\u5d07\u862d\u74b0\u4fdd\u516c\u5712(\u5ee3\u6771\u8def)", "latitude": 22.68722447, "longitude": 120.4797714, "timestamp": "2025-04-17T03:06:57.722659Z", "free_bikes": 3, "empty_slots": 12, "extra": {"uid": "501401005", "district": "\u5c4f\u6771\u5e02", "address": "\u5ee3\u6771\u8def1340\u865f\u5c0d\u5074", "slots": 15, "normal_bikes": 1, "ebikes": 2, "last_updated": "2025-04-17 08:50:25", "online": true, "youbike_version": 2, "en": {"name": "Chonglan Environmental Protection Park (Guangdong Rd.)", "district": "Pingtung City", "address": "No.1340,Guangdong Rd.(Opposite)"}}}, {"id": "fe61d39f3396c6fd04029b5bf4c4b4cc", "name": "\u5149\u5fa9\u6210\u529f\u8def\u53e3", "latitude": 22.46908, "longitude": 120.45532, "timestamp": "2025-04-17T03:06:57.723227Z", "free_bikes": 10, "empty_slots": 6, "extra": {"uid": "501402064", "district": "\u6771\u6e2f\u93ae", "address": "\u5149\u5fa9\u8def\u4e00\u6bb5328-3\u865f\u5c0d\u5074", "slots": 18, "normal_bikes": 8, "ebikes": 2, "last_updated": "2025-04-16 08:50:25", "online": true, "youbike_version": 2, "en": {"name": "Guangfu Chenggong Rd.Intersection", "district": "Donggang Town", "address": "No. 328-3, Sec. 1, Guangfu Rd.(Opposite)"}}}, {"id": "ff3e58df282228cc7ec4b06fbd6f91b3", "name": "\u56db\u6797\u570b\u5c0f", "latitude": 22.5451, "longitude": 120.56937, "timestamp": "2025-04-17T03:06:57.723531Z", "free_bikes": 7, "empty_slots": 8, "extra": {"uid": "501404058", "district": "\u6f6e\u5dde\u93ae", "address": "\u901a\u6f6e\u4e00\u5df71-1\u865f\u5c0d\u5074", "slots": 15, "normal_bikes": 4, "ebikes": 3, "last_updated": "2025-04-17 00:32:18", "online": true, "youbike_version": 2, "en": {"name": "Si Lin Elementary School", "district": "Chaozhou Town", "address": "No. 1-1, Tongchao 1st Ln.(Opposite)"}}}]}