{"id": "youbike-chiayi-city", "name": "YouBike", "location": {"latitude": 23.4797, "longitude": 120.4397, "city": "\u53f0\u7063 Chiayi City", "country": "TW"}, "href": "/v2/networks/youbike-chiayi-city", "company": ["YouBike Co., Ltd."], "system": "YouBike", "stations": [{"id": "02085b05a9745e3b255ad38cc4e82837", "name": "\u65b0\u69ae\u8ce2\u96c5\u8857\u53e3", "latitude": 23.471386073649, "longitude": 120.444953542936, "timestamp": "2025-04-17T03:06:55.767174Z", "free_bikes": 0, "empty_slots": 15, "extra": {"uid": "501001136", "district": "\u5e02\u5340", "address": "\u65b0\u69ae\u8def/\u8ce2\u96c5\u8857\u53e3(\u897f\u5317\u5074)", "slots": 15, "normal_bikes": 0, "ebikes": 0, "last_updated": "2025-04-17 10:52:17", "online": true, "youbike_version": 2, "en": {"name": "Xinrong Xianya Street", "district": "city", "address": "Xinrong Road/Xianya Street (northwest side)"}}}, {"id": "0465e14014c2dacfb90afa74913e3e47", "name": "\u5609\u83ef\u9ad8\u7d1a\u4e2d\u5b78", "latitude": 23.483979, "longitude": 120.47512, "timestamp": "2025-04-17T03:06:55.767256Z", "free_bikes": 16, "empty_slots": 6, "extra": {"uid": "501001150", "district": "\u5e02\u5340", "address": "\u6c11\u6b0a\u6771\u8def45\u865f(\u897f\u5074)", "slots": 22, "normal_bikes": 9, "ebikes": 7, "last_updated": "2025-04-17 09:02:19", "online": true, "youbike_version": 2, "en": {"name": "Ka Wah Senior High School", "district": "city", "address": "West side of No. 45, Minquan East Road"}}}, {"id": "069383e5ef21b6aa22101ebd22d99be4", "name": "\u6c11\u6b0a\u5171\u548c\u8def\u53e3", "latitude": 23.48305, "longitude": 120.45499, "timestamp": "2025-04-17T03:06:55.767471Z", "free_bikes": 5, "empty_slots": 9, "extra": {"uid": "501001179", "district": "\u5e02\u5340", "address": "\u6c11\u6b0a\u8def/\u5171\u548c\u8def\u53e3(\u5357\u5074)", "slots": 14, "normal_bikes": 5, "ebikes": 0, "last_updated": "2025-04-17 08:40:24", "online": true, "youbike_version": 2, "en": {"name": "Minquan Gonghe Rd. Intersection", "district": "city", "address": "Minquan Rd. & Gonghe Rd. Intersection (South)"}}}, {"id": "06a60d180a3af13db601b873d938f811", "name": "\u6c11\u751f\u5357\u8def120\u5df7\u53e3", "latitude": 23.47003, "longitude": 120.44686, "timestamp": "2025-04-17T03:06:55.766664Z", "free_bikes": 8, "empty_slots": 7, "extra": {"uid": "501001062", "district": "\u5e02\u5340", "address": "\u6c11\u751f\u5357\u8def118\u4e4b3\u865f", "slots": 15, "normal_bikes": 8, "ebikes": 0, "last_updated": "2025-04-17 05:58:18", "online": true, "youbike_version": 2, "en": {"name": "Ln. 120, Minsheng S. Rd. Intersection", "district": "city", "address": "No. 118-3, Minsheng S. Rd."}}}, {"id": "076c21bc719c8d481ecb12f837abc234", "name": "\u65b0\u5149\u4e09\u8d8a\u9060\u6771\u7ad9(\u6c38\u548c\u8857\u53e3)", "latitude": 23.47283, "longitude": 120.44029, "timestamp": "2025-04-17T03:06:55.766391Z", "free_bikes": 5, "empty_slots": 0, "extra": {"uid": "501001010", "district": "\u5e02\u5340", "address": "\u5782\u694a\u8def575\u865f", "slots": 10, "normal_bikes": 5, "ebikes": 0, "last_updated": "2025-04-17 06:39:20", "online": true, "youbike_version": 2, "en": {"name": "ShinKong MitsuKoshi &Far Eastern Sta. (Yonghe St. Intersection)", "district": "city", "address": "No. 575, Chuiyang Rd."}}}, {"id": "09afb89ea6d82219ff2e1a1aadfb923c", "name": "\u4ec1\u611b\u5152\u7ae5\u904a\u6232\u5834", "latitude": 23.46764, "longitude": 120.4435, "timestamp": "2025-04-17T03:06:55.766728Z", "free_bikes": 4, "empty_slots": 16, "extra": {"uid": "501001073", "district": "\u5e02\u5340", "address": "\u676d\u5dde\u4e00\u8857106\u865f\u5357\u5074", "slots": 20, "normal_bikes": 4, "ebikes": 0, "last_updated": "2025-04-17 06:29:18", "online": true, "youbike_version": 2, "en": {"name": "Ren'ai Children Playground", "district": "city", "address": "No. 106, Hangzhou 1st St. (South)"}}}, {"id": "0aaba93741cd42b0ed279bf1d3145200", "name": "\u5782\u694a\u5b89\u548c\u8857\u53e3", "latitude": 23.4747438, "longitude": 120.4588246, "timestamp": "2025-04-17T03:06:55.766681Z", "free_bikes": 3, "empty_slots": 15, "extra": {"uid": "501001065", "district": "\u5e02\u5340", "address": "\u5782\u694a\u8def64\u865f", "slots": 18, "normal_bikes": 2, "ebikes": 1, "last_updated": "2025-04-17 10:50:25", "online": true, "youbike_version": 2, "en": {"name": "Chuiyang & Anhe St. Intersection", "district": "city", "address": "No. 64, Chuiyang Rd."}}}, {"id": "0b93d3643e09942140bbe3e90d69ea6f", "name": "\u8208\u696d\u65b0\u6c11\u8def\u53e3", "latitude": 23.46799, "longitude": 120.44065, "timestamp": "2025-04-17T03:06:55.766709Z", "free_bikes": 6, "empty_slots": 19, "extra": {"uid": "501001070", "district": "\u5e02\u5340", "address": "\u8208\u696d\u897f\u8def245\u865f", "slots": 25, "normal_bikes": 6, "ebikes": 0, "last_updated": "2025-04-17 06:41:18", "online": true, "youbike_version": 2, "en": {"name": "Xingye & Xinmin Rd. Intersection", "district": "city", "address": "No. 245, Xingye W. Rd."}}}, {"id": "0d94ab88b2e32f373a590cf7dba48f6e", "name": "\u5927\u6eaa\u539d", "latitude": 23.484384, "longitude": 120.413203, "timestamp": "2025-04-17T03:06:55.767033Z", "free_bikes": 3, "empty_slots": 12, "extra": {"uid": "501001119", "district": "\u5e02\u5340", "address": "\u5927\u6eaa\u8def/\u9ad8\u9435\u5927\u9053(\u6771\u5317\u5074)", "slots": 15, "normal_bikes": 2, "ebikes": 1, "last_updated": "2025-04-17 09:30:24", "online": true, "youbike_version": 2, "en": {"name": "Daxicuo", "district": "city", "address": "Daxi Rd./HSR Blvd(Northeast)"}}}, {"id": "10b91d5db4a7b6a6e45325dfda9cad1b", "name": "\u5f70\u5316\u9280\u884c\u5609\u7fa9\u5206\u884c", "latitude": 23.47963, "longitude": 120.44583, "timestamp": "2025-04-17T03:06:55.766373Z", "free_bikes": 0, "empty_slots": 20, "extra": {"uid": "501001007", "district": "\u5e02\u5340", "address": "\u4e2d\u5c71\u8def386\u865f", "slots": 20, "normal_bikes": 0, "ebikes": 0, "last_updated": "2025-04-17 10:53:17", "online": true, "youbike_version": 2, "en": {"name": "Chang Hwa Bank-Chiayi Branch", "district": "city", "address": "No. 386, Zhongshan Rd."}}}, {"id": "10f30026d5e8863fa57c6e1c98fe9344", "name": "\u5609\u5317\u570b\u5c0f", "latitude": 23.49285, "longitude": 120.45442, "timestamp": "2025-04-17T03:06:55.766860Z", "free_bikes": 10, "empty_slots": 4, "extra": {"uid": "501001095", "district": "\u5e02\u5340", "address": "\u6771\u5340\u5609\u5317\u885797\u5df726\u865f\u6771\u5074", "slots": 14, "normal_bikes": 10, "ebikes": 0, "last_updated": "2025-04-17 09:30:24", "online": true, "youbike_version": 2, "en": {"name": "Chiapei Elementary School", "district": "city", "address": "No. 26, Ln. 97, Jiabei St., East Dist."}}}, {"id": "11074a45c234c840d2d7ccf321be0b24", "name": "\u5609\u7fa9\u9ad8\u4e2d(\u5927\u96c5\u8def)", "latitude": 23.477031, "longitude": 120.465573, "timestamp": "2025-04-17T03:06:55.766361Z", "free_bikes": 21, "empty_slots": 13, "extra": {"uid": "501001005", "district": "\u5e02\u5340", "address": "\u5927\u96c5\u8def\u4e8c\u6bb5738\u865f(\u524d)", "slots": 34, "normal_bikes": 16, "ebikes": 5, "last_updated": "2025-04-17 10:10:23", "online": true, "youbike_version": 2, "en": {"name": "National Chiayi Senior High School (Daya Rd.)", "district": "city", "address": "No. 738, Daya Rd. Sec 2"}}}, {"id": "1168d2523e0abaa6bd07a5e9073e016f", "name": "\u83ef\u5357\u9ad8\u5546", "latitude": 23.479245, "longitude": 120.459596, "timestamp": "2025-04-17T03:06:55.766546Z", "free_bikes": 25, "empty_slots": 18, "extra": {"uid": "501001038", "district": "\u5e02\u5340", "address": "\u5149\u5f69\u8857122\u865f(\u5c0d\u9762)", "slots": 43, "normal_bikes": 18, "ebikes": 7, "last_updated": "2025-04-17 08:10:24", "online": true, "youbike_version": 2, "en": {"name": "National Hua-Nan Vocational High School", "district": "city", "address": "No. 122, Guangcai St. (Opposite)"}}}, {"id": "12d7a270cc80932bba5b2bb98ecea201", "name": "\u5609\u7fa9\u5973\u4e2d(\u6587\u5316\u516c\u5712)", "latitude": 23.47377, "longitude": 120.45081, "timestamp": "2025-04-17T03:06:55.766504Z", "free_bikes": 39, "empty_slots": 21, "extra": {"uid": "501001030", "district": "\u5e02\u5340", "address": "\u5782\u694a\u8def243\u865f\u5317\u5074", "slots": 60, "normal_bikes": 36, "ebikes": 3, "last_updated": "2025-04-17 08:50:24", "online": true, "youbike_version": 2, "en": {"name": "National Chiayi Girls' Senior High School(Wenhua Park)", "district": "city", "address": "No. 243, Chuiyang Rd. (North)"}}}, {"id": "1780fd89ccc3aa438ca4fcdf0c4d206a", "name": "\u5609\u7fa9\u5730\u65b9\u6aa2\u5bdf\u7f72", "latitude": 23.4886266, "longitude": 120.4634864, "timestamp": "2025-04-17T03:06:55.766878Z", "free_bikes": 17, "empty_slots": 1, "extra": {"uid": "501001097", "district": "\u5e02\u5340", "address": "\u6797\u68ee\u6771\u8def288\u865f", "slots": 18, "normal_bikes": 11, "ebikes": 6, "last_updated": "2025-04-17 10:33:17", "online": true, "youbike_version": 2, "en": {"name": "Taiwan Chiayi District Prosecutors Office", "district": "city", "address": "No. 288, Linsen E. Rd., East Dist."}}}, {"id": "18863bef02866353f5cc9e518c0a3307", "name": "\u80b2\u4eba\u570b\u5c0f", "latitude": 23.47279, "longitude": 120.4163, "timestamp": "2025-04-17T03:06:55.767365Z", "free_bikes": 7, "empty_slots": 8, "extra": {"uid": "501001162", "district": "\u5e02\u5340", "address": "\u80b2\u4eba\u8def211\u865f\u524d", "slots": 15, "normal_bikes": 6, "ebikes": 1, "last_updated": "2025-04-17 03:51:17", "online": true, "youbike_version": 2, "en": {"name": "YuRen Elementary School", "district": "city", "address": "No. 211,YuRen Rd."}}}, {"id": "1f1984335d15d275ab3fc2a418245a1c", "name": "\u6587\u5316\u516c\u5712\u505c\u8eca\u5834", "latitude": 23.4738724, "longitude": 120.4493073, "timestamp": "2025-04-17T03:06:55.766403Z", "free_bikes": 14, "empty_slots": 6, "extra": {"uid": "501001013", "district": "\u5e02\u5340", "address": "\u5782\u694a\u8def434\u865f", "slots": 20, "normal_bikes": 14, "ebikes": 0, "last_updated": "2025-04-17 10:30:23", "online": true, "youbike_version": 2, "en": {"name": "Wenhua Park Parking Lot", "district": "city", "address": "No. 434, Chuiyang Rd."}}}, {"id": "2068ee950a97464466e68ad7a4f8bd49", "name": "\u5609\u7fa9\u9ad8\u5546(\u516c\u5712\u6d3e\u51fa\u6240)", "latitude": 23.482663, "longitude": 120.462988, "timestamp": "2025-04-17T03:06:55.766348Z", "free_bikes": 17, "empty_slots": 8, "extra": {"uid": "501001003", "district": "\u5e02\u5340", "address": "\u4e2d\u5c71\u8def2\u865f(\u524d)", "slots": 25, "normal_bikes": 17, "ebikes": 0, "last_updated": "2025-04-17 08:10:24", "online": true, "youbike_version": 2, "en": {"name": "National Chiayi Senior Commercial Vocational School (Gongyuan Police Sta.)", "district": "city", "address": "No. 2, Zhongshan Rd."}}}, {"id": "22ad34ec9e62799c2e74293f5724e712", "name": "\u6c11\u751f\u516c\u5712(\u676d\u5dde\u4e94\u8857\u53e3)", "latitude": 23.46542, "longitude": 120.44516, "timestamp": "2025-04-17T03:06:55.766721Z", "free_bikes": 4, "empty_slots": 11, "extra": {"uid": "501001072", "district": "\u5e02\u5340", "address": "\u6c11\u751f\u5357\u8def/\u676d\u5dde\u4e94\u8857\u53e3(\u897f\u5357\u5074)", "slots": 15, "normal_bikes": 4, "ebikes": 0, "last_updated": "2025-04-17 09:38:17", "online": true, "youbike_version": 2, "en": {"name": "Minsheng Park (Hangzhou 5th St.)", "district": "city", "address": "Minsheng S. Rd. / Hangzhou 5th St. (Southwest)"}}}, {"id": "254cc80368bd7f5abbd28f290dd24385", "name": "\u5d07\u4ec1\u91ab\u5c08", "latitude": 23.4801, "longitude": 120.48215, "timestamp": "2025-04-17T03:06:55.766933Z", "free_bikes": 6, "empty_slots": 13, "extra": {"uid": "501001103", "district": "\u5e02\u5340", "address": "\u6771\u5340\u5927\u96c5\u8def\u4e8c\u6bb542\u96443\u865f\u5357\u5074", "slots": 19, "normal_bikes": 6, "ebikes": 0, "last_updated": "2025-04-17 03:12:18", "online": true, "youbike_version": 2, "en": {"name": "Chung Jen College of Nursing Health Sciences and Management", "district": "city", "address": "No. 42-3, Sec. 2, Daya Rd., East Dist."}}}, {"id": "261f9b588e5ede2b594e8b93d6580968", "name": "\u535a\u611b\u5f8c\u9a5b\u8857\u53e3", "latitude": 23.478941, "longitude": 120.437805, "timestamp": "2025-04-17T03:06:55.766444Z", "free_bikes": 7, "empty_slots": 3, "extra": {"uid": "501001020", "district": "\u5e02\u5340", "address": "\u535a\u611b\u8def\u4e8c\u6bb5281\u865f", "slots": 10, "normal_bikes": 4, "ebikes": 3, "last_updated": "2025-04-17 07:40:26", "online": true, "youbike_version": 2, "en": {"name": "Bo'ai Houyi St. Intersection", "district": "city", "address": "No. 281, Bo'ai Rd. Sec 2"}}}, {"id": "28b4b3724f2ddd0aae9410c94306a4b9", "name": "\u4e0a\u6d77\u6f22\u53e3\u8def\u53e3", "latitude": 23.46575, "longitude": 120.43196, "timestamp": "2025-04-17T03:06:55.767423Z", "free_bikes": 7, "empty_slots": 9, "extra": {"uid": "501001171", "district": "\u5e02\u5340", "address": "\u4e0a\u6d77\u8def/\u6f22\u53e3\u8def\u53e3(\u897f\u5357\u5074)", "slots": 16, "normal_bikes": 7, "ebikes": 0, "last_updated": "2025-04-17 06:00:24", "online": true, "youbike_version": 2, "en": {"name": "Shanghai Hankou Rd. Intersection", "district": "city", "address": "Shanghai Rd. & Hankou Rd. Intersection (Southwest)"}}}, {"id": "2a4ba226d959d4633ebb8a60f04c0a2d", "name": "\u5609\u7fa9\u5e02\u8f49\u904b\u4e2d\u5fc3", "latitude": 23.48019, "longitude": 120.43972, "timestamp": "2025-04-17T03:06:55.766574Z", "free_bikes": 11, "empty_slots": 12, "extra": {"uid": "501001043", "district": "\u5e02\u5340", "address": "\u4e2d\u8208\u8def1\u865f", "slots": 23, "normal_bikes": 10, "ebikes": 1, "last_updated": "2025-04-17 11:00:23", "online": true, "youbike_version": 2, "en": {"name": "Chiayi City Transit Center", "district": "city", "address": "No. 1, Zhongxing Rd."}}}, {"id": "2af36b44a37c1b5566f0a7f0f2cf71d3", "name": "\u81fa\u7063\u9280\u884c\u5609\u5317\u5206\u884c(\u8010\u65af\u5ee3\u5834\u7ad9)", "latitude": 23.49715, "longitude": 120.45226, "timestamp": "2025-04-17T03:06:55.766978Z", "free_bikes": 1, "empty_slots": 11, "extra": {"uid": "501001110", "district": "\u5e02\u5340", "address": "\u5fe0\u5b5d\u8def602\u865f\u5317\u5074", "slots": 12, "normal_bikes": 1, "ebikes": 0, "last_updated": "2025-04-17 08:14:18", "online": true, "youbike_version": 2, "en": {"name": "Bank of Taiwan-Chiabei Branch(NICE PLAZA Station)", "district": "city", "address": "No. 602, Zhongxiao Rd., East Dist."}}}, {"id": "2c2c7608fbf5f2ba7950d7bcf505d408", "name": "\u5609\u5317\u706b\u8eca\u7ad9(\u524d\u7ad9\u51fa\u53e3)", "latitude": 23.499749, "longitude": 120.448592, "timestamp": "2025-04-17T03:06:55.766498Z", "free_bikes": 3, "empty_slots": 15, "extra": {"uid": "501001029", "district": "\u5e02\u5340", "address": "\u4fdd\u5065\u8857110\u865f", "slots": 18, "normal_bikes": 2, "ebikes": 1, "last_updated": "2025-04-17 10:50:25", "online": true, "youbike_version": 2, "en": {"name": "TRA Jiabei Sta.", "district": "city", "address": "No. 110, Baojian St."}}}, {"id": "2d7edcd223824f81d7a8b1529b617f22", "name": "\u65b0\u751f\u8def\u505c\u8eca\u5834(\u6c11\u65cf\u7ad9)", "latitude": 23.476969, "longitude": 120.461243, "timestamp": "2025-04-17T03:06:55.766581Z", "free_bikes": 0, "empty_slots": 0, "extra": {"uid": "501001044", "district": "\u5e02\u5340", "address": "\u6c11\u65cf\u8def25\u865f\u6771\u5074", "slots": 33, "normal_bikes": 0, "ebikes": 0, "last_updated": "2025-03-25 13:56:18", "online": false, "youbike_version": 2, "en": {"name": "Xinsheng Rd. Parking Lot (Minzu)", "district": "city", "address": "No. 25, Minzu Rd. (East)"}}}, {"id": "2ec9646d9b12109535a1747bffc4bba2", "name": "KANO\u5712\u5340\u505c\u8eca\u5834", "latitude": 23.4816872, "longitude": 120.4640992, "timestamp": "2025-04-17T03:06:55.767232Z", "free_bikes": 6, "empty_slots": 24, "extra": {"uid": "501001146", "district": "\u5e02\u5340", "address": "KANO\u5712\u5340\u505c\u8eca\u5834(\u6771\u5317\u5074)", "slots": 30, "normal_bikes": 6, "ebikes": 0, "last_updated": "2025-04-17 05:40:24", "online": true, "youbike_version": 2, "en": {"name": "KANO Park Parking Lot", "district": "city", "address": "KANO Park Parking Lot (Northeast)"}}}, {"id": "31b8a173e06ce09e8032fb681f66a252", "name": "\u4e16\u8ce2\u7af9\u570d\u8def\u53e3", "latitude": 23.48679, "longitude": 120.42523, "timestamp": "2025-04-17T03:06:55.767429Z", "free_bikes": 6, "empty_slots": 13, "extra": {"uid": "501001172", "district": "\u5e02\u5340", "address": "\u4e16\u8ce2\u8def\u4e00\u6bb5789\u865f(\u897f\u5317\u5074)", "slots": 19, "normal_bikes": 4, "ebikes": 2, "last_updated": "2025-04-17 07:00:26", "online": true, "youbike_version": 2, "en": {"name": "Shixian Zhuwei Rd. Intersection", "district": "city", "address": "No.789, Sec. 1, Shixian Rd. Intersection (Northwest)"}}}, {"id": "3215dd98f0b455d638831e008314e6de", "name": "\u897f\u5e02\u5834(\u570b\u83ef\u8857)", "latitude": 23.478772, "longitude": 120.4485543, "timestamp": "2025-04-17T03:06:55.766792Z", "free_bikes": 0, "empty_slots": 6, "extra": {"uid": "501001086", "district": "\u5e02\u5340", "address": "\u570b\u83ef\u8857168\u865f\u897f\u5074", "slots": 6, "normal_bikes": 0, "ebikes": 0, "last_updated": "2025-04-17 10:58:17", "online": true, "youbike_version": 2, "en": {"name": "The West Market(Guohua St.)", "district": "city", "address": "No. 168, Guohua St., West Dist."}}}, {"id": "326f515b9d52ef89bf99088d60063c98", "name": "\u5609\u7fa9\u516c\u5712(\u516c\u5712\u8857)", "latitude": 23.48038, "longitude": 120.46651, "timestamp": "2025-04-17T03:06:55.767459Z", "free_bikes": 3, "empty_slots": 11, "extra": {"uid": "501001177", "district": "\u5e02\u5340", "address": "\u516c\u5712\u8857117\u865f(\u5c0d\u5074)", "slots": 14, "normal_bikes": 3, "ebikes": 0, "last_updated": "2025-04-17 04:11:17", "online": true, "youbike_version": 2, "en": {"name": "Chiayi Park (Gongyuan St.)", "district": "city", "address": "No. 117, Gongyuan St. (Opposite)"}}}, {"id": "34b4a35732f1a515a6646830c95d56ae", "name": "\u5609\u7fa9\u5e02\u9ad4\u80b2\u9928(\u5f4c\u9640\u8def)", "latitude": 23.473837, "longitude": 120.462379, "timestamp": "2025-04-17T03:06:55.766540Z", "free_bikes": 18, "empty_slots": 13, "extra": {"uid": "501001037", "district": "\u5e02\u5340", "address": "\u5f4c\u9640\u8def381\u865f\u6771\u5317\u5074", "slots": 31, "normal_bikes": 12, "ebikes": 6, "last_updated": "2025-04-17 10:30:23", "online": true, "youbike_version": 2, "en": {"name": "Chiayi City Gymnasium (Mituo Rd.)", "district": "city", "address": "No. 381, Mituo Rd. (Northeast)"}}}, {"id": "35def349353da0313354fcdef5d0d9b1", "name": "\u5f70\u6b66\u5bae", "latitude": 23.4736, "longitude": 120.407663, "timestamp": "2025-04-17T03:06:55.767208Z", "free_bikes": 6, "empty_slots": 12, "extra": {"uid": "501001141", "district": "\u5e02\u5340", "address": "\u80b2\u4eba\u8def/\u80b2\u4eba\u8def581\u5df7\u53e3(\u6771\u5317\u5074)", "slots": 18, "normal_bikes": 6, "ebikes": 0, "last_updated": "2025-04-16 10:40:24", "online": true, "youbike_version": 2, "en": {"name": "Zhang Wu Temple", "district": "city", "address": "Yuren Rd. / Lane 581, Yuren Rd.  (Northeast)"}}}, {"id": "35f361a739c8c9139993672be1f2580a", "name": "\u5609\u7fa9\u5927\u5b78\u7d9c\u5408\u6559\u5b78\u5927\u6a13", "latitude": 23.47094, "longitude": 120.48727, "timestamp": "2025-04-17T03:06:55.767008Z", "free_bikes": 33, "empty_slots": 14, "extra": {"uid": "501001115", "district": "\u5e02\u5340", "address": "\u5b78\u5e9c\u8def300\u865f(\u7d9c\u5408\u6559\u5b78\u5927\u6a13)", "slots": 47, "normal_bikes": 23, "ebikes": 10, "last_updated": "2025-04-17 10:20:23", "online": true, "youbike_version": 2, "en": {"name": "National Chiayi University(Multi-Purpose Instruction Building)", "district": "city", "address": "No. 300, Xuefu Rd., East Dist.(Multi-Purpose Instruction Building)"}}}, {"id": "3815cab07bba4f318df4d2542b275202", "name": "\u6e56\u5ee3\u505c\u516b\u505c\u8eca\u5834", "latitude": 23.45812, "longitude": 120.44789, "timestamp": "2025-04-17T03:06:55.767410Z", "free_bikes": 2, "empty_slots": 13, "extra": {"uid": "501001169", "district": "\u5e02\u5340", "address": "\u9806\u8208\u4e09\u8857/\u8208\u7f8e\u4e94\u8857\u53e3(\u897f\u5074)", "slots": 15, "normal_bikes": 2, "ebikes": 0, "last_updated": "2025-04-16 19:10:28", "online": true, "youbike_version": 2, "en": {"name": "Huguang 8 Parking Lot", "district": "city", "address": "Shuxing 3rd St. & Xingmei 5th St. Intersection (west)"}}}, {"id": "3cf5688ae5e1557aa85ccfdb33e04a01", "name": "\u4e2d\u8208\u53cb\u5b5d\u8def\u53e3", "latitude": 23.48228, "longitude": 120.43492, "timestamp": "2025-04-17T03:06:55.767286Z", "free_bikes": 7, "empty_slots": 8, "extra": {"uid": "501001155", "district": "\u5e02\u5340", "address": "\u4e2d\u8208\u8def217\u865f(\u524d)", "slots": 15, "normal_bikes": 7, "ebikes": 0, "last_updated": "2025-04-17 06:42:20", "online": true, "youbike_version": 2, "en": {"name": "Zhongxing Youxiao Road", "district": "city", "address": "No. 217, Zhongxing Road (front)"}}}, {"id": "3d4b19e68b12814bf14145c7eb4a76d3", "name": "\u5609\u7fa9\u5e02\u5949\u5929\u5bae", "latitude": 23.503572, "longitude": 120.439116, "timestamp": "2025-04-17T03:06:55.767279Z", "free_bikes": 5, "empty_slots": 5, "extra": {"uid": "501001154", "district": "\u5e02\u5340", "address": "\u6587\u5316\u8def956\u865f\u524d", "slots": 10, "normal_bikes": 4, "ebikes": 1, "last_updated": "2025-04-12 22:01:17", "online": false, "youbike_version": 2, "en": {"name": "Chiayi City Fengtian Temple", "district": "city", "address": "In front of No. 956 Wenhua Road"}}}, {"id": "3ed977b668070e7f8261456e2e8528c5", "name": "\u7d93\u570b\u65b0\u57ceG\u68df(\u65b0\u69ae\u8def35\u5df7)", "latitude": 23.46968, "longitude": 120.44301, "timestamp": "2025-04-17T03:06:55.766739Z", "free_bikes": 11, "empty_slots": 6, "extra": {"uid": "501001076", "district": "\u5e02\u5340", "address": "\u4ec1\u611b\u8def222\u865f\u5357\u5074", "slots": 17, "normal_bikes": 8, "ebikes": 3, "last_updated": "2025-04-17 06:04:18", "online": true, "youbike_version": 2, "en": {"name": "Jingguo Xin Cheng Building G (Ln. 35, Xinrong Rd.)", "district": "city", "address": "No. 222, Ren'ai Rd. (South)"}}}, {"id": "3f9e293e07ac1b8ca87b8a9693327cf1", "name": "\u4e16\u8ce2\u8def\u5b89\u696d\u8857\u53e3", "latitude": 23.46416, "longitude": 120.45116, "timestamp": "2025-04-17T03:06:55.767621Z", "free_bikes": 3, "empty_slots": 12, "extra": {"uid": "501001213", "district": "\u5e02\u5340", "address": "\u4e16\u8ce2\u8def\u56db\u6bb5/\u5b89\u696d\u8857\u53e3(\u6771\u5357\u5074)", "slots": 15, "normal_bikes": 3, "ebikes": 0, "last_updated": "2025-04-17 08:40:24", "online": true, "youbike_version": 2, "en": {"name": "Sec. 4, Shixian Rd. & Anye St. Intersection", "district": "city", "address": "Sec. 4, Shixian Rd. & Anye St. Intersection (Southeast)"}}}, {"id": "3fbcc0ba9b8a48e3450c506994fef35c", "name": "\u5609\u7fa9\u5e02\u679c\u83dc\u5e02\u5834", "latitude": 23.490809, "longitude": 120.396929, "timestamp": "2025-04-17T03:06:55.767065Z", "free_bikes": 4, "empty_slots": 11, "extra": {"uid": "501001124", "district": "\u5e02\u5340", "address": "\u57e4\u7af9\u8def50\u865f(\u6771\u5074)", "slots": 15, "normal_bikes": 4, "ebikes": 0, "last_updated": "2025-04-16 19:50:23", "online": true, "youbike_version": 2, "en": {"name": "Chiayi City Fruit and Vegetable Market", "district": "city", "address": "No. 50 Pizhu Rd.(East)"}}}, {"id": "3fe1bbe39c4f7606dcf52e779387f981", "name": "\u7fa9\u660c\u516c\u5712", "latitude": 23.47648, "longitude": 120.44549, "timestamp": "2025-04-17T03:06:55.766972Z", "free_bikes": 0, "empty_slots": 18, "extra": {"uid": "501001109", "district": "\u5e02\u5340", "address": "\u897f\u69ae\u8857113\u865f\u6771\u5074", "slots": 18, "normal_bikes": 0, "ebikes": 0, "last_updated": "2025-01-07 09:09:20", "online": false, "youbike_version": 2, "en": {"name": "Yi-chang Park", "district": "city", "address": "No. 113, Xirong St., West Dist."}}}, {"id": "40e7f5742016c31f84b8049c1f07d1a0", "name": "\u5609\u7fa9\u5e02\u570b\u6c11\u904b\u52d5\u4e2d\u5fc3", "latitude": 23.471965, "longitude": 120.462642, "timestamp": "2025-04-17T03:06:55.766745Z", "free_bikes": 12, "empty_slots": 6, "extra": {"uid": "501001077", "district": "\u5e02\u5340", "address": "\u5f4c\u9640\u8def327\u5df715\u865f", "slots": 18, "normal_bikes": 12, "ebikes": 0, "last_updated": "2025-04-17 10:04:18", "online": true, "youbike_version": 2, "en": {"name": "Chiayi Civil Sports Center", "district": "city", "address": "No. 15, Ln. 327, Mituo Rd."}}}, {"id": "42da7c7d2f803bf37f4a6fee4621c998", "name": "\u535a\u611b\u8def\u81ea\u5f37\u8857\u53e3", "latitude": 23.464809, "longitude": 120.424587, "timestamp": "2025-04-17T03:06:55.767268Z", "free_bikes": 3, "empty_slots": 12, "extra": {"uid": "501001152", "district": "\u5e02\u5340", "address": "\u535a\u611b\u8def\u4e8c\u6bb5\u81ea\u5f37\u8857\u53e3(\u6771\u5317\u5074)", "slots": 15, "normal_bikes": 3, "ebikes": 0, "last_updated": "2025-04-17 07:00:25", "online": true, "youbike_version": 2, "en": {"name": "Bo'ai Road Ziqiang Street Intersection", "district": "city", "address": "Ziqiang Street, Section 2, Boai Road (northeast side)"}}}, {"id": "45cbb48f44dc6adf5a4bd31db2128436", "name": "\u884c\u5609\u540a\u6a4b", "latitude": 23.455398, "longitude": 120.455622, "timestamp": "2025-04-17T03:06:55.767238Z", "free_bikes": 6, "empty_slots": 9, "extra": {"uid": "501001147", "district": "\u5e02\u5340", "address": "\u89aa\u6c34\u8def(\u884c\u5609\u540a\u6a4b)", "slots": 15, "normal_bikes": 5, "ebikes": 1, "last_updated": "2025-04-13 15:40:24", "online": true, "youbike_version": 2, "en": {"name": "Shingjia Suspension Bridge", "district": "city", "address": "Qinshui Rd.(Shingjia Suspension Bridge)"}}}, {"id": "46df9d8e551c801abbdc7c5533985a77", "name": "\u5fe0\u5b5d\u535a\u6771\u8def\u53e3", "latitude": 23.49054, "longitude": 120.45325, "timestamp": "2025-04-17T03:06:55.767484Z", "free_bikes": 5, "empty_slots": 11, "extra": {"uid": "501001181", "district": "\u5e02\u5340", "address": "\u5fe0\u5b5d\u8def/\u535a\u6771\u8def\u53e3(\u6771\u5317\u5074)", "slots": 16, "normal_bikes": 5, "ebikes": 0, "last_updated": "2025-04-17 01:40:23", "online": true, "youbike_version": 2, "en": {"name": "Zhongxiao Bodong Rd. Intersection", "district": "city", "address": "Zhongxiao Rd. & Bodong Rd. Intersection (Northeast)"}}}, {"id": "4721c534546935834c276d4897baf1f0", "name": "\u5609\u6a02\u798f\u89c0\u5149\u591c\u5e02", "latitude": 23.47165, "longitude": 120.43119, "timestamp": "2025-04-17T03:06:55.766451Z", "free_bikes": 0, "empty_slots": 0, "extra": {"uid": "501001021", "district": "\u5e02\u5340", "address": "\u535a\u611b\u8def\u4e8c\u6bb5461\u865f", "slots": 14, "normal_bikes": 0, "ebikes": 0, "last_updated": "2024-12-21 10:02:20", "online": false, "youbike_version": 2, "en": {"name": "Chia Le Fu Night Market", "district": "city", "address": "No. 461, Bo'ai Rd. Sec 2"}}}, {"id": "47ade7c2491adcc98b84b0f1b243441c", "name": "\u5733\u982d\u91cc\u798f\u6b63\u5bae", "latitude": 23.48872, "longitude": 120.46884, "timestamp": "2025-04-17T03:06:55.767305Z", "free_bikes": 8, "empty_slots": 7, "extra": {"uid": "501001158", "district": "\u5e02\u5340", "address": "\u5713\u798f\u8857118\u5df72\u5f04130\u865f(\u6771\u5317\u5074)", "slots": 15, "normal_bikes": 7, "ebikes": 1, "last_updated": "2025-04-17 01:56:18", "online": true, "youbike_version": 2, "en": {"name": "Zuntou Village Fuzheng Temple", "district": "city", "address": "No. 130, Aly. 2, Ln. 118, Yuanfu St. (Northeast)"}}}, {"id": "49f6b43d6a01cf7cd36a5a4a88dbc25e", "name": "\u91cd\u6176\u4e16\u8ce2\u8def\u4e09\u6bb5\u53e3", "latitude": 23.462507, "longitude": 120.43139, "timestamp": "2025-04-17T03:06:55.767058Z", "free_bikes": 5, "empty_slots": 13, "extra": {"uid": "501001123", "district": "\u5e02\u5340", "address": "\u91cd\u6176\u8def/\u4e16\u8ce2\u8def\u4e09\u6bb5\u53e3(\u5169\u5074)", "slots": 18, "normal_bikes": 4, "ebikes": 1, "last_updated": "2025-04-17 06:45:22", "online": true, "youbike_version": 2, "en": {"name": "Chongqing Section 3, Shixian Rd.Intersection", "district": "city", "address": "Chongqing Rd./Section 3, Shixian Rd.(Both sides)"}}}, {"id": "4aae16ed75962191f6eb2aa312c85229", "name": "\u6e56\u5b50\u5167\u516c\u5712(\u6e56\u7f8e\u4e00\u5065\u5eb7\u4e5d\u8def\u53e3)", "latitude": 23.45016, "longitude": 120.44701, "timestamp": "2025-04-17T03:06:55.767602Z", "free_bikes": 4, "empty_slots": 21, "extra": {"uid": "501001209", "district": "\u5e02\u5340", "address": "\u6e56\u7f8e\u4e00\u8def/\u5065\u5eb7\u4e5d\u8def\u53e3(\u6771\u5357\u5074)", "slots": 25, "normal_bikes": 4, "ebikes": 0, "last_updated": "2025-04-16 06:10:23", "online": true, "youbike_version": 2, "en": {"name": "Huzinei Park (Humel 1st Jiankang 9th Rd.)", "district": "city", "address": "Humei 1st Rd. & Jiankang 9th Rd. Intersection (Southeast)"}}}, {"id": "4ccce4d0535ec8294054ee237d079ee0", "name": "\u884c\u653f\u57f7\u884c\u7f72", "latitude": 23.482012, "longitude": 120.457342, "timestamp": "2025-04-17T03:06:55.766340Z", "free_bikes": 8, "empty_slots": 14, "extra": {"uid": "501001002", "district": "\u5e02\u5340", "address": "\u4e2d\u5c71\u8def98\u865f(\u524d)", "slots": 22, "normal_bikes": 8, "ebikes": 0, "last_updated": "2025-04-17 07:50:24", "online": true, "youbike_version": 2, "en": {"name": "Chiayi Branch, Administrative Enforcement Agency, Ministry of Justice", "district": "city", "address": "No. 98, Zhongshan Rd."}}}, {"id": "4f4e3613472fa0c3586c42107ae612a7", "name": "\u982d\u6e2f\u771f\u6b66\u5bae", "latitude": 23.468456, "longitude": 120.405712, "timestamp": "2025-04-17T03:06:55.767117Z", "free_bikes": 5, "empty_slots": 9, "extra": {"uid": "501001131", "district": "\u5e02\u5340", "address": "\u7389\u5c71\u8def/\u7389\u5c71\u8def1008\u5df7\u53e3(\u6771\u5357\u5074)", "slots": 14, "normal_bikes": 4, "ebikes": 1, "last_updated": "2025-04-17 04:30:23", "online": true, "youbike_version": 2, "en": {"name": "Tougang Zhenwu Temple", "district": "city", "address": "Yushan Rd./Lane 1008, Yushan Rd.(Southeast)"}}}, {"id": "50fbb1e36798e904bac9d0c48d96eea1", "name": "\u9577\u69ae\u516c\u5712", "latitude": 23.4847, "longitude": 120.45824, "timestamp": "2025-04-17T03:06:55.766896Z", "free_bikes": 5, "empty_slots": 10, "extra": {"uid": "501001099", "district": "\u5e02\u5340", "address": "\u7dad\u65b0\u8def133\u865f\u5317\u5074", "slots": 15, "normal_bikes": 5, "ebikes": 0, "last_updated": "2025-04-17 06:42:20", "online": true, "youbike_version": 2, "en": {"name": "Changjung Park", "district": "city", "address": "No. 133, Weixin Rd., East Dist."}}}, {"id": "5353b29f9814de9ca6d8961ee0d36411", "name": "\u5609\u7fa9\u5927\u5b78(\u862d\u6f6d\u6821\u5340)", "latitude": 23.463706, "longitude": 120.482568, "timestamp": "2025-04-17T03:06:55.766610Z", "free_bikes": 3, "empty_slots": 15, "extra": {"uid": "501001052", "district": "\u5e02\u5340", "address": "\u5b78\u5e9c\u8def300\u865f(\u5609\u5927\u5496\u5561\u5712\u65c1)", "slots": 18, "normal_bikes": 3, "ebikes": 0, "last_updated": "2025-04-17 10:02:18", "online": true, "youbike_version": 2, "en": {"name": "National Chiayi University (Lantan Campus)", "district": "city", "address": "No. 300, Xuefu Rd."}}}, {"id": "53ffe5c0f640d01e3d09bceedacd9b15", "name": "\u535a\u611b\u5411\u69ae\u8857\u53e3", "latitude": 23.487741, "longitude": 120.444923, "timestamp": "2025-04-17T03:06:55.767195Z", "free_bikes": 12, "empty_slots": 9, "extra": {"uid": "501001139", "district": "\u5e02\u5340", "address": "\u535a\u611b\u8def\u4e00\u6bb5/\u5411\u69ae\u8857\u53e3(\u5357\u5074)", "slots": 21, "normal_bikes": 12, "ebikes": 0, "last_updated": "2025-04-17 08:10:24", "online": true, "youbike_version": 2, "en": {"name": "Bo'ai Xiangrong Street", "district": "city", "address": "Bo'ai-Xiangrong intersection(Southeast)"}}}, {"id": "59debc8fe7ec206facb32a551a1c7a51", "name": "\u5927\u96c5\u8def\u4e8c\u6bb5478\u5df7\u53e3", "latitude": 23.47888, "longitude": 120.471, "timestamp": "2025-04-17T03:06:55.766779Z", "free_bikes": 4, "empty_slots": 9, "extra": {"uid": "501001084", "district": "\u5e02\u5340", "address": "\u91d1\u9f8d\u885759\u865f", "slots": 13, "normal_bikes": 4, "ebikes": 0, "last_updated": "2025-04-16 02:40:22", "online": true, "youbike_version": 2, "en": {"name": "Ln. 478, Sec. 2, Daya Rd. Intersection", "district": "city", "address": "No. 59, Jinlong St., East Dist."}}}, {"id": "5b009c0c686a33692072551ff50e482a", "name": "\u4e16\u8ce2\u5927\u83ef\u8def\u53e3", "latitude": 23.47361, "longitude": 120.42142, "timestamp": "2025-04-17T03:06:55.767397Z", "free_bikes": 5, "empty_slots": 9, "extra": {"uid": "501001167", "district": "\u5e02\u5340", "address": "\u4e16\u8ce2\u8def\u4e8c\u6bb5/\u5927\u83ef\u8def\u53e3(\u6771\u5317\u5074)", "slots": 14, "normal_bikes": 5, "ebikes": 0, "last_updated": "2025-04-16 13:40:25", "online": true, "youbike_version": 2, "en": {"name": "Shixian Dahua Rd. Intersection", "district": "city", "address": "Sec. 2, Shixian Rd. & Dahua Rd. Intersection (Northeast)"}}}, {"id": "5c1a32d5348e38b4fd30ff650c4a14a9", "name": "\u4e16\u8ce2\u5317\u6e2f\u7ad9", "latitude": 23.4844, "longitude": 120.42305, "timestamp": "2025-04-17T03:06:55.766914Z", "free_bikes": 6, "empty_slots": 9, "extra": {"uid": "501001101", "district": "\u5e02\u5340", "address": "\u897f\u5340\u4e16\u8ce2\u8def\u4e00\u6bb5925\u865f\u897f\u5317\u5074", "slots": 15, "normal_bikes": 6, "ebikes": 0, "last_updated": "2025-04-17 08:10:24", "online": true, "youbike_version": 2, "en": {"name": "Shixian & Beigang Rd. Intersection", "district": "city", "address": "No. 925, Sec. 1, Shixian Rd., West Dist."}}}, {"id": "5c24309a04204bf22f52cec6ee5dce78", "name": "\u96d9\u7af9\u53cb\u7af9\u8857\u53e3", "latitude": 23.4842, "longitude": 120.43824, "timestamp": "2025-04-17T03:06:55.767514Z", "free_bikes": 5, "empty_slots": 9, "extra": {"uid": "501001190", "district": "\u5e02\u5340", "address": "\u96d9\u7af9\u8857/\u53cb\u7af9\u8857\u53e3(\u6771\u5317\u5074)", "slots": 14, "normal_bikes": 3, "ebikes": 2, "last_updated": "2025-04-17 06:39:21", "online": true, "youbike_version": 2, "en": {"name": "Shuangzhu Youzhu St. Intersection", "district": "city", "address": "Shuangzhu St. & Youzhu St. Intersection (Northeast)"}}}, {"id": "5dc4aea2e1ae55eb6ea6ecb2ea2a6d2f", "name": "\u548c\u5e73\u4e2d\u6b63\u8def\u53e3", "latitude": 23.480069, "longitude": 120.456891, "timestamp": "2025-04-17T03:06:55.767274Z", "free_bikes": 9, "empty_slots": 1, "extra": {"uid": "501001153", "district": "\u5e02\u5340", "address": "\u548c\u5e73\u8def\u4e2d\u6b63\u8def\u53e3(\u6771\u5074)", "slots": 10, "normal_bikes": 9, "ebikes": 0, "last_updated": "2025-04-17 10:50:25", "online": true, "youbike_version": 2, "en": {"name": "Peaceful Zhongzheng Road", "district": "city", "address": "Zhongzheng intersection of Heping Road (east side)"}}}, {"id": "5e7d6cdd1a4d9da351fea7aeb462fa13", "name": "\u5289\u539d3\u865f\u516c\u5712", "latitude": 23.46123, "longitude": 120.4154, "timestamp": "2025-04-17T03:06:55.767447Z", "free_bikes": 4, "empty_slots": 24, "extra": {"uid": "501001175", "district": "\u5e02\u5340", "address": "\u5927\u5bcc\u8def/\u5927\u8056\u8def\u53e3(\u6771\u5357\u5074)", "slots": 28, "normal_bikes": 3, "ebikes": 1, "last_updated": "2025-04-17 04:19:17", "online": true, "youbike_version": 2, "en": {"name": "Liucuo No.3 Park", "district": "city", "address": "Dafu Rd. & Dasheng Rd. Intersection (Southeast)"}}}, {"id": "5f8cdc63d7921cc94fd721124ec2aa93", "name": "\u5317\u9580\u8eca\u7ad9", "latitude": 23.48737, "longitude": 120.45459, "timestamp": "2025-04-17T03:06:55.767478Z", "free_bikes": 5, "empty_slots": 6, "extra": {"uid": "501001180", "district": "\u5e02\u5340", "address": "\u5171\u548c\u8def428 \u865f", "slots": 11, "normal_bikes": 5, "ebikes": 0, "last_updated": "2025-04-16 16:30:26", "online": true, "youbike_version": 2, "en": {"name": "Beimen Station", "district": "city", "address": "No. 428, Gonghe Rd."}}}, {"id": "5fd760cb08794ccae8b30c9e7b09adc8", "name": "\u5317\u793e\u5c3e\u516c\u5712", "latitude": 23.4935, "longitude": 120.42468, "timestamp": "2025-04-17T03:06:55.766826Z", "free_bikes": 10, "empty_slots": 10, "extra": {"uid": "501001091", "district": "\u5e02\u5340", "address": "\u5317\u5712\u885787\u865f\u5357\u5074", "slots": 20, "normal_bikes": 9, "ebikes": 1, "last_updated": "2025-04-17 05:16:22", "online": true, "youbike_version": 2, "en": {"name": "Beishewei Park", "district": "city", "address": "No. 87, Beiyuan St., West Dist."}}}, {"id": "608259e78646322ca96490dd47b99685", "name": "\u81fa\u4e2d\u69ae\u7e3d\u5609\u7fa9\u5206\u9662(\u5f8c\u9580)", "latitude": 23.465655, "longitude": 120.423591, "timestamp": "2025-04-17T03:06:55.767091Z", "free_bikes": 3, "empty_slots": 12, "extra": {"uid": "501001128", "district": "\u5e02\u5340", "address": "\u81ea\u7acb\u885765-1\u865f(\u5c0d\u9762)", "slots": 15, "normal_bikes": 3, "ebikes": 0, "last_updated": "2025-04-17 05:29:22", "online": true, "youbike_version": 2, "en": {"name": "Chiayi Branch ,Taichung Veterans General Hospital(Behind)", "district": "city", "address": "No.65-1 Zili St.(Opposite)"}}}, {"id": "6264e2154ef13b7c8f7be925f8cbfa4f", "name": "\u5609\u7fa9\u5927\u5b78\u5b78\u751f\u6d3b\u52d5\u4e2d\u5fc3(\u7f8e\u98df\u8857)", "latitude": 23.4679, "longitude": 120.48315, "timestamp": "2025-04-17T03:06:55.766985Z", "free_bikes": 1, "empty_slots": 29, "extra": {"uid": "501001111", "district": "\u5e02\u5340", "address": "\u5b78\u5e9c\u8def300\u865f(\u5b78\u751f\u6d3b\u52d5\u4e2d\u5fc3)", "slots": 30, "normal_bikes": 1, "ebikes": 0, "last_updated": "2025-04-17 09:22:18", "online": true, "youbike_version": 2, "en": {"name": "National Chiayi University(Student Activity Center)", "district": "city", "address": "No. 300, Xuefu Rd., East Dist.(Student Activity Center)"}}}, {"id": "6277c9d50e417b01c138437225a386e9", "name": "\u4e2d\u592e\u5674\u6c34\u7ad9", "latitude": 23.480155, "longitude": 120.45028, "timestamp": "2025-04-17T03:06:55.766474Z", "free_bikes": 1, "empty_slots": 22, "extra": {"uid": "501001025", "district": "\u5e02\u5340", "address": "\u4e2d\u5c71\u8def285\u865f\u5317\u5074", "slots": 23, "normal_bikes": 1, "ebikes": 0, "last_updated": "2025-04-17 08:12:17", "online": true, "youbike_version": 2, "en": {"name": "Central Fountain Stop", "district": "city", "address": "No. 285, Zhongshan Rd. (North)"}}}, {"id": "62d3a18714e37943829fed97d23877a5", "name": "\u5609\u7fa9\u5e02\u7acb\u7f8e\u8853\u9928(\u862d\u4e95\u8857)", "latitude": 23.47669, "longitude": 120.44084, "timestamp": "2025-04-17T03:06:55.766670Z", "free_bikes": 9, "empty_slots": 11, "extra": {"uid": "501001063", "district": "\u5e02\u5340", "address": "\u5ee3\u5be7\u8857101\u865f", "slots": 20, "normal_bikes": 8, "ebikes": 1, "last_updated": "2025-04-17 08:30:24", "online": true, "youbike_version": 2, "en": {"name": "Chiayi Art Museum (Lanjing St.)", "district": "city", "address": "No. 101, Guangning St."}}}, {"id": "63b282405b858ff5a27caa4a167ee689", "name": "\u5357\u8208\u570b\u4e2d(\u5074\u9580)", "latitude": 23.46707, "longitude": 120.461787, "timestamp": "2025-04-17T03:06:55.767262Z", "free_bikes": 6, "empty_slots": 8, "extra": {"uid": "501001151", "district": "\u5e02\u5340", "address": "\u5ba3\u4fe1\u8857\u5357\u8208\u8def\u53e3(\u5357\u5074)", "slots": 15, "normal_bikes": 4, "ebikes": 2, "last_updated": "2025-04-17 07:00:25", "online": true, "youbike_version": 2, "en": {"name": "Nanxing Middle School (side door)", "district": "city", "address": "Xuanxin Street Nanxing Road (south side)"}}}, {"id": "63d3c0515caae2807e958f92b601aebb", "name": "\u7fa9\u6559\u897f\u7fa9\u6559\u6771\u8def", "latitude": 23.49484, "longitude": 120.46683, "timestamp": "2025-04-17T03:06:55.767535Z", "free_bikes": 4, "empty_slots": 12, "extra": {"uid": "501001193", "district": "\u5e02\u5340", "address": "\u7fa9\u6559\u897f\u8def/\u7fa9\u6559\u6771\u8def\u53e3(\u897f\u5357\u5074)", "slots": 16, "normal_bikes": 2, "ebikes": 2, "last_updated": "2025-04-17 06:41:18", "online": true, "youbike_version": 2, "en": {"name": "Yijiao W. Rd. & Yijiao E. Rd. Intersection", "district": "city", "address": "Yijiao W. Rd. & Yijiao E. Rd. Intersection (Northeast)"}}}, {"id": "64e5ff947ede4ffd1d2e464b077fc56c", "name": "\u8ecd\u8f1d\u6eaa\u8208\u8857153\u5df7\u53e3", "latitude": 23.45419, "longitude": 120.45708, "timestamp": "2025-04-17T03:06:55.766851Z", "free_bikes": 5, "empty_slots": 10, "extra": {"uid": "501001094", "district": "\u5e02\u5340", "address": "\u8ecd\u8f1d\u8def266\u865f\u897f\u5074", "slots": 15, "normal_bikes": 5, "ebikes": 0, "last_updated": "2025-04-17 08:40:24", "online": true, "youbike_version": 2, "en": {"name": "Junhui & Ln. 153, Xixing St. Rd. Intersection", "district": "city", "address": "No. 266, Junhui Rd., East Dist."}}}, {"id": "65433f897a0c8c445c182c23f7d54f6f", "name": "\u5609\u7fa9\u5e02\u62d6\u540a\u4fdd\u7ba1\u5834", "latitude": 23.4624, "longitude": 120.43747, "timestamp": "2025-04-17T03:06:55.766693Z", "free_bikes": 3, "empty_slots": 7, "extra": {"uid": "501001067", "district": "\u5e02\u5340", "address": "\u6eab\u5dde\u4e00\u885716\u865f", "slots": 10, "normal_bikes": 3, "ebikes": 0, "last_updated": "2025-04-16 09:20:28", "online": true, "youbike_version": 2, "en": {"name": "Chiayi City Vehicle impoundment", "district": "city", "address": "No. 16, Wenzhou 1st Rd."}}}, {"id": "65d30e41eb7542e9c5cff00f37dec923", "name": "\u4e16\u8ce2\u516b\u5fb7\u7ad9(\u516b\u5fb7\u8def\u53e3)", "latitude": 23.49202, "longitude": 120.43008, "timestamp": "2025-04-17T03:06:55.766599Z", "free_bikes": 2, "empty_slots": 16, "extra": {"uid": "501001048", "district": "\u5e02\u5340", "address": "\u4e16\u8ce2\u8def\u4e00\u6bb5605\u865f", "slots": 18, "normal_bikes": 1, "ebikes": 1, "last_updated": "2025-04-17 07:30:24", "online": true, "youbike_version": 2, "en": {"name": "Shixian Bade Sta. (Bade Rd. Intersection)", "district": "city", "address": "No. 605, Shixian Rd. Sec 1"}}}, {"id": "694e78e037bcb289e6e63c9f1ff4e4ca", "name": "\u53cb\u5fe0\u516c\u5712", "latitude": 23.47731, "longitude": 120.43383, "timestamp": "2025-04-17T03:06:55.767372Z", "free_bikes": 6, "empty_slots": 9, "extra": {"uid": "501001163", "district": "\u5e02\u5340", "address": "\u53cb\u5fe0\u8def/\u53cb\u611b\u8def\u53e3(\u897f\u5357\u5074)", "slots": 15, "normal_bikes": 6, "ebikes": 0, "last_updated": "2025-04-15 21:20:24", "online": true, "youbike_version": 2, "en": {"name": "Youzhong Park", "district": "city", "address": "Youzhong Rd. & Youai Rd. Intersection (Southwest)"}}}, {"id": "6a45ad4d1ffebeca96e6e93d52372027", "name": "\u52de\u5de5\u80b2\u6a02\u4e2d\u5fc3", "latitude": 23.4661852, "longitude": 120.4671399, "timestamp": "2025-04-17T03:06:55.766676Z", "free_bikes": 3, "empty_slots": 27, "extra": {"uid": "501001064", "district": "\u5e02\u5340", "address": "\u5f4c\u9640\u8def101\u865f", "slots": 31, "normal_bikes": 3, "ebikes": 0, "last_updated": "2025-04-17 10:18:18", "online": true, "youbike_version": 2, "en": {"name": "Chiayi City Labor Recreation Center", "district": "city", "address": "No. 101, Mituo Rd."}}}, {"id": "6fb4cbc4b1a3601b5477b133df9c0539", "name": "\u5927\u540c\u6280\u8853\u5b78\u9662", "latitude": 23.469153, "longitude": 120.46538, "timestamp": "2025-04-17T03:06:55.766528Z", "free_bikes": 6, "empty_slots": 7, "extra": {"uid": "501001035", "district": "\u5e02\u5340", "address": "\u5f4c\u9640\u8def253\u865f\u897f\u5074", "slots": 13, "normal_bikes": 6, "ebikes": 0, "last_updated": "2025-04-17 06:23:23", "online": true, "youbike_version": 2, "en": {"name": "Tatung Institute of Commerce and Technology", "district": "city", "address": "No. 253, Mituo Rd. (West)"}}}, {"id": "6fc9d4729b2ace1b055da37b3e855fc1", "name": "\u6797\u68ee\u6771\u65b0\u751f\u8def\u53e3", "latitude": 23.48733, "longitude": 120.46043, "timestamp": "2025-04-17T03:06:55.767548Z", "free_bikes": 5, "empty_slots": 10, "extra": {"uid": "501001198", "district": "\u5e02\u5340", "address": "\u6797\u68ee\u6771\u8def/\u65b0\u751f\u8def\u53e3(\u6771\u5357\u5074)", "slots": 15, "normal_bikes": 4, "ebikes": 1, "last_updated": "2025-04-17 08:10:25", "online": true, "youbike_version": 2, "en": {"name": "Linsen E. Rd. & Xinsheng Rd. Intersection", "district": "city", "address": "Linsen E. Rd. & Xinsheng Rd. Intersection (Southeast)"}}}, {"id": "70424a34e457732e9815c2f4eb1c4c59", "name": "\u65b0\u6c11\u91cd\u6176\u8def\u53e3", "latitude": 23.46584, "longitude": 120.44001, "timestamp": "2025-04-17T03:06:55.767435Z", "free_bikes": 6, "empty_slots": 9, "extra": {"uid": "501001173", "district": "\u5e02\u5340", "address": "\u65b0\u6c11\u8def/\u91cd\u6176\u8def\u53e3(\u897f\u5317\u5074)", "slots": 15, "normal_bikes": 4, "ebikes": 2, "last_updated": "2025-04-17 08:20:25", "online": true, "youbike_version": 2, "en": {"name": "Xinmin Chongqing Rd. Intersection", "district": "city", "address": "Xinmin Rd. & Chongqing Rd. Intersection (Northwest)"}}}, {"id": "70dcf00df4d2400d2dca2df0b5283ed2", "name": "\u7acb\u4ec1\u8def\u5ba3\u4fe1\u8857\u53e3", "latitude": 23.46471, "longitude": 120.46333, "timestamp": "2025-04-17T03:06:55.767379Z", "free_bikes": 7, "empty_slots": 2, "extra": {"uid": "501001164", "district": "\u5e02\u5340", "address": "\u7acb\u4ec1\u8def/\u5ba3\u4fe1\u8857\u53e3(\u897f\u5357\u5074)", "slots": 9, "normal_bikes": 7, "ebikes": 0, "last_updated": "2025-04-17 09:40:24", "online": true, "youbike_version": 2, "en": {"name": "Liren Rd. & Xuanxin St.", "district": "city", "address": "Liren Rd. & Xuanxin St. Intersection (Southwest)"}}}, {"id": "71eef3823d4d99f9f8a1b20275c7a27a", "name": "\u5609\u7fa9\u5927\u5b78\u6797\u68ee\u6821\u5340", "latitude": 23.487661, "longitude": 120.459607, "timestamp": "2025-04-17T03:06:55.767220Z", "free_bikes": 10, "empty_slots": 5, "extra": {"uid": "501001144", "district": "\u5e02\u5340", "address": "\u6797\u68ee\u6771\u8def151\u865f", "slots": 15, "normal_bikes": 9, "ebikes": 1, "last_updated": "2025-04-17 09:02:19", "online": true, "youbike_version": 2, "en": {"name": "Chiayi University Linsen Campus", "district": "city", "address": "151 Linsen East Road"}}}, {"id": "72274330e65a2845bb06d0f54f70b330", "name": "\u5143\u4e00\u5bae", "latitude": 23.490512, "longitude": 120.44266, "timestamp": "2025-04-17T03:06:55.767148Z", "free_bikes": 2, "empty_slots": 13, "extra": {"uid": "501001133", "district": "\u5e02\u5340", "address": "\u53cb\u5fe0\u8def961\u865f(\u65c1\u4eba\u884c\u9053)", "slots": 15, "normal_bikes": 2, "ebikes": 0, "last_updated": "2025-04-17 10:30:23", "online": true, "youbike_version": 2, "en": {"name": "Yuan Yi Temple", "district": "city", "address": "No.961, Youzhong Rd.(sidewalk)"}}}, {"id": "726f2424a833d8f50e4711a74ce5d4ac", "name": "\u6587\u5316\u516c\u5712(\u6c11\u65cf\u8def)", "latitude": 23.476051, "longitude": 120.451238, "timestamp": "2025-04-17T03:06:55.767045Z", "free_bikes": 4, "empty_slots": 35, "extra": {"uid": "501001121", "district": "\u5e02\u5340", "address": "\u6c11\u65cf\u8def/\u8208\u4e2d\u8857\u53e3(\u897f\u5357\u5074)", "slots": 39, "normal_bikes": 3, "ebikes": 1, "last_updated": "2025-04-17 09:34:19", "online": true, "youbike_version": 2, "en": {"name": "Wenhua Park(Minzu Rd.)", "district": "city", "address": "Minzu Rd./Xingzhong St.(Southwest)"}}}, {"id": "72bf0ec1191b2ef907e8772d7790e4e0", "name": "\u77ed\u7af9\u516c\u5712", "latitude": 23.46947, "longitude": 120.46802, "timestamp": "2025-04-17T03:06:55.767351Z", "free_bikes": 4, "empty_slots": 11, "extra": {"uid": "501001160", "district": "\u5e02\u5340", "address": "\u5149\u4ec1\u8857/\u5149\u6b63\u885786\u5df7\u53e3(\u6771\u5357\u5074)", "slots": 15, "normal_bikes": 4, "ebikes": 0, "last_updated": "2025-04-17 04:23:21", "online": true, "youbike_version": 2, "en": {"name": "Duanzhu Park", "district": "city", "address": "Guangren St. & Lane 86,Guangzheng St. (Southeast)"}}}, {"id": "76dd8607a6ab110f8c1eee91dc846bec", "name": "\u6587\u5316\u4e2d\u5fc3", "latitude": 23.487493, "longitude": 120.453047, "timestamp": "2025-04-17T03:06:55.766493Z", "free_bikes": 11, "empty_slots": 16, "extra": {"uid": "501001028", "district": "\u5e02\u5340", "address": "\u5fe0\u5b5d\u8def275\u865f", "slots": 27, "normal_bikes": 10, "ebikes": 1, "last_updated": "2025-04-17 10:30:23", "online": true, "youbike_version": 2, "en": {"name": "Culture Center", "district": "city", "address": "No. 275, Zhongxiao Rd."}}}, {"id": "7c5145d5cc029ff02bcde85a3435fd43", "name": "\u5609\u7fa9\u5e02\u653f\u5e9c", "latitude": 23.481634, "longitude": 120.453745, "timestamp": "2025-04-17T03:06:55.766325Z", "free_bikes": 19, "empty_slots": 26, "extra": {"uid": "501001001", "district": "\u5e02\u5340", "address": "\u4e2d\u5c71\u8def199\u865f(\u5c0d\u9762)", "slots": 45, "normal_bikes": 19, "ebikes": 0, "last_updated": "2025-04-17 10:13:18", "online": true, "youbike_version": 2, "en": {"name": "Chiayi City Government", "district": "city", "address": "No. 199, Zhongshan Rd. (Opposite)"}}}, {"id": "7ccf950e6557add7dc5542e914d5eca0", "name": "\u6148\u5e7c\u5e7c\u5152\u5712", "latitude": 23.491767, "longitude": 120.46644, "timestamp": "2025-04-17T03:06:55.767014Z", "free_bikes": 2, "empty_slots": 11, "extra": {"uid": "501001116", "district": "\u5e02\u5340", "address": "\u7fa9\u6559\u897f\u8def63\u865f(\u524d\u65b9\u8def\u5074)", "slots": 13, "normal_bikes": 2, "ebikes": 0, "last_updated": "2025-04-17 10:18:18", "online": true, "youbike_version": 2, "en": {"name": "Ciyou Kindergarten", "district": "city", "address": "No. 63, Yijiao W Rd.(Front)"}}}, {"id": "7ce5adfd533b4acd51be08f13d4063a1", "name": "\u53cb\u611b\u8208\u9054\u8def\u53e3(\u5fb7\u5b89\u505c\u8eca\u5834)", "latitude": 23.48465, "longitude": 120.43354, "timestamp": "2025-04-17T03:06:55.766427Z", "free_bikes": 11, "empty_slots": 3, "extra": {"uid": "501001017", "district": "\u5e02\u5340", "address": "\u53cb\u611b\u8208\u9054\u8def\u53e3", "slots": 14, "normal_bikes": 11, "ebikes": 0, "last_updated": "2025-04-17 08:10:24", "online": true, "youbike_version": 2, "en": {"name": "You'ai Singda Rd. Intersection(De'an Parking Lot)", "district": "city", "address": "You'ai & Singda Rd. Intersection"}}}, {"id": "80c8c43d1fcf0fcc6a37b0aa6f2d67a6", "name": "\u5609\u7fa9\u5927\u5b78(\u65b0\u6c11\u8def)", "latitude": 23.463453, "longitude": 120.440895, "timestamp": "2025-04-17T03:06:55.766622Z", "free_bikes": 19, "empty_slots": 30, "extra": {"uid": "501001055", "district": "\u5e02\u5340", "address": "\u65b0\u6c11\u8def580\u865f", "slots": 49, "normal_bikes": 14, "ebikes": 5, "last_updated": "2025-04-17 09:20:24", "online": true, "youbike_version": 2, "en": {"name": "National Chiayi University Sinmin Campus (Xinmin Rd.)", "district": "city", "address": "No. 580, Xinmin Rd."}}}, {"id": "847af8c57739377e05e3d4be4d349c6c", "name": "\u5ba3\u4fe1\u516c\u5712", "latitude": 23.4687924, "longitude": 120.459759, "timestamp": "2025-04-17T03:06:55.766833Z", "free_bikes": 16, "empty_slots": 4, "extra": {"uid": "501001092", "district": "\u5e02\u5340", "address": "\u82b3\u5b89\u8def2\u865f\u6771\u5074", "slots": 20, "normal_bikes": 12, "ebikes": 4, "last_updated": "2025-04-17 09:50:27", "online": true, "youbike_version": 2, "en": {"name": "Xuanxin Park", "district": "city", "address": "No. 2, Fang'an Rd., East Dist."}}}, {"id": "852841ccecd0ec0629df65b53358f279", "name": "\u5609\u7fa9\u820a\u5e02\u5e9c(\u897f\u69ae\u8857\u53e3)", "latitude": 23.47336, "longitude": 120.44604, "timestamp": "2025-04-17T03:06:55.766397Z", "free_bikes": 4, "empty_slots": 10, "extra": {"uid": "501001012", "district": "\u5e02\u5340", "address": "\u5782\u694a\u8def351\u865f", "slots": 14, "normal_bikes": 4, "ebikes": 0, "last_updated": "2025-04-17 09:02:19", "online": true, "youbike_version": 2, "en": {"name": "Old City Government(Xirong St. Intersection)", "district": "city", "address": "No.351, Chuiyang Rd."}}}, {"id": "8608ab7430c4f2a0e1d716b46cfebeb9", "name": "\u6c11\u65cf\u570b\u5c0f", "latitude": 23.4763393, "longitude": 120.4544289, "timestamp": "2025-04-17T03:06:55.766768Z", "free_bikes": 16, "empty_slots": 11, "extra": {"uid": "501001081", "district": "\u5e02\u5340", "address": "\u6c11\u65cf\u8def235\u865f", "slots": 27, "normal_bikes": 16, "ebikes": 0, "last_updated": "2025-04-17 10:50:25", "online": true, "youbike_version": 2, "en": {"name": "Minzu Elementary School", "district": "city", "address": "No. 235, Minzu Rd."}}}, {"id": "880eded7a8a9c29107ebd3ce1bdb070c", "name": "\u5609\u7fa9\u5e02\u535a\u611b\u6e38\u6cf3\u6c60", "latitude": 23.49086, "longitude": 120.43864, "timestamp": "2025-04-17T03:06:55.766587Z", "free_bikes": 8, "empty_slots": 11, "extra": {"uid": "501001046", "district": "\u5e02\u5340", "address": "\u4fdd\u5b89\u4e8c\u8def67\u865f", "slots": 19, "normal_bikes": 8, "ebikes": 0, "last_updated": "2025-04-17 06:30:25", "online": true, "youbike_version": 2, "en": {"name": "Bo'ai Swimming pool", "district": "city", "address": "No. 67, Bao'an 2nd Rd."}}}, {"id": "8930338446579f7acca456aface36081", "name": "\u6a5f\u516d\u505c\u8eca\u5834(\u5fe0\u5b5d\u8def346\u5df7)", "latitude": 23.48923, "longitude": 120.45528, "timestamp": "2025-04-17T03:06:55.766640Z", "free_bikes": 9, "empty_slots": 11, "extra": {"uid": "501001058", "district": "\u5e02\u5340", "address": "\u5fe0\u5b5d\u8def346\u5df718\u865f", "slots": 20, "normal_bikes": 6, "ebikes": 3, "last_updated": "2025-04-17 10:30:23", "online": true, "youbike_version": 2, "en": {"name": "Gi 6 Parking Lot(Ln. 346, Zhongxiao Rd.)", "district": "city", "address": "No. 18, Ln. 346, Zhongxiao Rd."}}}, {"id": "898f2fe9ca75cdc2a5d48124f748f7f7", "name": "\u4e2d\u5c71\u65b0\u751f\u8def\u53e3", "latitude": 23.48228, "longitude": 120.46113, "timestamp": "2025-04-17T03:06:55.767465Z", "free_bikes": 8, "empty_slots": 9, "extra": {"uid": "501001178", "district": "\u5e02\u5340", "address": "\u4e2d\u5c71\u8def/\u65b0\u751f\u8def\u53e3(\u6771\u5357\u5074)", "slots": 17, "normal_bikes": 3, "ebikes": 5, "last_updated": "2025-04-17 10:30:24", "online": true, "youbike_version": 2, "en": {"name": "Zhongshan Xingsheng Rd.  Intersection", "district": "city", "address": "Zhongshan Rd. & Xingsheng Rd.  Intersection (southeast)"}}}, {"id": "8a8f224676dd4b240e92e8eb487dc826", "name": "\u6a9c\u610f\u68ee\u6d3b\u6751", "latitude": 23.486138, "longitude": 120.453829, "timestamp": "2025-04-17T03:06:55.766415Z", "free_bikes": 1, "empty_slots": 19, "extra": {"uid": "501001015", "district": "\u5e02\u5340", "address": "\u5fe0\u5b5d\u8def284\u865f(\u65c1)", "slots": 20, "normal_bikes": 1, "ebikes": 0, "last_updated": "2025-04-16 18:50:24", "online": true, "youbike_version": 2, "en": {"name": "Hinoki Village", "district": "city", "address": "No. 284, Zhongxiao Rd."}}}, {"id": "8b9d090ac9e2ebb385bbe150c24e1850", "name": "\u4e2d\u592e\u5ee3\u5834(\u6c11\u6b0a\u8def)", "latitude": 23.48227, "longitude": 120.45003, "timestamp": "2025-04-17T03:06:55.767489Z", "free_bikes": 10, "empty_slots": 8, "extra": {"uid": "501001182", "district": "\u5e02\u5340", "address": "\u6c11\u6b0a\u8def/\u8208\u4e2d\u8857\u53e3(\u897f\u5357\u5074)", "slots": 18, "normal_bikes": 10, "ebikes": 0, "last_updated": "2025-04-17 10:02:18", "online": true, "youbike_version": 2, "en": {"name": "Central Plaza (Minquan Rd.)", "district": "city", "address": "Minquan Rd. & Xingzhong St. Intersection (Southwest)"}}}, {"id": "8c469b5833ea7a9c878bdf8434a17e5f", "name": "\u8208\u696d\u5f90\u5dde\u516d\u8857\u53e3", "latitude": 23.46773, "longitude": 120.4381, "timestamp": "2025-04-17T03:06:55.766704Z", "free_bikes": 7, "empty_slots": 10, "extra": {"uid": "501001069", "district": "\u5e02\u5340", "address": "\u8208\u696d\u897f\u8def325\u865f", "slots": 17, "normal_bikes": 7, "ebikes": 0, "last_updated": "2025-04-17 10:04:18", "online": true, "youbike_version": 2, "en": {"name": "Xingye & Xuzhou 6th St. Intersection", "district": "city", "address": "No. 325, Xingye W. Rd."}}}, {"id": "8da4fd7d83d78c374010676ac7928ffb", "name": "\u4e2d\u8208\u5927\u83ef\u8def\u53e3", "latitude": 23.47526, "longitude": 120.42819, "timestamp": "2025-04-17T03:06:55.767560Z", "free_bikes": 6, "empty_slots": 10, "extra": {"uid": "501001200", "district": "\u5e02\u5340", "address": "\u4e2d\u8208\u8def/\u5927\u83ef\u8def\u53e3(\u897f\u5317\u5074)", "slots": 16, "normal_bikes": 5, "ebikes": 1, "last_updated": "2025-04-17 07:30:25", "online": true, "youbike_version": 2, "en": {"name": "Zhongxing Rd. & Dahua Rd. Intersection", "district": "city", "address": "Zhongxing Rd. & Dahua Rd. Intersection (Northwest)"}}}, {"id": "8e1f06073d12794dbfa8aa22e468802c", "name": "\u5fd7\u6607\u65b0\u69ae\u8def\u53e3", "latitude": 23.469284, "longitude": 120.444883, "timestamp": "2025-04-17T03:06:55.767214Z", "free_bikes": 2, "empty_slots": 13, "extra": {"uid": "501001143", "district": "\u5e02\u5340", "address": "\u5fd7\u6607\u65b0\u69ae\u8def\u53e3(\u897f\u5074)", "slots": 15, "normal_bikes": 1, "ebikes": 1, "last_updated": "2025-04-17 08:14:18", "online": true, "youbike_version": 2, "en": {"name": "Zhisheng Xinrong Road", "district": "city", "address": "Zhisheng Xinrong intersection (west side)"}}}, {"id": "8e408e6236807855ef8f147164046edf", "name": "\u820a\u5e02\u5e9c\u505c\u8eca\u5834(\u6c11\u751f\u5317\u8def)", "latitude": 23.47462, "longitude": 120.44664, "timestamp": "2025-04-17T03:06:55.766887Z", "free_bikes": 8, "empty_slots": 12, "extra": {"uid": "501001098", "district": "\u5e02\u5340", "address": "\u6c11\u751f\u5317\u8def26\u865f\u897f\u5074", "slots": 20, "normal_bikes": 8, "ebikes": 0, "last_updated": "2025-04-16 21:40:24", "online": true, "youbike_version": 2, "en": {"name": "Old City Government Parking Lot (Minsheng N. Rd.)", "district": "city", "address": "No. 26, Minsheng N. Rd., West Dist."}}}, {"id": "906c2307fa0f7cc355c2c0353c31ad73", "name": "\u5b8f\u90fd\u5b8f\u90fd\u5927\u6a13", "latitude": 23.50207, "longitude": 120.45467, "timestamp": "2025-04-17T03:06:55.767528Z", "free_bikes": 3, "empty_slots": 9, "extra": {"uid": "501001192", "district": "\u5e02\u5340", "address": "\u4fdd\u6210\u8def47\u5df722\u865f(\u5c0d\u5074)", "slots": 12, "normal_bikes": 3, "ebikes": 0, "last_updated": "2025-04-17 06:50:26", "online": true, "youbike_version": 2, "en": {"name": "Hongdu Hongdu Building", "district": "city", "address": "No. 22, Ln. 47, Baocheng Rd. (Opposite)"}}}, {"id": "90744eecc34687475c054bfb5e47da87", "name": "\u6c11\u6b0a\u4e94\u798f\u8857\u53e3", "latitude": 23.48427, "longitude": 120.46628, "timestamp": "2025-04-17T03:06:55.766645Z", "free_bikes": 17, "empty_slots": 1, "extra": {"uid": "501001059", "district": "\u5e02\u5340", "address": "\u6c11\u6b0a\u8def10\u4e4b1\u865f", "slots": 18, "normal_bikes": 17, "ebikes": 0, "last_updated": "2025-04-17 09:48:17", "online": true, "youbike_version": 2, "en": {"name": "Minquan & Wufu St. Intersection", "district": "city", "address": "No. 10-1, Minquan Rd."}}}, {"id": "90e5b0ae1bbe9a0df0b61aff2a8c84ae", "name": "\u6e56\u5ee3\u505c10\u505c\u8eca\u5834", "latitude": 23.451012, "longitude": 120.441564, "timestamp": "2025-04-17T03:06:55.767086Z", "free_bikes": 5, "empty_slots": 10, "extra": {"uid": "501001127", "district": "\u5e02\u5340", "address": "\u6e56\u5b50\u5167\u8def203\u865f(\u897f\u5074)", "slots": 15, "normal_bikes": 4, "ebikes": 1, "last_updated": "2025-04-16 12:00:24", "online": true, "youbike_version": 2, "en": {"name": "Huguang 10 Parking Lot", "district": "city", "address": "No.203 Huzihnei Rd.(West)"}}}, {"id": "940e6f0166ff2be5d26758b26f4c3738", "name": "\u56db\u7dad\u8208\u9054\u8def\u53e3", "latitude": 23.48487, "longitude": 120.42727, "timestamp": "2025-04-17T03:06:55.767554Z", "free_bikes": 6, "empty_slots": 12, "extra": {"uid": "501001199", "district": "\u5e02\u5340", "address": "\u56db\u7dad\u8def/\u8208\u9054\u8def\u53e3(\u897f\u5317\u5074)", "slots": 18, "normal_bikes": 4, "ebikes": 2, "last_updated": "2025-04-17 04:53:18", "online": true, "youbike_version": 2, "en": {"name": "Sihwei Rd. & Xingda Rd. Intersection", "district": "city", "address": "Sihwei Rd. & Xingda Rd. Intersection (Northwest)"}}}, {"id": "9461b32ef92c252985008e7dfaad736d", "name": "\u53f0\u96fb\u5609\u7fa9\u71df\u696d\u8655(\u6c11\u65cf\u505c\u8eca\u5834)", "latitude": 23.47416, "longitude": 120.455074, "timestamp": "2025-04-17T03:06:55.766510Z", "free_bikes": 15, "empty_slots": 13, "extra": {"uid": "501001031", "district": "\u5e02\u5340", "address": "\u5782\u694a\u8def223\u865f\u5317\u5074", "slots": 38, "normal_bikes": 13, "ebikes": 2, "last_updated": "2025-04-17 08:40:24", "online": true, "youbike_version": 2, "en": {"name": "Taipower Chiayi Branch (Minzhu Parking Lot)", "district": "city", "address": "No. 223, Chuiyang Rd. (North)"}}}, {"id": "97a8a735672f4fee67a05aa11b292a6a", "name": "\u7fa9\u6559\u6771\u6771\u7fa9\u8def93\u5df7\u53e3", "latitude": 23.49395, "longitude": 120.46855, "timestamp": "2025-04-17T03:06:55.767596Z", "free_bikes": 7, "empty_slots": 9, "extra": {"uid": "501001208", "district": "\u5e02\u5340", "address": "\u7fa9\u6559\u6771\u8def/\u6771\u7fa9\u8def93\u5df7\u53e3(\u6771\u5357\u5074)", "slots": 16, "normal_bikes": 3, "ebikes": 4, "last_updated": "2025-04-16 02:34:17", "online": true, "youbike_version": 2, "en": {"name": "Yijiao E. Rd. & Ln. 93, Dongyi Rd.", "district": "city", "address": "Yijiao E. Rd. & Ln. 93, Dongyi Rd. Intersection (Southeast)"}}}, {"id": "9bc831bd6384be097a5f8bd2c73f9a48", "name": "\u7acb\u4ec1\u9ad8\u4e2d", "latitude": 23.4629832, "longitude": 120.4587766, "timestamp": "2025-04-17T03:06:55.766774Z", "free_bikes": 2, "empty_slots": 18, "extra": {"uid": "501001083", "district": "\u5e02\u5340", "address": "\u7acb\u4ec1\u8def350\u865f(\u5c0d\u9762)", "slots": 20, "normal_bikes": 1, "ebikes": 1, "last_updated": "2025-04-17 07:40:26", "online": true, "youbike_version": 2, "en": {"name": "Li Jen Senior High School", "district": "city", "address": "No. 350, Liren Rd., East Dist."}}}, {"id": "9cd2169d5cdf124f00de9d74f1d1aa78", "name": "\u4e16\u8ce2\u516b\u5fb7\u7ad9(\u81ea\u7531\u8def)", "latitude": 23.49265, "longitude": 120.43191, "timestamp": "2025-04-17T03:06:55.766438Z", "free_bikes": 11, "empty_slots": 4, "extra": {"uid": "501001019", "district": "\u5e02\u5340", "address": "\u81ea\u7531\u8def492\u865f", "slots": 15, "normal_bikes": 10, "ebikes": 1, "last_updated": "2025-04-17 02:20:23", "online": true, "youbike_version": 2, "en": {"name": "Shixian Bade Sta. (Ziyou Rd.)", "district": "city", "address": "No. 492, Ziyou Rd."}}}, {"id": "9d1548c56c780bec63fd1df1eac571a6", "name": "\u862d\u6f6d\u570b\u5c0f", "latitude": 23.47506, "longitude": 120.47173, "timestamp": "2025-04-17T03:06:55.766651Z", "free_bikes": 8, "empty_slots": 9, "extra": {"uid": "501001060", "district": "\u5e02\u5340", "address": "\u5c0f\u96c5\u8def419\u865f", "slots": 17, "normal_bikes": 6, "ebikes": 2, "last_updated": "2025-04-17 00:11:17", "online": true, "youbike_version": 2, "en": {"name": "Lantan Elementary School", "district": "city", "address": "No. 419, Xiaoya Rd."}}}, {"id": "9ebfd97a544106776926f0a0198be2c6", "name": "\u4e16\u8ce2\u8def\u677e\u6c5f\u4e00\u8857\u53e3", "latitude": 23.49475, "longitude": 120.44211, "timestamp": "2025-04-17T03:06:55.767391Z", "free_bikes": 4, "empty_slots": 11, "extra": {"uid": "501001166", "district": "\u5e02\u5340", "address": "\u4e16\u8ce2\u8def\u4e00\u6bb5/\u677e\u6c5f\u4e00\u8857\u53e3(\u897f\u5357\u5074)", "slots": 15, "normal_bikes": 4, "ebikes": 0, "last_updated": "2025-04-17 06:05:23", "online": true, "youbike_version": 2, "en": {"name": "Shixian Rd. / Songjiang 1st St.", "district": "city", "address": "Sec. 1, Shixian Rd. & Songjiang 1st St. Intersection (Southwest)"}}}, {"id": "9ee7f6dddd3051c46aed5c6c611bb141", "name": "\u8208\u5609\u516c\u5712(\u4e0a\u6d77\u8def)", "latitude": 23.46838, "longitude": 120.43459, "timestamp": "2025-04-17T03:06:55.766757Z", "free_bikes": 5, "empty_slots": 15, "extra": {"uid": "501001079", "district": "\u5e02\u5340", "address": "\u8208\u696d\u897f\u8def465\u865f\u5317\u5074", "slots": 20, "normal_bikes": 4, "ebikes": 1, "last_updated": "2025-04-17 09:30:24", "online": true, "youbike_version": 2, "en": {"name": "Xingjia Park (Shanghai Rd.)", "district": "city", "address": "No. 465, Xingye W. Rd. (North)"}}}, {"id": "a0aac52f7687091b466496ece1ad31e3", "name": "\u6587\u660c\u516c\u5712", "latitude": 23.4785, "longitude": 120.45631, "timestamp": "2025-04-17T03:06:55.766954Z", "free_bikes": 6, "empty_slots": 9, "extra": {"uid": "501001106", "district": "\u5e02\u5340", "address": "\u6771\u5340\u6587\u660c\u885782\u865f\u897f\u5074", "slots": 15, "normal_bikes": 6, "ebikes": 0, "last_updated": "2025-04-17 09:50:27", "online": true, "youbike_version": 2, "en": {"name": "Wenchang Park", "district": "city", "address": "Ln. 82, Wenchang St., East Dist."}}}, {"id": "a2a937003feaf206c96c85455f4f9d9c", "name": "\u5289\u539d2\u865f\u516c\u5712", "latitude": 23.463948, "longitude": 120.418485, "timestamp": "2025-04-17T03:06:55.767166Z", "free_bikes": 5, "empty_slots": 10, "extra": {"uid": "501001135", "district": "\u5e02\u5340", "address": "\u5289\u539d\u8def166\u865f(\u5c0d\u9762)", "slots": 15, "normal_bikes": 2, "ebikes": 3, "last_updated": "2025-04-17 04:23:21", "online": true, "youbike_version": 2, "en": {"name": "Liucuo No.2 Park", "district": "city", "address": "No. 166, Liucuo Rd.(Opposite)"}}}, {"id": "a36759bb3b5b8e57745cd7d013fc646a", "name": "\u81ea\u7531\u9060\u6771\u8857\u53e3", "latitude": 23.486756, "longitude": 120.438749, "timestamp": "2025-04-17T03:06:55.767039Z", "free_bikes": 3, "empty_slots": 17, "extra": {"uid": "501001120", "district": "\u5e02\u5340", "address": "\u81ea\u7531\u8def101\u865f(\u6771\u5074)", "slots": 20, "normal_bikes": 1, "ebikes": 2, "last_updated": "2025-04-17 09:20:24", "online": true, "youbike_version": 2, "en": {"name": "Ziyou Yuandong St.Intersection", "district": "city", "address": "No. 101, Ziyou Rd.(East)"}}}, {"id": "a93cc735d667dfbb027f0b16d3c9ad7f", "name": "\u9577\u5104\u82b1\u5712\u5ee3\u5834\u793e\u5340", "latitude": 23.49067, "longitude": 120.46129, "timestamp": "2025-04-17T03:06:55.766966Z", "free_bikes": 1, "empty_slots": 13, "extra": {"uid": "501001108", "district": "\u5e02\u5340", "address": "\u535a\u6771\u8def111\u865f\u5317\u5074", "slots": 14, "normal_bikes": 1, "ebikes": 0, "last_updated": "2025-04-17 09:29:18", "online": true, "youbike_version": 2, "en": {"name": "Chang-yi garden square Community", "district": "city", "address": "No. 111, Bodong Rd., East Dist."}}}, {"id": "a960a29aa5abd0e08cc1f0f3fae5e8c6", "name": "\u4e16\u8ce2\u5433\u9cf3\u5357\u8def\u53e3", "latitude": 23.4660826, "longitude": 120.4542225, "timestamp": "2025-04-17T03:06:55.766762Z", "free_bikes": 3, "empty_slots": 20, "extra": {"uid": "501001080", "district": "\u5e02\u5340", "address": "\u4e16\u8ce2\u8def\u56db\u6bb5502\u865f(\u5c0d\u9762)", "slots": 24, "normal_bikes": 2, "ebikes": 1, "last_updated": "2025-04-17 08:40:24", "online": true, "youbike_version": 2, "en": {"name": "Shixian & Wufeng S. Rd. Intersection", "district": "city", "address": "No. 502, Shixian Rd. Sec 4 (Opposite)"}}}, {"id": "ab297205c034052dd05116d5fabc17d7", "name": "\u5289\u539d\u516c\u5712", "latitude": 23.46817, "longitude": 120.41673, "timestamp": "2025-04-17T03:06:55.767567Z", "free_bikes": 10, "empty_slots": 9, "extra": {"uid": "501001201", "district": "\u5e02\u5340", "address": "\u5927\u548c\u8857/\u5927\u5229\u8857\u53e3(\u897f\u5357\u5074)", "slots": 19, "normal_bikes": 8, "ebikes": 2, "last_updated": "2025-04-17 05:44:22", "online": true, "youbike_version": 2, "en": {"name": "Liucuo Park", "district": "city", "address": "Dahe St. / Dali St. Intersection (Southwest)"}}}, {"id": "acbedc45bd20f59847cdb4a4241ff35c", "name": "\u82f1\u7d71\u5225\u5885", "latitude": 23.49182, "longitude": 120.469965, "timestamp": "2025-04-17T03:06:55.767202Z", "free_bikes": 5, "empty_slots": 11, "extra": {"uid": "501001140", "district": "\u5e02\u5340", "address": "\u6797\u68ee\u6771\u8def472\u865f(\u524d)", "slots": 16, "normal_bikes": 3, "ebikes": 2, "last_updated": "2025-04-17 05:27:17", "online": true, "youbike_version": 2, "en": {"name": "Yingtong Villa", "district": "city", "address": "No. 472, Linsen East Rd. (Opposite)"}}}, {"id": "acbf64d4d3d1270d766b98bba3648a4e", "name": "\u5609\u7fa9\u5e02\u9ad4\u80b2\u5834(2\u865f\u51fa\u5165\u53e3)", "latitude": 23.471687, "longitude": 120.460978, "timestamp": "2025-04-17T03:06:55.766516Z", "free_bikes": 4, "empty_slots": 8, "extra": {"uid": "501001032", "district": "\u5e02\u5340", "address": "\u9ad4\u80b2\u8def29\u865f\u6771\u5074", "slots": 12, "normal_bikes": 2, "ebikes": 2, "last_updated": "2025-04-17 07:40:26", "online": true, "youbike_version": 2, "en": {"name": "Chiayi City Municipal Stadium", "district": "city", "address": "No. 29, Tiyu Rd. (East)"}}}, {"id": "ad64937fc8a4c280e717ba35439c305a", "name": "\u5fe0\u5b5d\u5317\u8857", "latitude": 23.51576, "longitude": 120.44218, "timestamp": "2025-04-17T03:06:55.766948Z", "free_bikes": 9, "empty_slots": 11, "extra": {"uid": "501001105", "district": "\u5e02\u5340", "address": "\u5fe0\u5b5d\u8def790\u865f\u897f\u5074", "slots": 20, "normal_bikes": 9, "ebikes": 0, "last_updated": "2025-04-17 06:42:20", "online": true, "youbike_version": 2, "en": {"name": "Zhongxiao N. St.", "district": "city", "address": "No. 790, Zhongxiao Rd., East Dist."}}}, {"id": "ad873d6f84eebc4f9b96070fae8dd296", "name": "\u5b8f\u4ec1\u5973\u4e2d", "latitude": 23.50626, "longitude": 120.4464, "timestamp": "2025-04-17T03:06:55.767633Z", "free_bikes": 4, "empty_slots": 13, "extra": {"uid": "501001215", "district": "\u5e02\u5340", "address": "\u5fe0\u5b5d\u8def667\u865f", "slots": 17, "normal_bikes": 4, "ebikes": 0, "last_updated": "2025-04-17 07:40:27", "online": true, "youbike_version": 2, "en": {"name": "Hung Jen Senior High School", "district": "city", "address": "No. 667, Zhongxiao Rd."}}}, {"id": "adc1b163f542005aede4aee6afa7be89", "name": "\u570b\u7acb\u4e2d\u6b63\u5927\u5b78\u6e05\u6c5f\u5b78\u7fd2\u4e2d\u5fc3", "latitude": 23.46176, "longitude": 120.44362, "timestamp": "2025-04-17T03:06:55.766751Z", "free_bikes": 0, "empty_slots": 6, "extra": {"uid": "501001078", "district": "\u5e02\u5340", "address": "\u4e16\u8ce2\u8def\u56db\u6bb5120\u865f", "slots": 6, "normal_bikes": 0, "ebikes": 0, "last_updated": "2024-11-09 02:09:27", "online": false, "youbike_version": 2, "en": {"name": "National Chung Cheng University Ching Jiang Learning Center", "district": "city", "address": "No. 120, Shixian Rd. Sec 4"}}}, {"id": "aed48e802dcb3c2c8a1aa87970e8fa22", "name": "\u7d2b\u5fae\u5bae", "latitude": 23.48083, "longitude": 120.40341, "timestamp": "2025-04-17T03:06:55.767244Z", "free_bikes": 6, "empty_slots": 9, "extra": {"uid": "501001148", "district": "\u5e02\u5340", "address": "\u5927\u6eaa\u8def593\u865f(\u6771\u5317\u5074)", "slots": 15, "normal_bikes": 6, "ebikes": 0, "last_updated": "2025-04-17 05:00:23", "online": true, "youbike_version": 2, "en": {"name": "Ziwei Palace", "district": "city", "address": "No. 593, Daxi Road (northeast side)"}}}, {"id": "af3f1a5ebf9427f1a965fab26320fe83", "name": "\u5609\u6cb9\u9435\u99ac\u9053(\u65b0\u6c11\u8def)", "latitude": 23.45862, "longitude": 120.4391, "timestamp": "2025-04-17T03:06:55.766798Z", "free_bikes": 2, "empty_slots": 16, "extra": {"uid": "501001087", "district": "\u5e02\u5340", "address": "\u65b0\u6c11\u8def465\u5df7\u53e3\u6771\u5074", "slots": 18, "normal_bikes": 2, "ebikes": 0, "last_updated": "2025-04-17 10:20:23", "online": true, "youbike_version": 2, "en": {"name": "Jiayou Bicycle Trail(Xinmin Rd.)", "district": "city", "address": "Ln. 465, Xinmin Rd., West Dist."}}}, {"id": "b01dd4be8ac3821a7a6bd2e2d575c9e6", "name": "\u6797\u68ee\u65b0\u69ae\u8def\u53e3", "latitude": 23.48087, "longitude": 120.44352, "timestamp": "2025-04-17T03:06:55.767020Z", "free_bikes": 1, "empty_slots": 15, "extra": {"uid": "501001117", "district": "\u5e02\u5340", "address": "\u6797\u68ee\u897f\u8def/\u65b0\u69ae\u8def\u53e3(\u897f\u5357\u5074)", "slots": 16, "normal_bikes": 1, "ebikes": 0, "last_updated": "2025-04-17 08:50:24", "online": true, "youbike_version": 2, "en": {"name": "Linsen Sinrong Rd.Intersection", "district": "city", "address": "Linsen W Rd./Sinrongg Rd.(Southwest)"}}}, {"id": "b077e2f1ac682dcefafbf96dffec8a51", "name": "\u6587\u96c5\u570b\u5c0f", "latitude": 23.4838, "longitude": 120.48759, "timestamp": "2025-04-17T03:06:55.766942Z", "free_bikes": 12, "empty_slots": 3, "extra": {"uid": "501001104", "district": "\u5e02\u5340", "address": "\u6771\u6d0b\u65b0\u90a8505\u865f\u5317\u5074", "slots": 15, "normal_bikes": 11, "ebikes": 1, "last_updated": "2025-04-17 06:40:24", "online": true, "youbike_version": 2, "en": {"name": "Wen-ya Elementary School", "district": "city", "address": "No. 505, Dongyang New Residential Quarter, East Dist"}}}, {"id": "b1333c04a1c4687e044957ec93b37278", "name": "\u5609\u7fa9\u706b\u8eca\u7ad9(\u51fa\u53e3)", "latitude": 23.47877, "longitude": 120.44089, "timestamp": "2025-04-17T03:06:55.766385Z", "free_bikes": 5, "empty_slots": 37, "extra": {"uid": "501001009", "district": "\u5e02\u5340", "address": "\u4e2d\u5c71\u8def528\u865f", "slots": 42, "normal_bikes": 0, "ebikes": 5, "last_updated": "2025-04-17 10:50:25", "online": true, "youbike_version": 2, "en": {"name": "TRA Chiayi Sta.(Exit)", "district": "city", "address": "No. 528, Zhongshan Rd."}}}, {"id": "b3bb0737df82321223cae9f8ffdd65a6", "name": "\u5782\u694a\u570b\u5c0f", "latitude": 23.47259, "longitude": 120.43904, "timestamp": "2025-04-17T03:06:55.767542Z", "free_bikes": 3, "empty_slots": 17, "extra": {"uid": "501001194", "district": "\u5e02\u5340", "address": "\u5782\u694a\u8def605\u865f", "slots": 20, "normal_bikes": 2, "ebikes": 1, "last_updated": "2025-04-16 11:00:26", "online": true, "youbike_version": 2, "en": {"name": "Chuiyang Elementary School", "district": "city", "address": "No. 605, Chuiyang Rd."}}}, {"id": "b561d60c7740da609f5dfac0fc48686d", "name": "\u5317\u9999\u6e56\u516c\u5712(\u535a\u611b\u8def)", "latitude": 23.489608, "longitude": 120.446834, "timestamp": "2025-04-17T03:06:55.767189Z", "free_bikes": 8, "empty_slots": 7, "extra": {"uid": "501001138", "district": "\u5e02\u5340", "address": "\u535a\u611b\u8def\u4e00\u6bb5/\u8208\u9054\u8def\u53e3(\u6771\u5074)", "slots": 15, "normal_bikes": 7, "ebikes": 1, "last_updated": "2025-04-17 07:00:25", "online": true, "youbike_version": 2, "en": {"name": "Beixiang Lake Park (Boai Road)", "district": "city", "address": "Bo'ai-Xingda intersection (east side)"}}}, {"id": "b8a6a0a3d39e11cab65e9b735e0cf524", "name": "\u5609\u7fa9\u9ad8\u5de5", "latitude": 23.471501, "longitude": 120.464382, "timestamp": "2025-04-17T03:06:55.766534Z", "free_bikes": 38, "empty_slots": 3, "extra": {"uid": "501001036", "district": "\u5e02\u5340", "address": "\u5f4c\u9640\u8def174\u865f\u897f\u5357\u5074", "slots": 41, "normal_bikes": 25, "ebikes": 13, "last_updated": "2025-04-17 08:50:24", "online": true, "youbike_version": 2, "en": {"name": "National Chiayi Industrial Vocational High School", "district": "city", "address": "No. 174, Mituo Rd. (Southwest)"}}}, {"id": "b991dbd27377d556082fbe2429c9e97d", "name": "\u91d1\u5c71\u7389\u5c71\u8def\u53e3", "latitude": 23.47179, "longitude": 120.42466, "timestamp": "2025-04-17T03:06:55.766457Z", "free_bikes": 12, "empty_slots": 2, "extra": {"uid": "501001022", "district": "\u5e02\u5340", "address": "\u91d1\u5c71\u8def102\u865f", "slots": 14, "normal_bikes": 12, "ebikes": 0, "last_updated": "2025-04-17 04:50:27", "online": true, "youbike_version": 2, "en": {"name": "Jinshan Yushan Rd. Intersection", "district": "city", "address": "No. 102, Jinshan Rd."}}}, {"id": "bb27e5f4a3a517c3d2359fcdc7eebd7f", "name": "\u738b\u7530\u91cc\u96c6\u6703\u6240", "latitude": 23.48651, "longitude": 120.46784, "timestamp": "2025-04-17T03:06:55.767299Z", "free_bikes": 4, "empty_slots": 12, "extra": {"uid": "501001157", "district": "\u5e02\u5340", "address": "\u4e94\u798f\u8857119\u865f(\u5357\u5074)", "slots": 16, "normal_bikes": 4, "ebikes": 0, "last_updated": "2025-04-17 09:40:24", "online": true, "youbike_version": 2, "en": {"name": "Wangtian Village Community Center", "district": "city", "address": "No.119, Wufu St. (South Side)"}}}, {"id": "bb71976fd0e9366a9285ef3f979156f8", "name": "\u9802\u5e84\u516c\u5712", "latitude": 23.49749, "longitude": 120.45726, "timestamp": "2025-04-17T03:06:55.766634Z", "free_bikes": 11, "empty_slots": 7, "extra": {"uid": "501001057", "district": "\u5e02\u5340", "address": "\u7fa9\u6559\u8857613\u5df715\u865f", "slots": 18, "normal_bikes": 10, "ebikes": 1, "last_updated": "2025-04-17 06:50:26", "online": true, "youbike_version": 2, "en": {"name": "Dingzhuang Park", "district": "city", "address": "No. 15, Ln. 613, Yijiao St."}}}, {"id": "be1f6fbe95ac90969667403ed5e4e928", "name": "\u4e0b\u57e4\u91cc(\u5317\u6e2f\u8def)", "latitude": 23.48974, "longitude": 120.40573, "timestamp": "2025-04-17T03:06:55.767250Z", "free_bikes": 3, "empty_slots": 11, "extra": {"uid": "501001149", "district": "\u5e02\u5340", "address": "\u5317\u6e2f\u8def1122\u865f\u524d", "slots": 14, "normal_bikes": 3, "ebikes": 0, "last_updated": "2025-04-15 19:24:18", "online": true, "youbike_version": 2, "en": {"name": "Xiapi Beigang Rd", "district": "city", "address": "No.1122, Beigang Rd"}}}, {"id": "c0b9ff1b794b3b4dfe12e61874b98f50", "name": "\u5152\u7ae5\u798f\u5229\u670d\u52d9\u4e2d\u5fc3", "latitude": 23.469973, "longitude": 120.461705, "timestamp": "2025-04-17T03:06:55.766487Z", "free_bikes": 1, "empty_slots": 12, "extra": {"uid": "501001027", "district": "\u5e02\u5340", "address": "\u8208\u696d\u6771\u8def322\u865f\u5317\u5074", "slots": 13, "normal_bikes": 1, "ebikes": 0, "last_updated": "2025-04-17 10:13:18", "online": true, "youbike_version": 2, "en": {"name": "Children Welfare Service Center, Chiayi CIty", "district": "city", "address": "No. 322, Xingye E. Rd. (North)"}}}, {"id": "c114fb3f86a53ca5b4bf1301378583cc", "name": "\u4e16\u8ce2\u5716\u66f8\u9928", "latitude": 23.49041, "longitude": 120.42857, "timestamp": "2025-04-17T03:06:55.766593Z", "free_bikes": 5, "empty_slots": 15, "extra": {"uid": "501001047", "district": "\u5e02\u5340", "address": "\u4e16\u8ce2\u8def\u4e00\u6bb5685\u865f", "slots": 20, "normal_bikes": 4, "ebikes": 1, "last_updated": "2025-04-17 09:20:24", "online": true, "youbike_version": 2, "en": {"name": "Dr. Kuo Sie-Hien Memorial Museum", "district": "city", "address": "No. 685, Shixian Rd. Sec 1"}}}, {"id": "c14be7482516eec66812d7bb74a169de", "name": "\u5d07\u6587\u516c\u5712", "latitude": 23.4712538, "longitude": 120.4521476, "timestamp": "2025-04-17T03:06:55.766809Z", "free_bikes": 11, "empty_slots": 9, "extra": {"uid": "501001089", "district": "\u5e02\u5340", "address": "\u6c38\u5b89\u885716\u865f", "slots": 20, "normal_bikes": 10, "ebikes": 1, "last_updated": "2025-04-17 09:40:24", "online": true, "youbike_version": 2, "en": {"name": "Chongwen Park", "district": "city", "address": "No. 16, Yong'an St., West Dist."}}}, {"id": "c15abf624ebd52ea622a92e844b63a39", "name": "\u52de\u4fdd\u5c40", "latitude": 23.4634, "longitude": 120.45504, "timestamp": "2025-04-17T03:06:55.767453Z", "free_bikes": 4, "empty_slots": 4, "extra": {"uid": "501001176", "district": "\u5e02\u5340", "address": "\u5927\u696d\u88572\u865f(\u897f\u5357\u5074)", "slots": 8, "normal_bikes": 3, "ebikes": 1, "last_updated": "2025-04-17 07:20:25", "online": true, "youbike_version": 2, "en": {"name": "Bureau Of Labor Insurance", "district": "city", "address": "No. 2, Daye St. (Southwest)"}}}, {"id": "c1b72a62405bdb20b2d701db8bca46a5", "name": "\u7cbe\u5fe0\u793e\u5340", "latitude": 23.49185, "longitude": 120.47722, "timestamp": "2025-04-17T03:06:55.766960Z", "free_bikes": 3, "empty_slots": 12, "extra": {"uid": "501001107", "district": "\u5e02\u5340", "address": "\u6771\u5340\u6797\u68ee\u6771\u8def722-35\u865f\u897f\u5074", "slots": 15, "normal_bikes": 3, "ebikes": 0, "last_updated": "2025-04-17 10:10:23", "online": true, "youbike_version": 2, "en": {"name": "Jingzhong Community", "district": "city", "address": "No. 722-35, Linsen E. Rd., East Dist."}}}, {"id": "c4cfaa4bf8aa1d299ae0bf7be44e888f", "name": "\u4e16\u8ce2\u4fdd\u5b89\u56db\u8def\u53e3", "latitude": 23.49447, "longitude": 120.43527, "timestamp": "2025-04-17T03:06:55.766925Z", "free_bikes": 1, "empty_slots": 13, "extra": {"uid": "501001102", "district": "\u5e02\u5340", "address": "\u897f\u5340\u4e16\u8ce2\u8def\u4e00\u6bb5420\u865f\u5357\u5074", "slots": 15, "normal_bikes": 1, "ebikes": 0, "last_updated": "2025-04-16 16:24:17", "online": true, "youbike_version": 2, "en": {"name": "Shixian & Bao'an 4th Rd. Intersection", "district": "city", "address": "No. 420, Sec. 1, Shixian Rd., West Dist."}}}, {"id": "c6269f7ca0870bea640c57c9db72e51c", "name": "\u6e56\u5ee3\u505c2\u505c\u8eca\u5834", "latitude": 23.459242, "longitude": 120.452354, "timestamp": "2025-04-17T03:06:55.767158Z", "free_bikes": 9, "empty_slots": 4, "extra": {"uid": "501001134", "district": "\u5e02\u5340", "address": "\u9806\u8208\u4e00\u8def/\u8208\u5b89\u8857203\u5df723\u5f04\u53e3(\u6771\u5357\u5074)", "slots": 13, "normal_bikes": 9, "ebikes": 0, "last_updated": "2025-04-17 07:00:25", "online": true, "youbike_version": 2, "en": {"name": "Huguang 2 Parking Lot", "district": "city", "address": "Shunxing 1st Rd./Alley 23, Lane 203, Xing'an St.(Southeast)"}}}, {"id": "c786b63b5629f5578ea8ea178bd2d33e", "name": "\u5609\u7fa9\u706b\u8eca\u7ad9(\u9858\u666f\u9928)", "latitude": 23.47917, "longitude": 120.44186, "timestamp": "2025-04-17T03:06:55.766379Z", "free_bikes": 1, "empty_slots": 55, "extra": {"uid": "501001008", "district": "\u5e02\u5340", "address": "\u4e2d\u5c71\u8def524\u865f", "slots": 56, "normal_bikes": 1, "ebikes": 0, "last_updated": "2025-04-17 10:54:17", "online": true, "youbike_version": 2, "en": {"name": "TRA Chiayi Sta. (Vision Station)", "district": "city", "address": "No. 524, Zhongshan Rd."}}}, {"id": "c82d5449462a7016eb0ec6f7a0cf2128", "name": "\u5609\u7fa9\u9ad8\u4e2d(\u5fd7\u822a\u8857)", "latitude": 23.478707, "longitude": 120.462594, "timestamp": "2025-04-17T03:06:55.766355Z", "free_bikes": 30, "empty_slots": 8, "extra": {"uid": "501001004", "district": "\u5e02\u5340", "address": "\u555f\u660e\u8def122\u865f(\u524d)", "slots": 38, "normal_bikes": 17, "ebikes": 13, "last_updated": "2025-04-17 10:10:23", "online": true, "youbike_version": 2, "en": {"name": "National Chiayi Senior High School (Zhihang St.)", "district": "city", "address": "No. 122, Qiming Rd."}}}, {"id": "c830acf5d992a3c76d8cca8b30b2985f", "name": "\u76e7\u7fa9\u8def\u6587\u96c5\u8857\u53e3", "latitude": 23.482278732615548, "longitude": 120.48321439550685, "timestamp": "2025-04-17T03:06:55.767342Z", "free_bikes": 2, "empty_slots": 13, "extra": {"uid": "501001159", "district": "\u5e02\u5340", "address": "\u76e7\u7fa9\u8def/\u6587\u96c5\u8857\u53e3(\u897f\u5317\u5074)", "slots": 15, "normal_bikes": 2, "ebikes": 0, "last_updated": "2025-04-16 23:03:18", "online": true, "youbike_version": 2, "en": {"name": "Ruyi Rd. & Wenya St.", "district": "city", "address": "Ruyi Rd. & Wenya St. (Northwest)"}}}, {"id": "ca7de5c9a9e527013def50dc5556323f", "name": "\u5927\u96c5\u8def\u4e00\u6bb5368\u5df7", "latitude": 23.483845, "longitude": 120.497274, "timestamp": "2025-04-17T03:06:55.767074Z", "free_bikes": 8, "empty_slots": 2, "extra": {"uid": "501001125", "district": "\u5e02\u5340", "address": "\u5927\u96c5\u8def\u4e00\u6bb5288\u5df7126\u865f(\u524d)", "slots": 10, "normal_bikes": 4, "ebikes": 4, "last_updated": "2025-04-17 01:32:18", "online": true, "youbike_version": 2, "en": {"name": "Lane 368, Section 1, Daya Rd.", "district": "city", "address": "No. 126 Lane 288, Section 1(Opposite)"}}}, {"id": "cd02c6884244976e6736336a20889c86", "name": "\u5317\u9999\u6e56\u516c\u5712(\u53cb\u611b\u8def\u53e3)", "latitude": 23.49241, "longitude": 120.44506, "timestamp": "2025-04-17T03:06:55.766552Z", "free_bikes": 5, "empty_slots": 25, "extra": {"uid": "501001039", "district": "\u5e02\u5340", "address": "\u6587\u5316\u8def551\u865f\u6771\u5074", "slots": 30, "normal_bikes": 4, "ebikes": 1, "last_updated": "2025-04-17 07:20:24", "online": true, "youbike_version": 2, "en": {"name": "Beixianghu Park (You'ai Rd. Intersection)", "district": "city", "address": "No. 551, Wenhua Rd. (East)"}}}, {"id": "cdd5082d958af26954e662ca6c00e3b4", "name": "\u81fa\u7063\u9280\u884c\u5609\u7fa9\u5206\u884c", "latitude": 23.4798596, "longitude": 120.4488291, "timestamp": "2025-04-17T03:06:55.766367Z", "free_bikes": 13, "empty_slots": 7, "extra": {"uid": "501001006", "district": "\u5e02\u5340", "address": "\u4e2d\u5c71\u8def306\u865f", "slots": 20, "normal_bikes": 12, "ebikes": 1, "last_updated": "2025-04-17 10:04:18", "online": true, "youbike_version": 2, "en": {"name": "Bank of Taiwan-Chiayi Branch", "district": "city", "address": "No. 306, Zhongshan Rd."}}}, {"id": "cddba98e4be6389f0b8b38068f0015be", "name": "\u4e0a\u6d77\u65b0\u5efa\u8857\u53e3", "latitude": 23.47064, "longitude": 120.43789, "timestamp": "2025-04-17T03:06:55.767182Z", "free_bikes": 0, "empty_slots": 15, "extra": {"uid": "501001137", "district": "\u5e02\u5340", "address": "\u4e0a\u6d77\u8def/\u65b0\u5efa\u8857\u53e3(\u897f\u5317\u5074)", "slots": 15, "normal_bikes": 0, "ebikes": 0, "last_updated": "2025-04-17 10:41:17", "online": true, "youbike_version": 2, "en": {"name": "Shanghai Xingjian Street", "district": "city", "address": "Shanghai Road/Xingjian Street (northwest side)"}}}, {"id": "ce34788d0183150946c2d153016bd9e4", "name": "\u5609\u7fa9\u5927\u5b78\u65b0\u6c11\u6821\u5340\u5bbf\u820d(\u8ce2\u5fb7\u6a13)", "latitude": 23.46185, "longitude": 120.4454, "timestamp": "2025-04-17T03:06:55.767627Z", "free_bikes": 3, "empty_slots": 42, "extra": {"uid": "501001214", "district": "\u5e02\u5340", "address": "\u4e16\u8ce2\u8def\u56db\u6bb5208\u5df75\u865f", "slots": 45, "normal_bikes": 2, "ebikes": 1, "last_updated": "2025-04-16 16:20:26", "online": true, "youbike_version": 2, "en": {"name": "National Chiayi University Sinmin Dormitory (Xiande Building)", "district": "city", "address": "No. 5, Ln. 208 ,Sec. 4, Shixian Rd."}}}, {"id": "cef7b148a01ae73dc343ef51daeb1242", "name": "\u96c5\u7af9\u8def\u5927\u96c5\u8def\u4e8c\u6bb5433\u5df7\u53e3", "latitude": 23.47589, "longitude": 120.47288, "timestamp": "2025-04-17T03:06:55.767590Z", "free_bikes": 2, "empty_slots": 16, "extra": {"uid": "501001207", "district": "\u5e02\u5340", "address": "\u96c5\u7af9\u8def/\u5927\u96c5\u8def\u4e8c\u6bb5433\u5df7\u53e3(\u897f\u5357\u5074)", "slots": 18, "normal_bikes": 1, "ebikes": 1, "last_updated": "2025-04-16 18:52:18", "online": true, "youbike_version": 2, "en": {"name": "Yazhu Rd.& Ln. 433, Sec. 2, Daya Rd.", "district": "city", "address": "Yazhu Rd. & Ln. 433, Sec. 2, Daya Rd.Intersection (Southwest)"}}}, {"id": "cf3e276245a8e91e50140f382dd157b2", "name": "\u6e56\u5b50\u5167\u516c\u5712", "latitude": 23.45454, "longitude": 120.4471, "timestamp": "2025-04-17T03:06:55.767417Z", "free_bikes": 3, "empty_slots": 17, "extra": {"uid": "501001170", "district": "\u5e02\u5340", "address": "\u6e56\u7f8e\u4e00\u8def/\u74b0\u6e56\u8def(\u6771\u5357\u5074)", "slots": 20, "normal_bikes": 3, "ebikes": 0, "last_updated": "2025-04-17 06:05:23", "online": true, "youbike_version": 2, "en": {"name": "Huzinei Park", "district": "city", "address": "Humei 1st Rd. & Huanhu Rd. Intersection (Southeast)"}}}, {"id": "cfcc93668ccb809f981b25abf834adc2", "name": "\u5609\u7fa9\u57fa\u7763\u6559\u91ab\u9662\u4fdd\u5065\u5927\u6a13", "latitude": 23.50037, "longitude": 120.45094, "timestamp": "2025-04-17T03:06:55.766869Z", "free_bikes": 13, "empty_slots": 12, "extra": {"uid": "501001096", "district": "\u5e02\u5340", "address": "\u4fdd\u5efa\u8857100\u865f\u5357\u5074", "slots": 25, "normal_bikes": 13, "ebikes": 0, "last_updated": "2025-04-17 10:04:18", "online": true, "youbike_version": 2, "en": {"name": "Chiayi Christian Hospital Baojian Building", "district": "city", "address": "No. 100, Baojian St., East Dist."}}}, {"id": "d0670a0d60f056fffb6259377ae6681e", "name": "\u5927\u96c5\u96c5\u7af9\u8def\u53e3", "latitude": 23.477179, "longitude": 120.475248, "timestamp": "2025-04-17T03:06:55.767080Z", "free_bikes": 6, "empty_slots": 7, "extra": {"uid": "501001126", "district": "\u5e02\u5340", "address": "\u5927\u96c5\u8def\u4e8c\u6bb5350\u865f(\u6771\u5357\u5074)", "slots": 13, "normal_bikes": 3, "ebikes": 3, "last_updated": "2025-04-17 08:30:24", "online": true, "youbike_version": 2, "en": {"name": "Daya,Yazhu Rd.Intersection", "district": "city", "address": "No. 350, Sec. 2, Daya Rd., East Dist., Chiayi City(Southeast)"}}}, {"id": "d193a8c292454ed945e9230482e0ee6d", "name": "\u4e2d\u8208\u5317\u6e2f\u8def\u53e3", "latitude": 23.47968, "longitude": 120.42957, "timestamp": "2025-04-17T03:06:55.766785Z", "free_bikes": 7, "empty_slots": 10, "extra": {"uid": "501001085", "district": "\u5e02\u5340", "address": "\u4e2d\u8208\u8def465\u865f", "slots": 17, "normal_bikes": 6, "ebikes": 1, "last_updated": "2025-04-17 09:10:24", "online": true, "youbike_version": 2, "en": {"name": "Zhongxing & Beigang Rd. Intersection", "district": "city", "address": "No. 465, Zhongxing Rd., West Dist."}}}, {"id": "d21e38efa89f6d866a12714f240e2168", "name": "\u7fa9\u6559\u91cc\u53e3\u888b\u516c\u5712", "latitude": 23.49929, "longitude": 120.45222, "timestamp": "2025-04-17T03:06:55.767608Z", "free_bikes": 1, "empty_slots": 12, "extra": {"uid": "501001210", "district": "\u5e02\u5340", "address": "\u7fa9\u6559\u8857/\u4fdd\u5065\u8857151\u5df7\u53e3(\u897f\u5357\u5074)", "slots": 13, "normal_bikes": 1, "ebikes": 0, "last_updated": "2025-04-17 10:22:17", "online": true, "youbike_version": 2, "en": {"name": "Yijiao Village Pocket Park", "district": "city", "address": "Yijiao St. / Ln. 151, Baojian St.Intersection (Southwest)"}}}, {"id": "d3bed7f374f267e495c72fa01ff81288", "name": "\u5609\u7fa9\u5927\u5b78\u884c\u653f\u4e2d\u5fc3(\u96fb\u7269\u4e00\u9928)", "latitude": 23.46779, "longitude": 120.48394, "timestamp": "2025-04-17T03:06:55.767003Z", "free_bikes": 14, "empty_slots": 8, "extra": {"uid": "501001114", "district": "\u5e02\u5340", "address": "\u5b78\u5e9c\u8def300\u865f(\u96fb\u7269\u4e00\u9928)", "slots": 22, "normal_bikes": 13, "ebikes": 1, "last_updated": "2025-04-17 10:20:23", "online": true, "youbike_version": 2, "en": {"name": "National Chiayi University(Adminitration Building)", "district": "city", "address": "No. 300, Xuefu Rd., East Dist.(Electrophysics Hall I)"}}}, {"id": "d702b8137dc95b42bd6e40e38d91a401", "name": "\u6e2f\u576a\u904b\u52d5\u516c\u5712(\u5927\u540c\u8def)", "latitude": 23.47603, "longitude": 120.42216, "timestamp": "2025-04-17T03:06:55.766558Z", "free_bikes": 18, "empty_slots": 0, "extra": {"uid": "501001040", "district": "\u5e02\u5340", "address": "\u5927\u540c\u8def491\u865f\u5317\u5074", "slots": 18, "normal_bikes": 18, "ebikes": 0, "last_updated": "2025-04-17 10:18:18", "online": true, "youbike_version": 2, "en": {"name": "Gangping Sports Park (Datong Rd.)", "district": "city", "address": "No. 491, Datong Rd. (North)"}}}, {"id": "d87f44c8dcbfd5c3d0f015816eb14a4d", "name": "\u6c11\u751f\u516c\u5712(\u8208\u696d\u897f\u8def)", "latitude": 23.46836, "longitude": 120.44647, "timestamp": "2025-04-17T03:06:55.766715Z", "free_bikes": 0, "empty_slots": 0, "extra": {"uid": "501001071", "district": "\u5e02\u5340", "address": "\u6c11\u751f\u5357\u8def188\u865f\u6771\u5074", "slots": 15, "normal_bikes": 0, "ebikes": 0, "last_updated": "2025-04-07 08:04:19", "online": false, "youbike_version": 2, "en": {"name": "Minsheng Park (Xingye W. Rd.)", "district": "city", "address": "No. 188, Minsheng S. Rd. (East)"}}}, {"id": "d9f8d129ebb8371f42258e8c06cd8b0a", "name": "\u5eb7\u6a02\u4ec1\u611b\u8def\u53e3", "latitude": 23.47431, "longitude": 120.442506, "timestamp": "2025-04-17T03:06:55.767108Z", "free_bikes": 6, "empty_slots": 8, "extra": {"uid": "501001130", "district": "\u5e02\u5340", "address": "\u5eb7\u6a02\u8857/\u4ec1\u611b\u8def\u53e3(\u6771\u5317\u5074)", "slots": 14, "normal_bikes": 5, "ebikes": 1, "last_updated": "2025-04-17 08:20:25", "online": true, "youbike_version": 2, "en": {"name": "Kangle Renai Rd. Intersection", "district": "city", "address": "Kangle St./Renai Rd.(Northeast)"}}}, {"id": "db1ce801d5502254c83c6f0b725f67ae", "name": "228\u570b\u5bb6\u7d00\u5ff5\u516c\u5712(\u81ea\u5f37\u8857)", "latitude": 23.464925, "longitude": 120.414697, "timestamp": "2025-04-17T03:06:55.766463Z", "free_bikes": 12, "empty_slots": 2, "extra": {"uid": "501001023", "district": "\u5e02\u5340", "address": "\u81ea\u5f37\u5927\u5bcc\u8def\u53e3\u897f\u5074", "slots": 14, "normal_bikes": 10, "ebikes": 2, "last_updated": "2025-04-16 18:04:17", "online": true, "youbike_version": 2, "en": {"name": "228 National Memorial Park (Ziqiang St.)", "district": "city", "address": "Ziqiang & Dafu Rd. Intersection (West)"}}}, {"id": "dbf8b03e13d0bccd01acaf0e040b61e7", "name": "\u4e2d\u592e\u5ee3\u5834(\u5317\u69ae\u8857\u53e3)", "latitude": 23.481109, "longitude": 120.449457, "timestamp": "2025-04-17T03:06:55.766469Z", "free_bikes": 6, "empty_slots": 34, "extra": {"uid": "501001024", "district": "\u5e02\u5340", "address": "\u5317\u69ae\u885797\u865f\u5317\u5074", "slots": 40, "normal_bikes": 6, "ebikes": 0, "last_updated": "2025-04-17 06:29:18", "online": true, "youbike_version": 2, "en": {"name": "Central Plaza (Beirong St.)", "district": "city", "address": "No. 97, Beirong St. Intersection (West)"}}}, {"id": "dcdab1a378d6e48e0c97c47bfdfae584", "name": "\u7389\u5c71\u90f5\u5c40(\u53cb\u5fe0\u8def)", "latitude": 23.471917, "longitude": 120.428923, "timestamp": "2025-04-17T03:06:55.766563Z", "free_bikes": 7, "empty_slots": 10, "extra": {"uid": "501001041", "district": "\u5e02\u5340", "address": "\u4e2d\u8208\u8def672\u865f\u6771\u5357\u5074", "slots": 17, "normal_bikes": 7, "ebikes": 0, "last_updated": "2025-04-17 09:20:24", "online": true, "youbike_version": 2, "en": {"name": "Chiayi Yushan Post Office (Youzhong Rd.)", "district": "city", "address": "No. 672, Zhongxing Rd. (Southeast)"}}}, {"id": "ddebc68e040a41007a0e47e0eb858e14", "name": "\u5609\u7fa9\u5927\u5b78\u8fb2\u696d\u79d1\u5b78\u9928", "latitude": 23.47226, "longitude": 120.48489, "timestamp": "2025-04-17T03:06:55.767508Z", "free_bikes": 8, "empty_slots": 12, "extra": {"uid": "501001187", "district": "\u5e02\u5340", "address": "\u5b78\u5e9c\u8def300\u865f(\u8fb2\u696d\u79d1\u5b78\u9928)", "slots": 20, "normal_bikes": 8, "ebikes": 0, "last_updated": "2025-04-17 10:20:24", "online": true, "youbike_version": 2, "en": {"name": "National Chiayi University (Bioagricultural Science Hall)", "district": "city", "address": "No. 300, Xuefu Rd., East Dist. (Bioagricultural Science Hall)"}}}, {"id": "e1639ef3884f9650b99e5937392a73d4", "name": "\u5357\u8208\u516c\u5712", "latitude": 23.466283, "longitude": 120.4572558, "timestamp": "2025-04-17T03:06:55.766818Z", "free_bikes": 1, "empty_slots": 14, "extra": {"uid": "501001090", "district": "\u5e02\u5340", "address": "\u5357\u8208\u8def186\u865f\u5357\u5074", "slots": 15, "normal_bikes": 1, "ebikes": 0, "last_updated": "2025-04-16 18:39:18", "online": true, "youbike_version": 2, "en": {"name": "Nanxing Park", "district": "city", "address": "No. 186, Nanxing Rd., East Dist."}}}, {"id": "e1d37903c6eeeab0a16c00e27a2a162a", "name": "\u91cd\u6176\u5357\u4eac\u8def\u53e3", "latitude": 23.46555, "longitude": 120.43622, "timestamp": "2025-04-17T03:06:55.766698Z", "free_bikes": 6, "empty_slots": 12, "extra": {"uid": "501001068", "district": "\u5e02\u5340", "address": "\u5357\u4eac\u8def462\u865f\u5357\u5074", "slots": 18, "normal_bikes": 5, "ebikes": 1, "last_updated": "2025-04-17 05:59:18", "online": true, "youbike_version": 2, "en": {"name": "Chongqing & Nanjing Rd. Intersection", "district": "city", "address": "No. 462, Nanjing Rd. (South)"}}}, {"id": "e2846b6b654355af55c162c0b7104733", "name": "\u65b0\u6c11\u6c38\u5b89\u8857\u53e3", "latitude": 23.470031, "longitude": 120.439957, "timestamp": "2025-04-17T03:06:55.767126Z", "free_bikes": 8, "empty_slots": 5, "extra": {"uid": "501001132", "district": "\u5e02\u5340", "address": "\u65b0\u6c11\u8def/\u6c38\u5b89\u8857\u53e3(\u5169\u5074)", "slots": 13, "normal_bikes": 7, "ebikes": 1, "last_updated": "2025-04-17 10:50:25", "online": true, "youbike_version": 2, "en": {"name": "Xinmin Yong'an St. Intersection", "district": "city", "address": "Xinmin Rd./ Yong'an St.(Both sides)"}}}, {"id": "e2aade1ae2c39dde6d454eb099cef3c7", "name": "\u4e2d\u6b63\u516c\u5712", "latitude": 23.482, "longitude": 120.447994, "timestamp": "2025-04-17T03:06:55.767052Z", "free_bikes": 4, "empty_slots": 19, "extra": {"uid": "501001122", "district": "\u5e02\u5340", "address": "\u6c11\u6b0a\u8def/\u570b\u83ef\u8857\u53e3(\u5169\u5074)", "slots": 24, "normal_bikes": 4, "ebikes": 0, "last_updated": "2025-04-17 08:30:24", "online": true, "youbike_version": 2, "en": {"name": "Chung Cheng Park", "district": "city", "address": "Minquan Rd./Guohua St.(Both sides)"}}}, {"id": "e327cdbb10defbe29e5608bd49aa2cb6", "name": "\u9716\u5712\u9577\u9752\u516c\u5712", "latitude": 23.4745738, "longitude": 120.461545, "timestamp": "2025-04-17T03:06:55.766687Z", "free_bikes": 2, "empty_slots": 15, "extra": {"uid": "501001066", "district": "\u5e02\u5340", "address": "\u9ad4\u80b2\u8def89\u865f", "slots": 17, "normal_bikes": 2, "ebikes": 0, "last_updated": "2025-04-17 08:10:24", "online": true, "youbike_version": 2, "en": {"name": "Linyuanchangcing Park", "district": "city", "address": "No. 89, Tiyu Rd."}}}, {"id": "e43c99f44f685090fdc4d13ac2956018", "name": "\u6c11\u751f\u5357\u5357\u4eac\u8def\u53e3", "latitude": 23.45574, "longitude": 120.44334, "timestamp": "2025-04-17T03:06:55.767358Z", "free_bikes": 2, "empty_slots": 9, "extra": {"uid": "501001161", "district": "\u5e02\u5340", "address": "\u6c11\u751f\u5357\u8def/\u5357\u4eac\u8def\u53e3(\u897f\u5357\u5074)", "slots": 11, "normal_bikes": 2, "ebikes": 0, "last_updated": "2025-04-17 09:59:17", "online": true, "youbike_version": 2, "en": {"name": "Minsheng S. Nanjing Rd. Intersection", "district": "city", "address": "Minsheng S. Rd. & Nanjing Rd. Intersection (Southwest)"}}}, {"id": "e47318af9de17c1fbae93f926554506e", "name": "\u5065\u5eb7\u4e5d\u6e56\u7f8e\u5341\u8def\u53e3", "latitude": 23.45065, "longitude": 120.43617, "timestamp": "2025-04-17T03:06:55.767573Z", "free_bikes": 5, "empty_slots": 15, "extra": {"uid": "501001202", "district": "\u5e02\u5340", "address": "\u5065\u5eb7\u4e5d\u8def/\u6e56\u7f8e\u5341\u8def\u53e3(\u897f\u5357\u5074)", "slots": 20, "normal_bikes": 5, "ebikes": 0, "last_updated": "2025-04-17 01:43:18", "online": true, "youbike_version": 2, "en": {"name": "Jiankang 9th Rd.& Humei 10th Rd. Intersection", "district": "city", "address": "Jiankang 9th Rd. / Humei 10th Rd. Intersection (Southwest)"}}}, {"id": "e4fea042b0ba7a80f55c0f93094f0570", "name": "\u65b0\u5149\u4e09\u8d8a\u9060\u6771\u7ad9", "latitude": 23.4732456, "longitude": 120.4421274, "timestamp": "2025-04-17T03:06:55.766522Z", "free_bikes": 13, "empty_slots": 6, "extra": {"uid": "501001033", "district": "\u5e02\u5340", "address": "\u5782\u694a\u8def704\u865f", "slots": 19, "normal_bikes": 13, "ebikes": 0, "last_updated": "2025-04-17 10:10:23", "online": true, "youbike_version": 2, "en": {"name": "ShinKong MitsuKoshi - Far Eastern Station", "district": "city", "address": "No. 704, Chuiyang Rd."}}}, {"id": "e54368b2219ea48b9b0d14ca85670caf", "name": "\u5b89\u5fc3\u91ab\u9662", "latitude": 23.453, "longitude": 120.43357, "timestamp": "2025-04-17T03:06:55.767404Z", "free_bikes": 4, "empty_slots": 11, "extra": {"uid": "501001168", "district": "\u5e02\u5340", "address": "\u65b0\u6c11\u8def88\u865f", "slots": 15, "normal_bikes": 4, "ebikes": 0, "last_updated": "2025-04-17 06:31:19", "online": true, "youbike_version": 2, "en": {"name": "An Hsin Hospital", "district": "city", "address": "No. 88, Xinmin Rd."}}}, {"id": "e58280738e162b4a6ece0e679713f16d", "name": "\u6797\u68ee\u897f\u6587\u5316\u8def\u53e3", "latitude": 23.48454, "longitude": 120.44918, "timestamp": "2025-04-17T03:06:55.766906Z", "free_bikes": 11, "empty_slots": 5, "extra": {"uid": "501001100", "district": "\u5e02\u5340", "address": "\u6771\u5340\u6797\u68ee\u897f\u8def101\u865f\u5317\u5074", "slots": 16, "normal_bikes": 11, "ebikes": 0, "last_updated": "2025-04-17 10:10:23", "online": true, "youbike_version": 2, "en": {"name": "Linsen W. & Wenhua Rd. Intersection", "district": "city", "address": "No. 101, Linsen W. Rd., East Dist."}}}, {"id": "e7643b86ce2df5918a39027d72228057", "name": "\u7389\u5c71\u570b\u4e2d(\u53cb\u5fe0\u8def)", "latitude": 23.46858, "longitude": 120.42598, "timestamp": "2025-04-17T03:06:55.766803Z", "free_bikes": 11, "empty_slots": 7, "extra": {"uid": "501001088", "district": "\u5e02\u5340", "address": "\u53cb\u5fe0\u8def1\u865f", "slots": 18, "normal_bikes": 11, "ebikes": 0, "last_updated": "2025-04-17 07:40:26", "online": true, "youbike_version": 2, "en": {"name": "Yu-shan Public Junior High School(Youzhong Rd.)", "district": "city", "address": "No. 1, Youzhong Rd., West Dist."}}}, {"id": "e9340dd0c83b3b9ac3ac4a6876f493f0", "name": "\u862d\u6f6d\u97f3\u6a02\u5674\u6cc9(\u5609\u5927\u5bbf\u820d\u5074\u9580)", "latitude": 23.465465, "longitude": 120.480728, "timestamp": "2025-04-17T03:06:55.766616Z", "free_bikes": 1, "empty_slots": 38, "extra": {"uid": "501001054", "district": "\u5e02\u5340", "address": "\u7d05\u6bdb\u57e4187-4\u865f(\u5ee3\u5834)", "slots": 39, "normal_bikes": 0, "ebikes": 1, "last_updated": "2025-04-17 10:22:17", "online": true, "youbike_version": 2, "en": {"name": "Lantan Musical Fountain(National Chiayi University Dorm)", "district": "city", "address": "No. 187-4, Hongmaopi"}}}, {"id": "e9f172a57ab195565317b8ba67f903ab", "name": "\u4ec1\u611b\u8def\u5ef6\u5e73\u8857\u53e3", "latitude": 23.4762, "longitude": 120.44204, "timestamp": "2025-04-17T03:06:55.767502Z", "free_bikes": 3, "empty_slots": 11, "extra": {"uid": "501001186", "district": "\u5e02\u5340", "address": "\u4ec1\u611b\u8def/\u5ef6\u5e73\u8857\u53e3(\u897f\u5357\u5074)", "slots": 14, "normal_bikes": 3, "ebikes": 0, "last_updated": "2025-04-17 08:10:25", "online": true, "youbike_version": 2, "en": {"name": "Ren'ai Rd. & Yanping St.Intersection", "district": "city", "address": "Ren'ai Rd. & Yanping St.Intersection (Southwest)"}}}, {"id": "eaf1c53c81c70123acfb18dba534657e", "name": "\u5ba3\u4fe1\u570b\u5c0f(\u8208\u696d\u6771\u8def)", "latitude": 23.469889, "longitude": 120.45954, "timestamp": "2025-04-17T03:06:55.767226Z", "free_bikes": 27, "empty_slots": 8, "extra": {"uid": "501001145", "district": "\u5e02\u5340", "address": "\u8208\u696d\u6771\u8def236\u865f(\u5c0d\u5074\u4eba\u884c\u9053)", "slots": 35, "normal_bikes": 21, "ebikes": 6, "last_updated": "2025-04-17 10:04:18", "online": true, "youbike_version": 2, "en": {"name": "Shiuan-Shin Elementary School(Xingye E Rd.)", "district": "city", "address": "No. 236, Xingye E Rd.(Opposite sidewalk)"}}}, {"id": "ecda6b9bad5d59d76660635963acfe8e", "name": "\u50d1\u5e73\u570b\u5c0f(\u5fb7\u660e\u8def\u53e3)", "latitude": 23.48398, "longitude": 120.43173, "timestamp": "2025-04-17T03:06:55.766605Z", "free_bikes": 11, "empty_slots": 6, "extra": {"uid": "501001050", "district": "\u5e02\u5340", "address": "\u5fb7\u5b89\u8def10\u865f", "slots": 17, "normal_bikes": 11, "ebikes": 0, "last_updated": "2025-04-17 09:30:24", "online": true, "youbike_version": 2, "en": {"name": "Qiaoping Elementary School (Deming Rd. Intersection)", "district": "city", "address": "No. 10, De'an Rd."}}}, {"id": "ed2ec844fd3c2908e988d3657785ae0f", "name": "\u56db\u7dad\u8def\u50d1\u5609\u4e8c\u8857\u53e3", "latitude": 23.4808, "longitude": 120.42629, "timestamp": "2025-04-17T03:06:55.767496Z", "free_bikes": 3, "empty_slots": 13, "extra": {"uid": "501001185", "district": "\u5e02\u5340", "address": "\u56db\u7dad\u8def/\u50d1\u5609\u4e8c\u8857\u53e3(\u6771\u5357\u5074)", "slots": 16, "normal_bikes": 3, "ebikes": 0, "last_updated": "2025-04-16 10:28:18", "online": true, "youbike_version": 2, "en": {"name": "Siwei Rd. & Qiaojia 2nd St.Intersection", "district": "city", "address": "Siwei Rd. & Qiaojia 2nd St.Intersection (Southeast)"}}}, {"id": "ed33af476da66e0c927431ae9267668d", "name": "\u4fdd\u7fa9\u8def\u5fe0\u5b5d\u4e8c\u8857\u53e3", "latitude": 23.50383, "longitude": 120.45295, "timestamp": "2025-04-17T03:06:55.767521Z", "free_bikes": 7, "empty_slots": 8, "extra": {"uid": "501001191", "district": "\u5e02\u5340", "address": "\u4fdd\u7fa9\u8def/\u5fe0\u5b5d\u4e8c\u8857(\u897f\u5317\u5074)", "slots": 15, "normal_bikes": 7, "ebikes": 0, "last_updated": "2025-04-17 09:02:19", "online": true, "youbike_version": 2, "en": {"name": "Baoyi Rd. & Zhongxiao 2nd St.Intersection", "district": "city", "address": "Baoyi Rd. & Zhongxiao 2nd St.Intersection (Northwest)"}}}, {"id": "ed6408408b0ec606f68ab0926d0cb133", "name": "\u81ea\u7531\u53cb\u611b\u7ad9", "latitude": 23.48931, "longitude": 120.4361, "timestamp": "2025-04-17T03:06:55.766433Z", "free_bikes": 2, "empty_slots": 13, "extra": {"uid": "501001018", "district": "\u5e02\u5340", "address": "\u81ea\u7531\u8def298\u865f", "slots": 15, "normal_bikes": 2, "ebikes": 0, "last_updated": "2025-04-17 08:26:18", "online": true, "youbike_version": 2, "en": {"name": "Ziyou Youai Sta.", "district": "city", "address": "No. 298, Ziyou Rd."}}}, {"id": "ee110ee319d45cb7bd77ddb6644489d7", "name": "\u756a\u4ed4\u6e9d\u516c\u5712", "latitude": 23.47436, "longitude": 120.43458, "timestamp": "2025-04-17T03:06:55.766734Z", "free_bikes": 5, "empty_slots": 10, "extra": {"uid": "501001074", "district": "\u5e02\u5340", "address": "\u4fe1\u7fa9\u8def49\u865f\u6771\u5357\u5074", "slots": 15, "normal_bikes": 4, "ebikes": 1, "last_updated": "2025-04-17 09:20:24", "online": true, "youbike_version": 2, "en": {"name": "Fanzigou Park", "district": "city", "address": "No. 49, Xinyi Rd. (Southeast)"}}}, {"id": "ef2c08110d4f8d80061be73238b44e3f", "name": "\u6e56\u5167\u5152\u7ae5\u516c\u5712", "latitude": 23.45527, "longitude": 120.44174, "timestamp": "2025-04-17T03:06:55.767584Z", "free_bikes": 6, "empty_slots": 12, "extra": {"uid": "501001206", "district": "\u5e02\u5340", "address": "\u5357\u4eac\u8def15\u5df7/\u6c11\u751f\u5357\u8def818\u5df7\u53e3(\u6771\u5317\u5074)", "slots": 18, "normal_bikes": 5, "ebikes": 1, "last_updated": "2025-04-16 15:40:24", "online": true, "youbike_version": 2, "en": {"name": "Hunei Children Park", "district": "city", "address": "Ln. 15, Nanjing Rd. & Ln. 818, Minsheng S. Rd. Intersection (Northeast)"}}}, {"id": "f1e345e35228d7f1a14788314e80a26b", "name": "\u516b\u5fb7\u7af9\u570d\u8def\u53e3", "latitude": 23.4864, "longitude": 120.43068, "timestamp": "2025-04-17T03:06:55.767441Z", "free_bikes": 13, "empty_slots": 1, "extra": {"uid": "501001174", "district": "\u5e02\u5340", "address": "\u516b\u5fb7\u8def/\u7af9\u570d\u8def\u53e3(\u6771\u5357\u5074)", "slots": 14, "normal_bikes": 8, "ebikes": 5, "last_updated": "2025-04-16 18:44:18", "online": true, "youbike_version": 2, "en": {"name": "Bade Zhuwei Rd.", "district": "city", "address": "Bade Rd. & Zhuwei Rd. Intersection (Southeast)"}}}, {"id": "f32b0caeedc7dabfd82f435322ab04df", "name": "\u6a9c\u610f\u68ee\u6d3b\u6751(\u5fe0\u5b5d\u5317\u9580\u8857\u53e3)", "latitude": 23.484636, "longitude": 120.453731, "timestamp": "2025-04-17T03:06:55.766569Z", "free_bikes": 6, "empty_slots": 12, "extra": {"uid": "501001042", "district": "\u5e02\u5340", "address": "\u5317\u9580\u885721\u865f(\u65c1)", "slots": 18, "normal_bikes": 6, "ebikes": 0, "last_updated": "2025-04-17 06:29:18", "online": true, "youbike_version": 2, "en": {"name": "Hinoki Village (Zhongxiao & Beimen St. Intersection)", "district": "city", "address": "No. 21, Beimen St."}}}, {"id": "f383b324e0de29a92aeefe0c7a5cea8f", "name": "\u5609\u7fa9\u5bb6\u8077", "latitude": 23.47133, "longitude": 120.45854, "timestamp": "2025-04-17T03:06:55.766481Z", "free_bikes": 28, "empty_slots": 6, "extra": {"uid": "501001026", "district": "\u5e02\u5340", "address": "\u9ad4\u80b2\u8def7\u865f\u5357\u5074", "slots": 34, "normal_bikes": 24, "ebikes": 4, "last_updated": "2025-04-17 10:50:25", "online": true, "youbike_version": 2, "en": {"name": "National Chiayi Economics Vocational High School", "district": "city", "address": "No. 7, Tiyu Rd. (South)"}}}, {"id": "f39de390e394530c3ca83b14d4fbda8e", "name": "\u5357\u4eac\u6f22\u53e3\u8def\u53e3", "latitude": 23.46384, "longitude": 120.43637, "timestamp": "2025-04-17T03:06:55.767578Z", "free_bikes": 7, "empty_slots": 11, "extra": {"uid": "501001204", "district": "\u5e02\u5340", "address": "\u5357\u4eac\u8def/\u6f22\u53e3\u8def\u53e3(\u6771\u5357\u5074)", "slots": 18, "normal_bikes": 7, "ebikes": 0, "last_updated": "2025-04-16 07:30:26", "online": true, "youbike_version": 2, "en": {"name": "Nanjing Rd. & Hankou Rd. Intersection", "district": "city", "address": "Nanjing Rd. & Hankou Rd. Intersection (Southeast)"}}}, {"id": "f39e81aed7fa522fd717be3586618fbb", "name": "\u4e16\u8ce2\u5fe0\u5b5d\u8def\u53e3", "latitude": 23.495546, "longitude": 120.45138, "timestamp": "2025-04-17T03:06:55.767027Z", "free_bikes": 1, "empty_slots": 14, "extra": {"uid": "501001118", "district": "\u5e02\u5340", "address": "\u5fe0\u5b5d\u8def491\u865f(\u5317\u5074\u4eba\u884c\u9053)", "slots": 15, "normal_bikes": 1, "ebikes": 0, "last_updated": "2025-04-17 08:18:18", "online": true, "youbike_version": 2, "en": {"name": "Shixian Zhongxiao Rd.Intersection", "district": "city", "address": "No. 491, Zhongxiao Rd.(North sidewalk)"}}}, {"id": "f4e8bd5076e26cb69462c877c058bbc7", "name": "\u5609\u7fa9\u5927\u5b78\u5609\u79be\u9928(\u9ad4\u80b2\u9928)", "latitude": 23.46633, "longitude": 120.48391, "timestamp": "2025-04-17T03:06:55.766997Z", "free_bikes": 7, "empty_slots": 3, "extra": {"uid": "501001113", "district": "\u5e02\u5340", "address": "\u5b78\u5e9c\u8def300\u865f(\u5609\u79be\u9928(\u9ad4\u80b2\u9928))", "slots": 10, "normal_bikes": 5, "ebikes": 2, "last_updated": "2025-04-17 10:08:17", "online": true, "youbike_version": 2, "en": {"name": "National Chiayi University(Gymnasiun)", "district": "city", "address": "No. 300, Xuefu Rd., East Dist.(Gymnasiun)"}}}, {"id": "f5aa8e112b304d43c52cb963b0ce2cdb", "name": "\u5c0f\u96c5\u5927\u96c5\u8def\u53e3", "latitude": 23.47765, "longitude": 120.46978, "timestamp": "2025-04-17T03:06:55.767615Z", "free_bikes": 3, "empty_slots": 13, "extra": {"uid": "501001211", "district": "\u5e02\u5340", "address": "\u5c0f\u96c5\u8def/\u5927\u96c5\u8def\u4e8c\u6bb5\u53e3(\u897f\u5357\u5074)", "slots": 16, "normal_bikes": 3, "ebikes": 0, "last_updated": "2025-04-17 08:30:25", "online": true, "youbike_version": 2, "en": {"name": "Xiaoya Rd. & Sec. 2, Daya Rd. Intersection", "district": "city", "address": "Xiaoya Rd. & Sec. 2, Daya Rd. Intersection (Southwest)"}}}, {"id": "f7266d17d5155700aecc8e8bea307e40", "name": "\u5609\u7fa9\u91ab\u9662(\u4e2d\u8208\u8def)", "latitude": 23.48091, "longitude": 120.43012, "timestamp": "2025-04-17T03:06:55.766421Z", "free_bikes": 8, "empty_slots": 12, "extra": {"uid": "501001016", "district": "\u5e02\u5340", "address": "\u5317\u6e2f\u8def312\u865f\u6771\u5074", "slots": 20, "normal_bikes": 7, "ebikes": 1, "last_updated": "2025-04-17 07:50:24", "online": true, "youbike_version": 2, "en": {"name": "Chiayi Hospital(Zhongxing Rd.)", "district": "city", "address": "No. 312, Beigang Rd. (East)"}}}, {"id": "f740adfab879b9c7fed779663be5a684", "name": "\u5357\u8208\u570b\u4e2d\u63a2\u7d22\u6559\u80b2\u5712\u5340", "latitude": 23.47149, "longitude": 120.46864, "timestamp": "2025-04-17T03:06:55.766658Z", "free_bikes": 6, "empty_slots": 17, "extra": {"uid": "501001061", "district": "\u5e02\u5340", "address": "\u65e5\u65b0\u8857189\u865f", "slots": 23, "normal_bikes": 5, "ebikes": 1, "last_updated": "2025-04-17 09:20:24", "online": true, "youbike_version": 2, "en": {"name": "Chiayi Municipal Nan-sing Junior High School Sport & Recreation", "district": "city", "address": "No. 189, Rixin St."}}}, {"id": "f9b8892a5cc82312fa56c9a32f313702", "name": "\u5357\u7530\u516c\u5712", "latitude": 23.47076876280309, "longitude": 120.45529934912368, "timestamp": "2025-04-17T03:06:55.767291Z", "free_bikes": 2, "empty_slots": 13, "extra": {"uid": "501001156", "district": "\u5e02\u5340", "address": "\u5433\u9cf3\u5357\u8def85\u5df7(\u5357\u5074)", "slots": 15, "normal_bikes": 2, "ebikes": 0, "last_updated": "2025-04-16 17:04:18", "online": true, "youbike_version": 2, "en": {"name": "Nantian Park", "district": "city", "address": "(South side), Ln. 85, Wufeng S. Rd."}}}, {"id": "f9c62d9ca9cd6dc6759a9235764f056c", "name": "\u516c\u660e\u7dad\u65b0\u8def\u53e3", "latitude": 23.48059, "longitude": 120.458682, "timestamp": "2025-04-17T03:06:55.767099Z", "free_bikes": 22, "empty_slots": 3, "extra": {"uid": "501001129", "district": "\u5e02\u5340", "address": "\u516c\u660e\u8def/\u7dad\u65b0\u8def\u53e3(\u897f\u5317\u5074)", "slots": 25, "normal_bikes": 21, "ebikes": 1, "last_updated": "2025-04-17 09:50:27", "online": true, "youbike_version": 2, "en": {"name": "Gongming Weixin Rd.Intersection", "district": "city", "address": "Gongming Rd./Weixin Rd. (Northwest)"}}}, {"id": "fd687b72094fc85d1066bbb420c078ee", "name": "\u5609\u7fa9\u5e02\u8b70\u6703", "latitude": 23.47918, "longitude": 120.43182, "timestamp": "2025-04-17T03:06:55.766409Z", "free_bikes": 0, "empty_slots": 15, "extra": {"uid": "501001014", "district": "\u5e02\u5340", "address": "\u5317\u6e2f\u8def278\u865f", "slots": 15, "normal_bikes": 0, "ebikes": 0, "last_updated": "2024-11-09 02:09:27", "online": false, "youbike_version": 2, "en": {"name": "Chiayi City Council", "district": "city", "address": "No. 278, Beigang Rd."}}}, {"id": "ff2b4fb9993c972dc93165802d9eb589", "name": "\u5609\u7fa9\u5e02\u8089\u54c1\u5e02\u5834", "latitude": 23.50815, "longitude": 120.43581, "timestamp": "2025-04-17T03:06:55.767385Z", "free_bikes": 5, "empty_slots": 10, "extra": {"uid": "501001165", "district": "\u5e02\u5340", "address": "\u6587\u5316\u8def1091\u865f", "slots": 15, "normal_bikes": 5, "ebikes": 0, "last_updated": "2025-04-14 06:00:23", "online": true, "youbike_version": 2, "en": {"name": "Chiayi City Meat Market", "district": "city", "address": "No. 1091, Wenhua Rd."}}}, {"id": "ff403c77188bdeb2e9f793aaca7a0286", "name": "\u5609\u7fa9\u5e02\u6cb3\u6ff1\u904b\u52d5\u516c\u5712", "latitude": 23.45766, "longitude": 120.46236, "timestamp": "2025-04-17T03:06:55.766842Z", "free_bikes": 12, "empty_slots": 2, "extra": {"uid": "501001093", "district": "\u5e02\u5340", "address": "\u8208\u4ec1\u8857145\u865f\u5317\u5074", "slots": 14, "normal_bikes": 12, "ebikes": 0, "last_updated": "2025-04-16 22:09:18", "online": true, "youbike_version": 2, "en": {"name": "Chiayi City Riverside Park", "district": "city", "address": "No. 145, Xingren St., East Dist."}}}, {"id": "ff59c2e07b56c4832a00055c6945b5c1", "name": "\u5609\u7fa9\u5927\u5b78\u862d\u6f6d\u62db\u5f85\u6240", "latitude": 23.46546, "longitude": 120.48251, "timestamp": "2025-04-17T03:06:55.766991Z", "free_bikes": 4, "empty_slots": 25, "extra": {"uid": "501001112", "district": "\u5e02\u5340", "address": "\u5b78\u5e9c\u8def300\u865f(\u862d\u6f6d\u62db\u5f85\u6240)", "slots": 29, "normal_bikes": 4, "ebikes": 0, "last_updated": "2025-04-17 10:13:18", "online": true, "youbike_version": 2, "en": {"name": "National Chiayi University(Guest House)", "district": "city", "address": "No. 300, Xuefu Rd., East Dist.(Guest House)"}}}, {"id": "ffd2240081850355a3e0feae7ff26807", "name": "\u5609\u7fa9\u5e02\u76e3\u7406\u7ad9", "latitude": 23.50046, "longitude": 120.45356, "timestamp": "2025-04-17T03:06:55.766628Z", "free_bikes": 12, "empty_slots": 7, "extra": {"uid": "501001056", "district": "\u5e02\u5340", "address": "\u4fdd\u5efa\u885789\u865f", "slots": 19, "normal_bikes": 11, "ebikes": 1, "last_updated": "2025-04-17 07:30:24", "online": true, "youbike_version": 2, "en": {"name": "Chiayi Motor Vehicle Chiayi City Station", "district": "city", "address": "No. 89, Baojian St."}}}]}