{"id": "youbike-miaoli-county", "name": "YouBike", "location": {"latitude": 24.5648, "longitude": 120.8185, "city": "\u53f0\u7063 Miaoli County", "country": "TW"}, "href": "/v2/networks/youbike-miaoli-county", "company": ["YouBike Co., Ltd."], "system": "YouBike", "stations": [{"id": "01228d51808c0271c23f382c4b629f0f", "name": "\u82d7\u6817\u7e23\u7acb\u82d1\u88e1\u9ad8\u4e2d\u6821\u672c\u90e8", "latitude": 24.43835, "longitude": 120.66488, "timestamp": "2025-04-17T03:06:55.392351Z", "free_bikes": 2, "empty_slots": 17, "extra": {"uid": "500710009", "district": "\u82d1\u88e1\u93ae", "address": "\u5ba2\u5e84\u91cc1\u91302\u865f", "slots": 19, "normal_bikes": 1, "ebikes": 1, "last_updated": "2025-04-17 08:41:18", "online": true, "youbike_version": 2, "en": {"name": "Miaoli County Yuanli Senior High School", "district": "Yuanli Town", "address": "358, Miaoli County, Yuanli, \u5ba2\u5e84\u91cc1\u91302\u865f"}}}, {"id": "01a967ff32621f30fcaa23df1252fad5", "name": "\u4e09\u7063\u570b\u4e2d", "latitude": 24.64923, "longitude": 120.95404, "timestamp": "2025-04-17T03:06:55.391608Z", "free_bikes": 4, "empty_slots": 16, "extra": {"uid": "500702001", "district": "\u4e09\u7063\u9109", "address": "\u5fe0\u4fe1\u8def17\u865f", "slots": 20, "normal_bikes": 0, "ebikes": 4, "last_updated": "2025-04-12 13:13:17", "online": true, "youbike_version": 2, "en": {"name": "Sanwan Junior High School", "district": "Sanwan Town", "address": "No. 17, Zhongxin Road"}}}, {"id": "04ca9816b7be6c374189b6f0d81a1ea8", "name": "\u5317\u82d7\u5eb7\u5712", "latitude": 24.5716, "longitude": 120.8296, "timestamp": "2025-04-17T03:06:55.392430Z", "free_bikes": 1, "empty_slots": 29, "extra": {"uid": "500711008", "district": "\u82d7\u6817\u5e02", "address": "\u70ba\u516c\u8def236\u865f\u5c0d\u9762\u4eba\u884c\u9053", "slots": 30, "normal_bikes": 0, "ebikes": 1, "last_updated": "2025-04-17 08:51:17", "online": true, "youbike_version": 2, "en": {"name": "Bei Miao Kang Yuan", "district": "Miaoli Town", "address": "No.236, Weigong Rd. (opposite)"}}}, {"id": "05b4057a9947acc8bf5ef872937f4ca6", "name": "\u5efa\u81fa\u4e2d\u5b78", "latitude": 24.56029, "longitude": 120.8152, "timestamp": "2025-04-17T03:06:55.392585Z", "free_bikes": 1, "empty_slots": 38, "extra": {"uid": "500711032", "district": "\u82d7\u6817\u5e02", "address": "\u81f3\u516c\u8def251\u865f", "slots": 39, "normal_bikes": 1, "ebikes": 0, "last_updated": "2025-04-17 05:44:22", "online": true, "youbike_version": 2, "en": {"name": "Jiantaigaoji High School", "district": "Miaoli Town", "address": "No.251 Zhigong Rd"}}}, {"id": "07a1b1b550b428155b3d60f2bbf15ffd", "name": "\u5ee3\u505c\u4e09\u505c\u8eca\u5834", "latitude": 24.6975, "longitude": 120.90231, "timestamp": "2025-04-17T03:06:55.392851Z", "free_bikes": 5, "empty_slots": 20, "extra": {"uid": "500717022", "district": "\u982d\u4efd\u5e02", "address": "\u4fe1\u6771\u8def\u4e8c\u6bb5106\u865f", "slots": 25, "normal_bikes": 5, "ebikes": 0, "last_updated": "2025-04-16 16:30:26", "online": true, "youbike_version": 2, "en": {"name": "Guang Ting San Parking", "district": "Toufen Town", "address": "NO.106, Section 2, Xindong Rd"}}}, {"id": "07ccea3a078bfa59a5ed7d61217bc55a", "name": "\u5929\u6587\u91cc(\u5c71\u4f73\u570b\u5c0f\u5206\u6821)", "latitude": 24.6985, "longitude": 120.87081, "timestamp": "2025-04-17T03:06:55.391974Z", "free_bikes": 9, "empty_slots": 16, "extra": {"uid": "500705016", "district": "\u7af9\u5357\u93ae", "address": "\u9f8d\u5c71\u8def\u4e8c\u6bb5178\u865f(\u5c0d\u5074)", "slots": 25, "normal_bikes": 9, "ebikes": 0, "last_updated": "2025-04-17 09:10:25", "online": true, "youbike_version": 2, "en": {"name": "Tianwenli Vil.(Shanjia Elementary School)", "district": "Zhunan Town", "address": "No. 178, Section 2, Longshan Rd"}}}, {"id": "0a1b7fa5796ff800ab26af7fae36c99e", "name": "\u7d05\u68d7\u98df\u5e9c", "latitude": 24.4754, "longitude": 120.82962, "timestamp": "2025-04-17T03:06:55.391650Z", "free_bikes": 4, "empty_slots": 16, "extra": {"uid": "500704006", "district": "\u516c\u9928\u9109", "address": "\u798f\u57fa\u6751\u4e09\u913045\u865f", "slots": 20, "normal_bikes": 2, "ebikes": 2, "last_updated": "2025-04-08 20:32:19", "online": true, "youbike_version": 2, "en": {"name": "Red date restaurant", "district": "Gongguan Town", "address": "No. 12, Fuji, Gongguan Township"}}}, {"id": "0ab016fa30abc7a94630bc4d2865f0c9", "name": "\u6148\u548c\u5bae", "latitude": 24.44709, "longitude": 120.65471, "timestamp": "2025-04-17T03:06:55.392346Z", "free_bikes": 13, "empty_slots": 11, "extra": {"uid": "500710008", "district": "\u82d1\u88e1\u93ae", "address": "\u4e2d\u5c71\u8def312\u865f(\u897f\u5357\u5074)", "slots": 24, "normal_bikes": 1, "ebikes": 12, "last_updated": "2025-04-17 09:30:25", "online": true, "youbike_version": 2, "en": {"name": "Cihe Palace in Yuanli", "district": "Yuanli Town", "address": "No. 305\u865f, Zhongshan Rd"}}}, {"id": "0b9c5a505301e65f16d8695b11f724a8", "name": "\u6587\u8056\u6587\u5c71\u6d3b\u52d5\u4e2d\u5fc3", "latitude": 24.57207, "longitude": 120.81272, "timestamp": "2025-04-17T03:06:55.392602Z", "free_bikes": 10, "empty_slots": 15, "extra": {"uid": "500711035", "district": "\u82d7\u6817\u5e02", "address": "\u6587\u5c71\u91cc\u6587\u5c71117\u865f", "slots": 25, "normal_bikes": 6, "ebikes": 4, "last_updated": "2025-04-17 08:20:25", "online": true, "youbike_version": 2, "en": {"name": "Wen Sheng Wen Shan Activity Center", "district": "Miaoli Town", "address": "No. 117, Wenshan, Wenshan"}}}, {"id": "0eee48178c4a80146ce622682d851b00", "name": "\u52dd\u8208\u8eca\u7ad9\u5357\u54e8", "latitude": 24.38403, "longitude": 120.78411, "timestamp": "2025-04-17T03:06:55.391578Z", "free_bikes": 10, "empty_slots": 6, "extra": {"uid": "500701009", "district": "\u4e09\u7fa9\u9109", "address": "\u82d749(\u52dd\u8208\u8eca\u7ad9\u5357\u7aef\u8def\u908a\u505c\u8eca\u5834)", "slots": 16, "normal_bikes": 10, "ebikes": 0, "last_updated": "2025-04-08 16:24:22", "online": true, "youbike_version": 2, "en": {"name": "Shenghsing Station(South)", "district": "Sanyi Town", "address": "ML49(Shenghsing Station Parking Lot(South))"}}}, {"id": "0f57e2dc0e709cc24c439cb2bde261e5", "name": "\u9f8d\u9cf3\u6f01\u6e2f", "latitude": 24.70028, "longitude": 120.85963, "timestamp": "2025-04-17T03:06:55.391667Z", "free_bikes": 3, "empty_slots": 37, "extra": {"uid": "500705001", "district": "\u7af9\u5357\u93ae", "address": "\u9f8d\u6c5f\u8857/\u9f8d\u6c5f\u8857359\u5df7\u53e3(\u6771\u5357\u5074)", "slots": 40, "normal_bikes": 3, "ebikes": 0, "last_updated": "2025-04-16 16:10:24", "online": true, "youbike_version": 2, "en": {"name": "Long Fong Fishing Port", "district": "Zhunan Town", "address": "Longjiang St. & Ln. 359, Longjiang St. Intersection (Southeast)"}}}, {"id": "10540b930dac479c6bcb84afed782f98", "name": "\u82d7\u6817\u5de8\u86cb\u9ad4\u80b2\u9928", "latitude": 24.56411, "longitude": 120.81481, "timestamp": "2025-04-17T03:06:55.392590Z", "free_bikes": 4, "empty_slots": 21, "extra": {"uid": "500711033", "district": "\u82d7\u6817\u5e02", "address": "\u6c11\u65cf\u8def172\u865f", "slots": 25, "normal_bikes": 4, "ebikes": 0, "last_updated": "2025-04-17 09:50:27", "online": true, "youbike_version": 2, "en": {"name": "Miaoli Arena", "district": "Miaoli Town", "address": "No. 172 Minzu Rd"}}}, {"id": "1197fc307043290db5366b611e384f3e", "name": "\u5f8c\u9f8d\u93ae\u516c\u5152\u4e00\u516c\u5712", "latitude": 24.61387, "longitude": 120.78972, "timestamp": "2025-04-17T03:06:55.392270Z", "free_bikes": 1, "empty_slots": 20, "extra": {"uid": "500709010", "district": "\u5f8c\u9f8d\u93ae", "address": "\u5f8c\u9f8d\u93ae\u6771\u9580\u8857124\u865f(\u897f\u5317\u5074)", "slots": 21, "normal_bikes": 1, "ebikes": 0, "last_updated": "2025-04-17 10:56:17", "online": true, "youbike_version": 2, "en": {"name": "Gongeryi Park", "district": "Houlong Town", "address": "NO.127 Dongmen St(northwest side)"}}}, {"id": "12d52560f28a2915a5d909bf55ec9011", "name": "\u9280\u6cb3\u6771\u8208\u8def\u53e3", "latitude": 24.68185, "longitude": 120.9071, "timestamp": "2025-04-17T03:06:55.393080Z", "free_bikes": 3, "empty_slots": 22, "extra": {"uid": "500717037", "district": "\u982d\u4efd\u5e02", "address": "\u9280\u6cb3\u8def118\u865f(\u5c0d\u5074)", "slots": 25, "normal_bikes": 3, "ebikes": 0, "last_updated": "2025-04-17 09:44:18", "online": true, "youbike_version": 2, "en": {"name": "Yinhe and Dongxing Rd.", "district": "Toufen Town", "address": "No. 118 Yinhe Road (opposite side)"}}}, {"id": "14c028eba91d846cc2c92dea41a8a21d", "name": "\u901a\u9704\u93ae\u516c\u6240", "latitude": 24.4913, "longitude": 120.6845, "timestamp": "2025-04-17T03:06:55.392624Z", "free_bikes": 5, "empty_slots": 7, "extra": {"uid": "500713001", "district": "\u901a\u9704\u93ae", "address": "\u4e2d\u6b63\u8def8\u865f(\u5357\u5074)", "slots": 12, "normal_bikes": 4, "ebikes": 1, "last_updated": "2025-04-17 01:56:18", "online": true, "youbike_version": 2, "en": {"name": "Tungshiau Township Office", "district": "Tongxiao Town", "address": "No. 8, Zhongzheng Rd.(South)"}}}, {"id": "184925075e32bd3981926201c22ea523", "name": "\u82d7\u6817\u706b\u8eca\u7ad9(\u897f\u7ad9)", "latitude": 24.5703, "longitude": 120.8209, "timestamp": "2025-04-17T03:06:55.392397Z", "free_bikes": 5, "empty_slots": 85, "extra": {"uid": "500711002", "district": "\u82d7\u6817\u5e02", "address": "\u82f1\u624d\u8def\u82f1\u660e\u8857\u53e3\u6771\u5357\u5074\u4eba\u884c\u9053", "slots": 90, "normal_bikes": 5, "ebikes": 0, "last_updated": "2025-04-17 10:13:19", "online": true, "youbike_version": 2, "en": {"name": "TRA Miaoli Station (West)", "district": "Miaoli Town", "address": "Yingcai Rd./ Yingming St."}}}, {"id": "1af6910e9dc4834d2c9949f0e0154433", "name": "\u4e2d\u592e\u7dad\u65b0\u8def\u53e3", "latitude": 24.69372, "longitude": 120.88288, "timestamp": "2025-04-17T03:06:55.392173Z", "free_bikes": 5, "empty_slots": 21, "extra": {"uid": "500705040", "district": "\u7af9\u5357\u93ae", "address": "\u74b0\u5e02\u8def\u4e09\u6bb5590\u865f(\u5317\u5074)", "slots": 26, "normal_bikes": 4, "ebikes": 1, "last_updated": "2025-04-17 08:30:25", "online": true, "youbike_version": 2, "en": {"name": "Central Restoration Rd.", "district": "Zhunan Town", "address": "No. 590, Section 3, Huanshi Road (north side)"}}}, {"id": "1bddf1eff21a7f95774c129e8430c126", "name": "\u611b\u570b\u8def(\u74b0\u4fdd\u516c\u5712)", "latitude": 24.5392, "longitude": 120.818, "timestamp": "2025-04-17T03:06:55.392442Z", "free_bikes": 3, "empty_slots": 15, "extra": {"uid": "500711010", "district": "\u82d7\u6817\u5e02", "address": "\u611b\u570b\u8def1\u865f\u5c0d\u9762(\u6771\u5074)", "slots": 19, "normal_bikes": 3, "ebikes": 0, "last_updated": "2025-04-17 07:50:24", "online": true, "youbike_version": 2, "en": {"name": "Aiguo Rd.(Environmental Park)", "district": "Miaoli Town", "address": "No. 1, Aiguo Rd.(East)"}}}, {"id": "1c23e2767b19b5e71f756ad8b4a524ef", "name": "\u806f\u5408\u5927\u5b78\u7406\u5de5\u4e00\u9928\u53ca\u4e8c\u9928\u7ad9", "latitude": 24.53932, "longitude": 120.78974, "timestamp": "2025-04-17T03:06:55.392546Z", "free_bikes": 33, "empty_slots": 6, "extra": {"uid": "500711026", "district": "\u82d7\u6817\u5e02", "address": "\u806f\u5927\u8def2\u865f", "slots": 39, "normal_bikes": 32, "ebikes": 1, "last_updated": "2025-04-17 10:30:24", "online": true, "youbike_version": 2, "en": {"name": "National United University Polytechnic Hall 1 and Hall 2 Station", "district": "Miaoli Town", "address": "No. 2, Lianda Rd"}}}, {"id": "2124d7c0ef9ad2d50f7d8792ba615ecb", "name": "\u7af9\u5357\u706b\u8eca\u7ad9(\u6771\u7ad9)", "latitude": 24.6859, "longitude": 120.8816, "timestamp": "2025-04-17T03:06:55.391690Z", "free_bikes": 45, "empty_slots": 33, "extra": {"uid": "500705005", "district": "\u7af9\u5357\u93ae", "address": "\u7dad\u65b0\u8def118\u865f\u5c0d\u9762\u706b\u8eca\u7ad9\u524d\u505c\u8eca\u683c", "slots": 78, "normal_bikes": 26, "ebikes": 19, "last_updated": "2025-04-17 10:30:24", "online": true, "youbike_version": 2, "en": {"name": "TRA Zhunan Station (East)", "district": "Zhunan Town", "address": "No.118, Weixin Rd."}}}, {"id": "222fbbc2dee85899312d8869f268a23c", "name": "\u4e09\u7fa9\u5168\u806f", "latitude": 24.414485, "longitude": 120.771465, "timestamp": "2025-04-17T03:06:55.391545Z", "free_bikes": 5, "empty_slots": 25, "extra": {"uid": "500701002", "district": "\u4e09\u7fa9\u9109", "address": "\u5ee3\u76db39-1\u865f(\u65c1\u505c\u8eca\u5834)", "slots": 30, "normal_bikes": 5, "ebikes": 0, "last_updated": "2025-04-17 06:50:26", "online": true, "youbike_version": 2, "en": {"name": "Sanyi PX Mart", "district": "Sanyi Town", "address": "No. 39-1, Guangsheng(Parking Lot)"}}}, {"id": "2317a084eb57d84d958c01dd2de50891", "name": "\u6587\u5c71\u570b\u5c0f", "latitude": 24.5683, "longitude": 120.81392, "timestamp": "2025-04-17T03:06:55.392596Z", "free_bikes": 7, "empty_slots": 18, "extra": {"uid": "500711034", "district": "\u82d7\u6817\u5e02", "address": "\u6587\u5c71\u91cc\u6587\u5c7141\u865f", "slots": 25, "normal_bikes": 1, "ebikes": 6, "last_updated": "2025-04-16 23:20:24", "online": true, "youbike_version": 2, "en": {"name": "Wenshan Elementary School", "district": "Miaoli Town", "address": "No. 41, Wenshan, Wenshan"}}}, {"id": "23409d95b9b0390746e0d0e6e24e05f4", "name": "\u6c38\u8c9e\u5bae(\u6c38\u8c9e\u570b\u5c0f)", "latitude": 24.6792, "longitude": 120.88512, "timestamp": "2025-04-17T03:06:55.392907Z", "free_bikes": 2, "empty_slots": 18, "extra": {"uid": "500717034", "district": "\u982d\u4efd\u5e02", "address": "\u6c38\u8c9e\u8def\u4e00\u6bb5335\u865f", "slots": 20, "normal_bikes": 2, "ebikes": 0, "last_updated": "2025-04-17 07:40:27", "online": true, "youbike_version": 2, "en": {"name": "Yongzhen Temple(Yung Jen Elementary School)", "district": "Toufen Town", "address": "No. 335, Section 1, Yongzhen Rd"}}}, {"id": "239a42bbfdf06bb5fcad10225fefd1d9", "name": "\u540e\u5e84\u570b\u5c0f(\u7fe0\u4ea8\u8def)", "latitude": 24.6957, "longitude": 120.8991, "timestamp": "2025-04-17T03:06:55.392746Z", "free_bikes": 11, "empty_slots": 25, "extra": {"uid": "500717007", "district": "\u982d\u4efd\u5e02", "address": "\u7fe0\u4ea8\u885712-1\u865f\u5c0d\u9762\u4eba\u884c\u9053", "slots": 36, "normal_bikes": 6, "ebikes": 5, "last_updated": "2025-04-17 07:40:27", "online": true, "youbike_version": 2, "en": {"name": "Houzhuang Elementary School (Cueiheng Rd.)", "district": "Toufen Town", "address": "No.12-1, Cuiheng Rd. (opposite)"}}}, {"id": "23adb0ccc7c0808646c7dce84ee00379", "name": "\u6148\u6fdf\u57fa\u91d1\u6703\u82d7\u6817\u806f\u7d61\u8655(7-11\u798f\u83ef\u9580\u5e02)", "latitude": 24.57686, "longitude": 120.82448, "timestamp": "2025-04-17T03:06:55.392481Z", "free_bikes": 11, "empty_slots": 9, "extra": {"uid": "500711017", "district": "\u82d7\u6817\u5e02", "address": "\u4e2d\u83ef\u8def277\u865f(\u5357\u5074)", "slots": 20, "normal_bikes": 2, "ebikes": 9, "last_updated": "2025-04-17 06:30:25", "online": true, "youbike_version": 2, "en": {"name": "Tzu Chi Foundation Miaoli Liaison Office (7-11 Fuhua Store)", "district": "Miaoli Town", "address": "No. 277 Zhonghua Rd (south side)"}}}, {"id": "24834230fcc2f446067d12d1b7a93140", "name": "\u5f8c\u5e84\u6587\u6797\u7ad9", "latitude": 24.6982, "longitude": 120.8912, "timestamp": "2025-04-17T03:06:55.392820Z", "free_bikes": 4, "empty_slots": 16, "extra": {"uid": "500717017", "district": "\u982d\u4efd\u5e02", "address": "\u6587\u6797\u8def21\u865f(\u6771\u5357\u5074)", "slots": 20, "normal_bikes": 4, "ebikes": 0, "last_updated": "2025-04-17 08:25:18", "online": true, "youbike_version": 2, "en": {"name": "Houzhuang Wenlin Station", "district": "Toufen Town", "address": "No. 21, Wenlin Rd.(Southeast)"}}}, {"id": "24bd459ba493c589d87b27cd79a688aa", "name": "\u793e\u82d3\u6d3b\u52d5\u4e2d\u5fc3(\u4e2d\u5c71\u570b\u5c0f)", "latitude": 24.398624, "longitude": 120.67496, "timestamp": "2025-04-17T03:06:55.392374Z", "free_bikes": 7, "empty_slots": 8, "extra": {"uid": "500710013", "district": "\u82d1\u88e1\u93ae", "address": "\u793e\u82d3\u91cc5-7\u865f", "slots": 15, "normal_bikes": 2, "ebikes": 5, "last_updated": "2025-04-14 10:12:19", "online": true, "youbike_version": 2, "en": {"name": "Sheling Activity Center(Zhongshan Elementary School)", "district": "Yuanli Town", "address": "358, Miaoli County, Yuanli, \u793e\u82d3\u91cc5-7\u865f"}}}, {"id": "27b5bdf4b1466909bb06fab298b56d4d", "name": "\u623f\u88e1\u9806\u5929\u5bae", "latitude": 24.4353, "longitude": 120.64689, "timestamp": "2025-04-17T03:06:55.392363Z", "free_bikes": 3, "empty_slots": 13, "extra": {"uid": "500710011", "district": "\u82d1\u88e1\u93ae", "address": "\u82d1\u88e1\u93ae26\u865f", "slots": 16, "normal_bikes": 1, "ebikes": 2, "last_updated": "2025-04-17 08:50:25", "online": true, "youbike_version": 2, "en": {"name": "Suncheon Palace  in the garden", "district": "Yuanli Town", "address": "358, Miaoli County, Yuanli, 26\u865f"}}}, {"id": "29130cd15d71b5be44769ee8cb7eabaa", "name": "\u5357\u5e84\u904a\u5ba2\u4e2d\u5fc3(\u5357\u5e84\u5e02\u5834)", "latitude": 24.59816, "longitude": 120.99928, "timestamp": "2025-04-17T03:06:55.392195Z", "free_bikes": 6, "empty_slots": 7, "extra": {"uid": "500708004", "district": "\u5357\u5e84\u9109", "address": "\u5927\u540c\u8def43\u865f(\u5c0d\u5074)", "slots": 13, "normal_bikes": 3, "ebikes": 3, "last_updated": "2025-04-13 06:04:18", "online": true, "youbike_version": 2, "en": {"name": "Nanzhuang Visitor Center(Nanzhuang Market)", "district": "Nanzhuang Town", "address": "No. 43, Datong Rd.(Opposite)"}}}, {"id": "29c9c6c7df1979e300f92fdd2eac3bd9", "name": "\u901a\u9704\u93ae\u7d9c\u5408\u6d3b\u52d5\u4e2d\u5fc3(\u901a\u9704\u795e\u793e)", "latitude": 24.4925, "longitude": 120.68216, "timestamp": "2025-04-17T03:06:55.392671Z", "free_bikes": 4, "empty_slots": 10, "extra": {"uid": "500713009", "district": "\u901a\u9704\u93ae", "address": "\u4fe1\u7fa9\u8def248\u865f", "slots": 14, "normal_bikes": 4, "ebikes": 0, "last_updated": "2025-04-16 17:25:18", "online": true, "youbike_version": 2, "en": {"name": "Tongxiao Activity Center(Tongxiao Shrine)", "district": "Tongxiao Town", "address": "No. 248\u865f, Xinyi Rd, Tongxiao Township"}}}, {"id": "2ea01a0afb16e2e7d85983b21570fb6d", "name": "\u5d0e\u9802\u706b\u8eca\u7ad9", "latitude": 24.7219, "longitude": 120.86946, "timestamp": "2025-04-17T03:06:55.391991Z", "free_bikes": 6, "empty_slots": 14, "extra": {"uid": "500705018", "district": "\u7af9\u5357\u93ae", "address": "\u4ec1\u611b\u8def2271\u5df7/\u5357\u6e2f\u8857\u53e3", "slots": 20, "normal_bikes": 6, "ebikes": 0, "last_updated": "2025-04-17 08:29:18", "online": true, "youbike_version": 2, "en": {"name": "Qiding Train Station", "district": "Zhunan Town", "address": "No. 59-3, Neighbor 14, Zhunan Town"}}}, {"id": "31571f588adfd40b4aa4068c20c9d3c5", "name": "\u5bb6\u65fa\u5152\u7ae5\u516c\u5712(\u4e94\u7a40\u6587\u5316\u6751)", "latitude": 24.51838, "longitude": 120.82098, "timestamp": "2025-04-17T03:06:55.391662Z", "free_bikes": 3, "empty_slots": 15, "extra": {"uid": "500704008", "district": "\u516c\u9928\u9109", "address": "\u516c\u9928\u9109\u5411\u967d48\u865f", "slots": 18, "normal_bikes": 2, "ebikes": 1, "last_updated": "2025-04-17 08:40:24", "online": true, "youbike_version": 2, "en": {"name": "Jiawang Children's Park(Wugu Cultural Village)", "district": "Gongguan Town", "address": "No. 48, Xiangyang, Gongguan Township"}}}, {"id": "322a07fa9eaf4caf69ab5bd43e390d8f", "name": "\u79d1\u5c08\u4e03\u79d1\u5c08\u4e94\u8def\u53e3", "latitude": 24.70571, "longitude": 120.90214, "timestamp": "2025-04-17T03:06:55.392056Z", "free_bikes": 4, "empty_slots": 21, "extra": {"uid": "500705023", "district": "\u7af9\u5357\u93ae", "address": "\u79d1\u5c08\u4e03\u8def221\u865f", "slots": 25, "normal_bikes": 4, "ebikes": 0, "last_updated": "2025-04-17 08:55:17", "online": true, "youbike_version": 2, "en": {"name": "Kezhuan 7th Kezhuan 5th Rd", "district": "Zhunan Town", "address": "No. 221, Kezhuan 7th Rd"}}}, {"id": "330512606fb3bb2c9daac042c7337f6a", "name": "\u5916\u57d4\u6f01\u6e2f", "latitude": 24.65016, "longitude": 120.77304, "timestamp": "2025-04-17T03:06:55.392258Z", "free_bikes": 4, "empty_slots": 16, "extra": {"uid": "500709008", "district": "\u5f8c\u9f8d\u93ae", "address": "\u5f8c\u9f8d\u93ae8\u9130131-7\u865f", "slots": 20, "normal_bikes": 2, "ebikes": 2, "last_updated": "2025-04-17 03:12:18", "online": true, "youbike_version": 2, "en": {"name": "Wai-pu Fishing Harbor", "district": "Houlong Town", "address": "No. 131-7, Neighbor 8, Houlong Town"}}}, {"id": "3472b0d6e0e6ad172cc052054405d793", "name": "\u87e0\u6843\u570b\u5c0f", "latitude": 24.6938, "longitude": 120.9062, "timestamp": "2025-04-17T03:06:55.392740Z", "free_bikes": 10, "empty_slots": 9, "extra": {"uid": "500717006", "district": "\u982d\u4efd\u5e02", "address": "\u4e2d\u8208\u8def503\u865f\u5c0d\u9762\u4eba\u884c\u9053", "slots": 20, "normal_bikes": 9, "ebikes": 1, "last_updated": "2025-04-17 09:34:19", "online": true, "youbike_version": 2, "en": {"name": "Pan Tau Elementary School", "district": "Toufen Town", "address": "No.503, Zhongxing Rd. (opposite)"}}}, {"id": "34a9f8e276456fd79c0091fdb76136af", "name": "\u7af9\u5357\u535a\u611b\u516c\u5712", "latitude": 24.6846, "longitude": 120.8712, "timestamp": "2025-04-17T03:06:55.391724Z", "free_bikes": 6, "empty_slots": 24, "extra": {"uid": "500705010", "district": "\u7af9\u5357\u93ae", "address": "\u6587\u5316\u8857\u5927\u696d\u8857\u53e3\u897f\u5317\u5074\u4eba\u884c\u9053", "slots": 30, "normal_bikes": 5, "ebikes": 1, "last_updated": "2025-04-17 10:13:19", "online": true, "youbike_version": 2, "en": {"name": "Zhunan Bo'ai Park", "district": "Zhunan Town", "address": "Wenhua St. / Daye St."}}}, {"id": "34b38b4cf4619ba4511d64ca914fe596", "name": "\u4e2d\u592e\u6587\u5316\u8857\u53e3", "latitude": 24.69384, "longitude": 120.89696, "timestamp": "2025-04-17T03:06:55.392857Z", "free_bikes": 1, "empty_slots": 22, "extra": {"uid": "500717024", "district": "\u982d\u4efd\u5e02", "address": "\u4e2d\u592e\u8def453\u865f", "slots": 23, "normal_bikes": 1, "ebikes": 0, "last_updated": "2025-04-17 08:52:17", "online": true, "youbike_version": 2, "en": {"name": "Zhongyang and Wenhua Rd", "district": "Toufen Town", "address": "No. 453, Zhongyang Rd"}}}, {"id": "3835c453f969f66b3fe7c5cfcd269eba", "name": "\u80b2\u9054\u79d1\u5927(7-11\u80b2\u5927\u9580\u5e02)", "latitude": 24.64865, "longitude": 120.84327, "timestamp": "2025-04-17T03:06:55.392687Z", "free_bikes": 7, "empty_slots": 13, "extra": {"uid": "500714001", "district": "\u9020\u6a4b\u9109", "address": "\u5b78\u5e9c\u8def100\u865f", "slots": 20, "normal_bikes": 4, "ebikes": 3, "last_updated": "2025-04-16 23:40:26", "online": true, "youbike_version": 2, "en": {"name": "Yuda University of Science and Technology(7-ELEVEN Yudamen City)", "district": "Zaoqiao Town", "address": "No. 100, Xuefu Road"}}}, {"id": "3885fbfca1156cffefcd396f264bfb12", "name": "\u806f\u5408\u5927\u5b78\u516b\u7532\u5713\u74b0\u7ad9", "latitude": 24.53572, "longitude": 120.78787, "timestamp": "2025-04-17T03:06:55.392555Z", "free_bikes": 8, "empty_slots": 32, "extra": {"uid": "500711027", "district": "\u82d7\u6817\u5e02", "address": "\u806f\u5927\u8def2\u865f", "slots": 40, "normal_bikes": 8, "ebikes": 0, "last_updated": "2025-04-17 10:50:25", "online": true, "youbike_version": 2, "en": {"name": "National United University Ba Jia Circle Station", "district": "Miaoli Town", "address": "No. 2, Lianda Rd"}}}, {"id": "3ac982fd40d2a74095b3d792f7956e31", "name": "\u6e2f\u5898\u91cc\u793e\u5340\u6d3b\u52d5\u4e2d\u5fc3", "latitude": 24.667573, "longitude": 120.861026, "timestamp": "2025-04-17T03:06:55.392150Z", "free_bikes": 9, "empty_slots": 6, "extra": {"uid": "500705036", "district": "\u7af9\u5357\u93ae", "address": "\u5149\u660e\u8857\uff12\u865f", "slots": 15, "normal_bikes": 5, "ebikes": 4, "last_updated": "2025-04-16 15:10:25", "online": true, "youbike_version": 2, "en": {"name": "Hong Kong Qianli Community Activity Center", "district": "Zhunan Town", "address": "No. 2, Guangming St."}}}, {"id": "3b6066358757481fffe31d5e9c0581ce", "name": "\u548c\u5e73\u80b2\u6a02\u8857\u53e3", "latitude": 24.6872, "longitude": 120.90325, "timestamp": "2025-04-17T03:06:55.393105Z", "free_bikes": 5, "empty_slots": 37, "extra": {"uid": "500717041", "district": "\u982d\u4efd\u5e02", "address": "\u81ea\u5f37\u8def230\u865f", "slots": 42, "normal_bikes": 3, "ebikes": 2, "last_updated": "2025-04-17 09:40:24", "online": true, "youbike_version": 2, "en": {"name": "Heping and Yule St", "district": "Toufen Town", "address": "No. 230 Ziqiang Road"}}}, {"id": "3c385a5f922efe5130f267e1d7ce2683", "name": "\u597d\u671b\u89d2(\u534a\u5929\u5bee\u4f11\u9592\u6587\u5316\u5712\u5340)", "latitude": 24.60007, "longitude": 120.73187, "timestamp": "2025-04-17T03:06:55.392253Z", "free_bikes": 4, "empty_slots": 16, "extra": {"uid": "500709007", "district": "\u5f8c\u9f8d\u93ae", "address": "\u82d733\u9109\u9053(\u597d\u671b\u89d2\u505c\u8eca\u5834)]", "slots": 20, "normal_bikes": 4, "ebikes": 0, "last_updated": "2025-04-16 13:10:24", "online": true, "youbike_version": 2, "en": {"name": "Houlong Cape of Good Hope", "district": "Houlong Town", "address": "Miao 33 Township Rd"}}}, {"id": "40a1b77fa385e1ef9bd8d1c0ac4b7f0e", "name": "\u8208\u83ef\u9ad8\u4e2d", "latitude": 24.68571, "longitude": 120.9359, "timestamp": "2025-04-17T03:06:55.392827Z", "free_bikes": 2, "empty_slots": 23, "extra": {"uid": "500717018", "district": "\u982d\u4efd\u5e02", "address": "\u4e2d\u6b63\u4e00\u8def401\u865f", "slots": 25, "normal_bikes": 0, "ebikes": 2, "last_updated": "2025-04-16 19:14:17", "online": true, "youbike_version": 2, "en": {"name": "Municipal Xinghuagaoji Junior High School(Miaolixiantoufenshiqiaoshan Elementary School)", "district": "Toufen Town", "address": "No. 401, Zhongzheng 1st Rd"}}}, {"id": "43ff1bb75a871534fcd6380234ff93e7", "name": "\u798f\u661f\u570b\u5c0f", "latitude": 24.57879, "longitude": 120.82531, "timestamp": "2025-04-17T03:06:55.392613Z", "free_bikes": 2, "empty_slots": 14, "extra": {"uid": "500711037", "district": "\u82d7\u6817\u5e02", "address": "\u4e2d\u83ef\u6771\u885762\u865f", "slots": 16, "normal_bikes": 0, "ebikes": 2, "last_updated": "2025-04-17 10:31:18", "online": true, "youbike_version": 2, "en": {"name": "Fuxing Elementary School", "district": "Miaoli Town", "address": "No. 62, Zhonghua E. St."}}}, {"id": "441fc632d2b2d099bca09c879cb0268d", "name": "\u82d7\u6817\u7e23\u7acb\u9ad4\u80b2\u9928", "latitude": 24.5658, "longitude": 120.8243, "timestamp": "2025-04-17T03:06:55.392459Z", "free_bikes": 3, "empty_slots": 20, "extra": {"uid": "500711013", "district": "\u82d7\u6817\u5e02", "address": "\u4e2d\u6b63\u8def177\u865f(\u5357\u5074)", "slots": 23, "normal_bikes": 0, "ebikes": 3, "last_updated": "2025-04-17 10:10:24", "online": true, "youbike_version": 2, "en": {"name": "Miaoli County Gymnasium", "district": "Miaoli Town", "address": "No. 177, Zhongzheng Rd.(South)"}}}, {"id": "46c6eceb2cece7588ed8a7c5aa2177c5", "name": "\u82d7\u6817\u7279\u8272\u9928", "latitude": 24.4894, "longitude": 120.8284, "timestamp": "2025-04-17T03:06:55.391644Z", "free_bikes": 4, "empty_slots": 11, "extra": {"uid": "500704005", "district": "\u516c\u9928\u9109", "address": "14\u9130\u9928\u5357352\u865f\u524d(\u6771\u5074)", "slots": 15, "normal_bikes": 0, "ebikes": 4, "last_updated": "2025-04-17 06:30:25", "online": true, "youbike_version": 2, "en": {"name": "Miaoli Cultural Park", "district": "Gongguan Town", "address": "No. 352, Guannan.(East)"}}}, {"id": "472585e600e283e86a1d4e8bf2a7741a", "name": "\u9577\u9752\u7acb\u9ad4\u505c\u8eca\u5834", "latitude": 24.6859, "longitude": 120.8779, "timestamp": "2025-04-17T03:06:55.391966Z", "free_bikes": 9, "empty_slots": 17, "extra": {"uid": "500705015", "district": "\u7af9\u5357\u93ae", "address": "\u6c11\u6b0a\u885753\u865f(\u6771\u5074)", "slots": 26, "normal_bikes": 9, "ebikes": 0, "last_updated": "2025-04-17 08:50:25", "online": true, "youbike_version": 2, "en": {"name": "Chang Chin Parking Tower", "district": "Zhunan Town", "address": "No. 53, Minquan St.(East)"}}}, {"id": "47caae1fc49231ac977f43cbaef4c365", "name": "\u5929\u4ec1\u8336\u6587\u5316\u9928", "latitude": 24.71616, "longitude": 120.91939, "timestamp": "2025-04-17T03:06:55.392075Z", "free_bikes": 5, "empty_slots": 20, "extra": {"uid": "500705026", "district": "\u7af9\u5357\u93ae", "address": "\u4e2d\u83ef\u8def422\u865f", "slots": 25, "normal_bikes": 5, "ebikes": 0, "last_updated": "2025-04-16 09:47:18", "online": true, "youbike_version": 2, "en": {"name": "Ten Ren Tea Culture Museum", "district": "Zhunan Town", "address": "No. 422, Zhonghua Rd"}}}, {"id": "48d8d6a9f30cbb3469acca6831ce21d7", "name": "\u65b0\u6771\u5fa9\u8208\u8def\u53e3(7-11\u82d7\u78a9\u9580\u5e02)", "latitude": 24.55061, "longitude": 120.82321, "timestamp": "2025-04-17T03:06:55.392516Z", "free_bikes": 7, "empty_slots": 9, "extra": {"uid": "500711023", "district": "\u82d7\u6817\u5e02", "address": "\u65b0\u6771\u8857219\u865f", "slots": 16, "normal_bikes": 1, "ebikes": 6, "last_updated": "2025-04-17 08:40:24", "online": true, "youbike_version": 2, "en": {"name": "Xindong Fuxing Road Intersection (7-11 Miao Shuo Store)", "district": "Miaoli Town", "address": "No. 219, Xindong St"}}}, {"id": "49c410c36de4795c14d5d6f82fb1045d", "name": "\u5357\u6c5f\u6c34\u5cb8\u516c\u5712", "latitude": 24.5954, "longitude": 121.00071, "timestamp": "2025-04-17T03:06:55.392184Z", "free_bikes": 3, "empty_slots": 11, "extra": {"uid": "500708001", "district": "\u5357\u5e84\u9109", "address": "\u6771\u6751\u6771\u6c5f100\u865f\u5c0d\u5074", "slots": 15, "normal_bikes": 2, "ebikes": 1, "last_updated": "2025-04-17 08:20:25", "online": true, "youbike_version": 2, "en": {"name": "Nanjiang RiversideI Park", "district": "Nanzhuang Town", "address": "No. 100, Dongcundongjiang(Opposite)"}}}, {"id": "4a3afda9cc458addfbd375e60a8d4b48", "name": "\u5357\u5e84\u516c\u6709\u505c\u8eca\u5834", "latitude": 24.5982, "longitude": 120.99745, "timestamp": "2025-04-17T03:06:55.392189Z", "free_bikes": 8, "empty_slots": 42, "extra": {"uid": "500708002", "district": "\u5357\u5e84\u9109", "address": "124\u7e23\u9053(\u5357\u5e84\u516c\u6709\u505c\u8eca\u5834)", "slots": 50, "normal_bikes": 5, "ebikes": 3, "last_updated": "2025-04-10 09:37:18", "online": true, "youbike_version": 2, "en": {"name": "Nanzhuang Public Parking Lot", "district": "Nanzhuang Town", "address": "County Highway 124(Nanzhuang Public Parking Lot)"}}}, {"id": "4bb044374d56f4dc1e036de00913cb96", "name": "\u79d1\u5c08\u4e03\u79d1\u5c08\u4e8c\u8def\u53e3", "latitude": 24.70589, "longitude": 120.90567, "timestamp": "2025-04-17T03:06:55.392066Z", "free_bikes": 2, "empty_slots": 23, "extra": {"uid": "500705024", "district": "\u7af9\u5357\u93ae", "address": "\u79d1\u5c08\u4e00\u8def1\u865f(\u897f\u5074)", "slots": 25, "normal_bikes": 2, "ebikes": 0, "last_updated": "2025-04-17 00:40:24", "online": true, "youbike_version": 2, "en": {"name": "Kezhuan 7th Kezhuan 2th Rd", "district": "Zhunan Town", "address": "No. 1, Kezhuan 1th Rd (West side)"}}}, {"id": "4c20ad9332923068196fe1c1d630a31a", "name": "\u4e2d\u592e\u516b\u5fb7\u4e00\u8def\u53e3", "latitude": 24.6942, "longitude": 120.893, "timestamp": "2025-04-17T03:06:55.392763Z", "free_bikes": 2, "empty_slots": 30, "extra": {"uid": "500717010", "district": "\u982d\u4efd\u5e02", "address": "\u4e2d\u592e\u8def603\u865f\u524d\u65b9\u4eba\u884c\u9053", "slots": 32, "normal_bikes": 0, "ebikes": 2, "last_updated": "2025-04-17 08:30:25", "online": true, "youbike_version": 2, "en": {"name": "Zhongyang & Bade Rd. 1st Intersection", "district": "Toufen Town", "address": "No.603, Zhongyang Rd."}}}, {"id": "4de1a35a2a8e8c17f91d709d78bab5bb", "name": "\u5357\u5e84\u8fb2\u592b\u5e02\u96c6(7-11\u7530\u91ce\u9580\u5e02)", "latitude": 24.64472, "longitude": 120.95465, "timestamp": "2025-04-17T03:06:55.392213Z", "free_bikes": 7, "empty_slots": 8, "extra": {"uid": "500708007", "district": "\u5357\u5e84\u9109", "address": "\u4e0b\u54e1\u67972\u913068-10\u865f", "slots": 15, "normal_bikes": 6, "ebikes": 1, "last_updated": "2025-04-08 17:52:20", "online": true, "youbike_version": 2, "en": {"name": "Nanzhuang Farmers' Market(7-11 Tianye Store)", "district": "Nanzhuang Town", "address": "No. 68-10, Xiayuanlin 2 Neighborhood"}}}, {"id": "4f5fa95830e523e99be592fbe7d66b9f", "name": "\u4e0b\u516c\u5712", "latitude": 24.68345, "longitude": 120.90539, "timestamp": "2025-04-17T03:06:55.393112Z", "free_bikes": 3, "empty_slots": 15, "extra": {"uid": "500717042", "district": "\u982d\u4efd\u5e02", "address": "\u4e2d\u83ef\u8def915\u865f(\u5317\u5074)", "slots": 18, "normal_bikes": 3, "ebikes": 0, "last_updated": "2025-04-17 08:36:18", "online": true, "youbike_version": 2, "en": {"name": "go to the park", "district": "Toufen Town", "address": "No. 915 Zhonghua Road (north side)"}}}, {"id": "5051bbd08b448eeaf7e5440ae1445269", "name": "\u82d7\u6817\u5de5\u85dd\u5712\u5340", "latitude": 24.5335, "longitude": 120.81636, "timestamp": "2025-04-17T03:06:55.392523Z", "free_bikes": 2, "empty_slots": 13, "extra": {"uid": "500711024", "district": "\u82d7\u6817\u5e02", "address": "\u6c34\u6d41\u5a18\u5df711\u91308-2\u865f", "slots": 15, "normal_bikes": 2, "ebikes": 0, "last_updated": "2025-04-17 07:50:24", "online": true, "youbike_version": 2, "en": {"name": "Miaoli Craft Park", "district": "Miaoli Town", "address": "No. 8-2, 11 Neighborhood, Shuiliuniang Lane"}}}, {"id": "50747dbd263b5219029a0d5be2281e19", "name": "\u7af9\u5357\u5564\u9152\u5ee0", "latitude": 24.7112, "longitude": 120.87785, "timestamp": "2025-04-17T03:06:55.391999Z", "free_bikes": 3, "empty_slots": 16, "extra": {"uid": "500705019", "district": "\u7af9\u5357\u93ae", "address": "\u548c\u8208\u8def345\u865f", "slots": 20, "normal_bikes": 2, "ebikes": 1, "last_updated": "2025-04-09 10:00:24", "online": true, "youbike_version": 2, "en": {"name": "Taiwan Tobacco & Liquor Corporation Zhunan Brewery", "district": "Zhunan Town", "address": "No. 345, Hexing Rd"}}}, {"id": "525e8d195c56741e1fd0f54fff043db6", "name": "\u82d7\u6817\u7e23\u7acb\u5716\u66f8\u9928", "latitude": 24.5656, "longitude": 120.8208, "timestamp": "2025-04-17T03:06:55.392408Z", "free_bikes": 8, "empty_slots": 54, "extra": {"uid": "500711004", "district": "\u82d7\u6817\u5e02", "address": "\u81ea\u6cbb\u8def\u53e3\u82f1\u624d\u8def\u53e3\u897f\u5317\u5074\u4eba\u884c\u9053", "slots": 62, "normal_bikes": 7, "ebikes": 1, "last_updated": "2025-04-17 08:50:25", "online": true, "youbike_version": 2, "en": {"name": "The Public Library of Miaoli County", "district": "Miaoli Town", "address": "Zizhi Rd./Yingcai Rd."}}}, {"id": "531f998a759e7ccf1d22137b468921ee", "name": "\u5357\u5e84\u8fb2\u6703\u5c55\u552e\u4e2d\u5fc3", "latitude": 24.60501, "longitude": 121.00142, "timestamp": "2025-04-17T03:06:55.392207Z", "free_bikes": 14, "empty_slots": 6, "extra": {"uid": "500708006", "district": "\u5357\u5e84\u9109", "address": "\u4e2d\u6b63\u8def224\u865f", "slots": 20, "normal_bikes": 12, "ebikes": 2, "last_updated": "2025-04-17 07:20:25", "online": true, "youbike_version": 2, "en": {"name": "Nanzhuang Farmers' Association", "district": "Nanzhuang Town", "address": "No. 224,  Zhongzheng Rd."}}}, {"id": "54ad3beae02457ad71744ef6e83fd86b", "name": "\u885b\u751f\u798f\u5229\u90e8\u82d7\u6817\u91ab\u9662", "latitude": 24.57495, "longitude": 120.84198, "timestamp": "2025-04-17T03:06:55.392505Z", "free_bikes": 7, "empty_slots": 13, "extra": {"uid": "500711021", "district": "\u82d7\u6817\u5e02", "address": "\u6a4b\u982d\u53172\u865f", "slots": 20, "normal_bikes": 3, "ebikes": 4, "last_updated": "2025-04-17 07:20:25", "online": true, "youbike_version": 2, "en": {"name": "Miaoli Hospital, Ministry of Health and Welfare", "district": "Miaoli Town", "address": "No. 2, Qiaotoubei"}}}, {"id": "54c6a8f4365d8b289b59152ec92c85e8", "name": "\u5efa\u570b\u570b\u5c0f(\u5408\u4f5c\u8857)", "latitude": 24.6951, "longitude": 120.9129, "timestamp": "2025-04-17T03:06:55.392751Z", "free_bikes": 3, "empty_slots": 17, "extra": {"uid": "500717008", "district": "\u982d\u4efd\u5e02", "address": "\u529b\u884c\u88572-8\u865f\u5c0d\u9762\u4eba\u884c\u9053", "slots": 20, "normal_bikes": 3, "ebikes": 0, "last_updated": "2025-04-17 10:02:18", "online": true, "youbike_version": 2, "en": {"name": "Jianguo Elementary School (Hezuo St.)", "district": "Toufen Town", "address": "No.2-8, Lixing St. (opposite)"}}}, {"id": "5607d848301a0e12cbb6d174ad8f3ce1", "name": "\u4e2d\u6e2f\u505c\u8eca\u5834", "latitude": 24.68227, "longitude": 120.86767, "timestamp": "2025-04-17T03:06:55.392124Z", "free_bikes": 3, "empty_slots": 22, "extra": {"uid": "500705032", "district": "\u7af9\u5357\u93ae", "address": "\u65b0\u751f\u8def77\u865f", "slots": 25, "normal_bikes": 1, "ebikes": 2, "last_updated": "2025-04-17 07:40:27", "online": true, "youbike_version": 2, "en": {"name": "Zhonggang parking lot", "district": "Zhunan Town", "address": "No. 77, Shin-Sheng Rd"}}}, {"id": "574f7582c928f186e73ebaf310358f74", "name": "\u9577\u9752\u4e4b\u68ee", "latitude": 24.67485, "longitude": 120.83631, "timestamp": "2025-04-17T03:06:55.392138Z", "free_bikes": 4, "empty_slots": 10, "extra": {"uid": "500705034", "district": "\u7af9\u5357\u93ae", "address": "\u6d77\u53e3\u91cc16\u9130\u4fdd\u5b89\u679725\u4e4b60\u865f", "slots": 15, "normal_bikes": 4, "ebikes": 0, "last_updated": "2025-04-16 11:44:18", "online": true, "youbike_version": 2, "en": {"name": "Evergreen Forest", "district": "Zhunan Town", "address": "No. 25-60, Bao'anlin, 16th Neighborhood, Haikou"}}}, {"id": "5b032bdb3bd806b6eb6de2867d0248b3", "name": "\u982d\u4efd\u5e02\u7d9c\u5408\u904b\u52d5\u516c\u5712", "latitude": 24.6907, "longitude": 120.8925, "timestamp": "2025-04-17T03:06:55.392728Z", "free_bikes": 10, "empty_slots": 35, "extra": {"uid": "500717003", "district": "\u982d\u4efd\u5e02", "address": "\u516c\u5712\u8def26\u865f\u5c0d\u9762\u4eba\u884c\u9053", "slots": 46, "normal_bikes": 6, "ebikes": 4, "last_updated": "2025-04-17 09:50:27", "online": true, "youbike_version": 2, "en": {"name": "Toufen City Sports Park", "district": "Toufen Town", "address": "No.26, Gongyuan Rd. (opposite)"}}}, {"id": "5bfdb6ecc7924c9cf33fdaff16cfa76f", "name": "\u5f8c\u9f8d\u516d\u865f\u516c\u5712", "latitude": 24.61228, "longitude": 120.78942, "timestamp": "2025-04-17T03:06:55.392276Z", "free_bikes": 8, "empty_slots": 22, "extra": {"uid": "500709011", "district": "\u5f8c\u9f8d\u93ae", "address": "\u5149\u83ef\u4e00\u88572\u865f(\u6771\u5074)", "slots": 30, "normal_bikes": 8, "ebikes": 0, "last_updated": "2025-04-16 08:40:25", "online": true, "youbike_version": 2, "en": {"name": "Houlong No.6 Park", "district": "Houlong Town", "address": "No. 2, Guanghua 1st St"}}}, {"id": "5c85dff1befe08140dd52def05101572", "name": "\u505c\u5341\u4e8c\u505c\u8eca\u5834(\u5609\u65b0\u8857)", "latitude": 24.57637, "longitude": 120.83075, "timestamp": "2025-04-17T03:06:55.392493Z", "free_bikes": 3, "empty_slots": 17, "extra": {"uid": "500711019", "district": "\u82d7\u6817\u5e02", "address": "\u5609\u65b0\u885788\u865f", "slots": 20, "normal_bikes": 3, "ebikes": 0, "last_updated": "2025-04-17 08:47:18", "online": true, "youbike_version": 2, "en": {"name": "Parking Lot 12 (Jiaxin Street)", "district": "Miaoli Town", "address": "No. 88, Jiaxin St"}}}, {"id": "5cb89c2102d1ba8cb28365a6a0615e66", "name": "\u516c\u9928\u570b\u4e2d", "latitude": 24.4988, "longitude": 120.8279, "timestamp": "2025-04-17T03:06:55.391638Z", "free_bikes": 3, "empty_slots": 9, "extra": {"uid": "500704004", "district": "\u516c\u9928\u9109", "address": "\u5927\u540c\u8def14\u865f\u5c0d\u9762(\u897f\u5074)", "slots": 12, "normal_bikes": 3, "ebikes": 0, "last_updated": "2025-04-17 06:40:25", "online": true, "youbike_version": 2, "en": {"name": "Gongguan Junior High School", "district": "Gongguan Town", "address": "No. 14, Datong Rd.(West)"}}}, {"id": "5d3245c1068c87bc9d9da36726d528e3", "name": "\u570b\u7acb\u82d1\u88e1\u9ad8\u4e2d", "latitude": 24.44814, "longitude": 120.65606, "timestamp": "2025-04-17T03:06:55.392310Z", "free_bikes": 40, "empty_slots": 14, "extra": {"uid": "500710002", "district": "\u82d1\u88e1\u93ae", "address": "\u80b2\u624d\u8857103\u865f(\u897f\u5074)", "slots": 54, "normal_bikes": 27, "ebikes": 13, "last_updated": "2025-04-17 10:13:18", "online": true, "youbike_version": 2, "en": {"name": "National Yuanli Senior High School", "district": "Yuanli Town", "address": "No.103, Yucai St."}}}, {"id": "60389f2dfd3f01bad6ee7af8cfedf52b", "name": "\u8056\u798f\u516c\u5712", "latitude": 24.69514, "longitude": 120.87292, "timestamp": "2025-04-17T03:06:55.392162Z", "free_bikes": 4, "empty_slots": 17, "extra": {"uid": "500705038", "district": "\u7af9\u5357\u93ae", "address": "\u516c\u6559\u8def132\u865f(\u5357\u5074)", "slots": 22, "normal_bikes": 1, "ebikes": 3, "last_updated": "2025-04-17 10:50:25", "online": true, "youbike_version": 2, "en": {"name": "Saint Blessed Park", "district": "Zhunan Town", "address": "No. 132 Gongjiao Road (south side)"}}}, {"id": "636e9aa9747a883bc16f6fd304bed4b1", "name": "\u5357\u82d7\u5927\u540c\u570b\u5c0f", "latitude": 24.5541, "longitude": 120.8155, "timestamp": "2025-04-17T03:06:55.392425Z", "free_bikes": 7, "empty_slots": 23, "extra": {"uid": "500711007", "district": "\u82d7\u6817\u5e02", "address": "\u5927\u540c\u8def20\u5df73\u865f\u65c1\u4eba\u884c\u9053", "slots": 30, "normal_bikes": 4, "ebikes": 3, "last_updated": "2025-04-17 10:04:19", "online": true, "youbike_version": 2, "en": {"name": "Nan Miao Datong Elementary School", "district": "Miaoli Town", "address": "No.3, Ln. 20, Datong Rd."}}}, {"id": "65f7b5a3ef0342a9e55892457d6c1cc9", "name": "\u6d77\u53e3\u505c\u8eca\u5834", "latitude": 24.67534, "longitude": 120.86389, "timestamp": "2025-04-17T03:06:55.392131Z", "free_bikes": 3, "empty_slots": 17, "extra": {"uid": "500705033", "district": "\u7af9\u5357\u93ae", "address": "\u660e\u52dd\u8def318\u865f(\u5357\u5074)", "slots": 20, "normal_bikes": 0, "ebikes": 3, "last_updated": "2025-04-17 07:50:24", "online": true, "youbike_version": 2, "en": {"name": "Haikou Parking", "district": "Zhunan Town", "address": "No. 318, Mingsheng Rd"}}}, {"id": "665b8b524dd40cf02c5fc4731291fcce", "name": "\u9ad8\u9435\u82d7\u6817\u7ad9", "latitude": 24.60629, "longitude": 120.82437, "timestamp": "2025-04-17T03:06:55.392299Z", "free_bikes": 4, "empty_slots": 26, "extra": {"uid": "500709014", "district": "\u5f8c\u9f8d\u93ae", "address": "\u9ad8\u9435\u4e09\u8def268\u865f", "slots": 30, "normal_bikes": 4, "ebikes": 0, "last_updated": "2025-04-17 09:33:17", "online": true, "youbike_version": 2, "en": {"name": "Taiwan High Speed Rail Miaoli Station", "district": "Houlong Town", "address": "No. 268, Gaotie 3rd Rd"}}}, {"id": "6909b1ce22da76d35f2fc6dfa00a0cda", "name": "\u65e5\u65b0\u9280\u6cb3\u8def\u53e3", "latitude": 24.68478, "longitude": 120.91196, "timestamp": "2025-04-17T03:06:55.392868Z", "free_bikes": 4, "empty_slots": 16, "extra": {"uid": "500717026", "district": "\u982d\u4efd\u5e02", "address": "\u9280\u6cb3\u5317\u8def3\u865f", "slots": 20, "normal_bikes": 2, "ebikes": 2, "last_updated": "2025-04-17 10:20:24", "online": true, "youbike_version": 2, "en": {"name": "Rixin and Yinhe Rd", "district": "Toufen Town", "address": "No. 3, Yinhe N Rd"}}}, {"id": "6a87c56444a31dd60324ead64c648e48", "name": "\u7167\u5357\u570b\u5c0f", "latitude": 24.6932, "longitude": 120.8786, "timestamp": "2025-04-17T03:06:55.391732Z", "free_bikes": 12, "empty_slots": 22, "extra": {"uid": "500705011", "district": "\u7af9\u5357\u93ae", "address": "\u5149\u5fa9\u8def331\u865f(\u7167\u5357\u570b\u5c0f\u5c0d\u9762\u9ad8\u67b6\u6a4b\u4e0b)", "slots": 34, "normal_bikes": 10, "ebikes": 2, "last_updated": "2025-04-17 07:40:27", "online": true, "youbike_version": 2, "en": {"name": "Zhaonan Elementary School", "district": "Zhunan Town", "address": "No.331, Guangfu Rd. (opposite)"}}}, {"id": "6ddf054b97ff0a5989b69dd9395b27e8", "name": "\u982d\u4efd\u793e\u5340\u6d3b\u52d5\u4e2d\u5fc3(\u982d\u4efd\u5e02\u885b\u751f\u6240)", "latitude": 24.69113, "longitude": 120.91605, "timestamp": "2025-04-17T03:06:55.392834Z", "free_bikes": 3, "empty_slots": 17, "extra": {"uid": "500717019", "district": "\u982d\u4efd\u5e02", "address": "\u986f\u6703\u8def74\u865f", "slots": 20, "normal_bikes": 0, "ebikes": 3, "last_updated": "2025-04-16 15:51:23", "online": true, "youbike_version": 2, "en": {"name": "Toufen Community Activity Center", "district": "Toufen Town", "address": "No. 74, Xianhui Rd"}}}, {"id": "6e57580d9f851e2e04ec149379456861", "name": "\u5357\u52e2\u706b\u8eca\u7ad9", "latitude": 24.5224, "longitude": 120.79167, "timestamp": "2025-04-17T03:06:55.392535Z", "free_bikes": 3, "empty_slots": 17, "extra": {"uid": "500711025", "district": "\u82d7\u6817\u5e02", "address": "\u5357\u52e2\u91cc39\u865f", "slots": 20, "normal_bikes": 3, "ebikes": 0, "last_updated": "2025-04-16 11:50:24", "online": true, "youbike_version": 2, "en": {"name": "Nanshi Train Station", "district": "Miaoli Town", "address": "No. 39, Nanshili"}}}, {"id": "71e9b4e4d80d2119ef3bbb40ee87f10f", "name": "\u5168\u806f\u901a\u9704\u81ea\u5f37\u5e97", "latitude": 24.48677, "longitude": 120.68062, "timestamp": "2025-04-17T03:06:55.392676Z", "free_bikes": 4, "empty_slots": 16, "extra": {"uid": "500713010", "district": "\u901a\u9704\u93ae", "address": "\u4ec1\u611b\u8def1\u4e4b3\u865f", "slots": 20, "normal_bikes": 3, "ebikes": 1, "last_updated": "2025-04-17 06:23:23", "online": true, "youbike_version": 2, "en": {"name": "Quanlian Welfare Center Tongxiao", "district": "Tongxiao Town", "address": "No. 3-5, Ziqiang Rd"}}}, {"id": "7222e9b5e273ef734d4b65e45a989446", "name": "\u4e2d\u6b63\u8def\u5efa\u53f0\u8857(\u4e2d\u83ef\u96fb\u4fe1)", "latitude": 24.5579, "longitude": 120.8207, "timestamp": "2025-04-17T03:06:55.392465Z", "free_bikes": 1, "empty_slots": 19, "extra": {"uid": "500711014", "district": "\u82d7\u6817\u5e02", "address": "\u4e2d\u6b63\u8def560\u865f", "slots": 20, "normal_bikes": 1, "ebikes": 0, "last_updated": "2025-04-17 09:26:18", "online": true, "youbike_version": 2, "en": {"name": "Zhongzheng Rd./ Jiantai St.(CHT)", "district": "Miaoli Town", "address": "No. 560, Zhongzheng Rd"}}}, {"id": "762cf8e5c577a17e4db8479d43f50e1f", "name": "\u5c71\u8173\u570b\u5c0f", "latitude": 24.41664, "longitude": 120.68589, "timestamp": "2025-04-17T03:06:55.392328Z", "free_bikes": 6, "empty_slots": 6, "extra": {"uid": "500710005", "district": "\u82d1\u88e1\u93ae", "address": "\u5c71\u8173\u91cc14\u9130378\u865f(\u897f\u5074)", "slots": 12, "normal_bikes": 1, "ebikes": 5, "last_updated": "2025-04-17 05:36:21", "online": true, "youbike_version": 2, "en": {"name": "Shanjiao Elementary School", "district": "Yuanli Town", "address": "No.378, 14th Shanjiao Vil. (West)"}}}, {"id": "7769a0bdaaf8f2a4b2218aa24bc65597", "name": "\u6587\u6797\u570b\u4e2d", "latitude": 24.48993, "longitude": 120.79019, "timestamp": "2025-04-17T03:06:55.392710Z", "free_bikes": 3, "empty_slots": 17, "extra": {"uid": "500716003", "district": "\u9285\u947c\u9109", "address": "\u5fa9\u8208\u8def16\u865f", "slots": 20, "normal_bikes": 3, "ebikes": 0, "last_updated": "2025-04-12 08:10:24", "online": true, "youbike_version": 2, "en": {"name": "Wenlin Junior High School", "district": "Tongluo Town", "address": "No. 16, Fuxing Road"}}}, {"id": "77bfc99f4e730140e82ffe092b14b700", "name": "\u516c\u9928\u8fb2\u6703", "latitude": 24.5057, "longitude": 120.827, "timestamp": "2025-04-17T03:06:55.391620Z", "free_bikes": 5, "empty_slots": 7, "extra": {"uid": "500704001", "district": "\u516c\u9928\u9109", "address": "\u5927\u540c\u8def286\u865f\u5c0d\u9762(\u897f\u5074)", "slots": 12, "normal_bikes": 4, "ebikes": 1, "last_updated": "2025-04-17 07:00:26", "online": true, "youbike_version": 2, "en": {"name": "Gongguan Peasant Association", "district": "Gongguan Town", "address": "No. 286, Datong Rd.(West)"}}}, {"id": "788d27fecec10c7d544260c10c337052", "name": "\u806f\u5408\u5927\u5b78\u4e8c\u576a\u7c43\u7403\u5834\u7ad9", "latitude": 24.54546, "longitude": 120.8131, "timestamp": "2025-04-17T03:06:55.392563Z", "free_bikes": 14, "empty_slots": 16, "extra": {"uid": "500711028", "district": "\u82d7\u6817\u5e02", "address": "\u806f\u5927\u8def1\u865f", "slots": 30, "normal_bikes": 8, "ebikes": 6, "last_updated": "2025-04-17 09:50:27", "online": true, "youbike_version": 2, "en": {"name": "National United University Erping basketball court station", "district": "Miaoli Town", "address": "No. 1, Lianda Rd"}}}, {"id": "78f7a07e3c1cca5d9acfdbc4bee42544", "name": "\u4eac\u5143\u96fb\u5b50", "latitude": 24.7108, "longitude": 120.92366, "timestamp": "2025-04-17T03:06:55.392084Z", "free_bikes": 19, "empty_slots": 6, "extra": {"uid": "500705027", "district": "\u7af9\u5357\u93ae", "address": "\u4e2d\u83ef\u8def118\u865f", "slots": 25, "normal_bikes": 5, "ebikes": 14, "last_updated": "2025-04-17 10:10:24", "online": true, "youbike_version": 2, "en": {"name": "KING YUAN ELECTRONICS COMPANY", "district": "Zhunan Town", "address": "No. 118, Zhonghua Rd"}}}, {"id": "78fe994be1db6ff1576db61d26c757e2", "name": "\u9f8d\u5c71\u4f73\u5317\u4e8c\u8857\u53e3(\u505c\u8eca\u5834)", "latitude": 24.70249, "longitude": 120.88081, "timestamp": "2025-04-17T03:06:55.391673Z", "free_bikes": 14, "empty_slots": 34, "extra": {"uid": "500705002", "district": "\u7af9\u5357\u93ae", "address": "\u4f73\u5317\u4e8c\u88571\u865f(\u6771\u5074)", "slots": 48, "normal_bikes": 2, "ebikes": 12, "last_updated": "2025-04-17 09:02:19", "online": true, "youbike_version": 2, "en": {"name": "Longshan Rd./Jiabei 2nd St.(Parking Lot)", "district": "Zhunan Town", "address": "No.1, Jiabei 3rd St. (East)"}}}, {"id": "7b86dc6fd8423e2e299ca129fcbe4cea", "name": "\u5efa\u570b\u570b\u4e2d\u6148\u8f1d\u5206\u6821", "latitude": 24.70091, "longitude": 120.89656, "timestamp": "2025-04-17T03:06:55.392921Z", "free_bikes": 8, "empty_slots": 12, "extra": {"uid": "500717036", "district": "\u982d\u4efd\u5e02", "address": "\u516b\u5fb7\u4e8c\u8def138\u865f", "slots": 20, "normal_bikes": 2, "ebikes": 6, "last_updated": "2025-04-17 06:31:19", "online": true, "youbike_version": 2, "en": {"name": "Jianguo Junior High School Cihui Branch", "district": "Toufen Town", "address": "No.131,Bade 2nd Road"}}}, {"id": "80ad1019f44f8163086176df0f87d572", "name": "\u7b2c\u4e8c\u505c\u8eca\u5834", "latitude": 24.71011, "longitude": 120.90225, "timestamp": "2025-04-17T03:06:55.392029Z", "free_bikes": 3, "empty_slots": 20, "extra": {"uid": "500705020", "district": "\u7af9\u5357\u93ae", "address": "\u79d1\u5c08\u4e94\u8def248\u865f(\u5c0d\u5074)", "slots": 23, "normal_bikes": 3, "ebikes": 0, "last_updated": "2025-04-17 08:50:25", "online": true, "youbike_version": 2, "en": {"name": "No. 2 parking lot", "district": "Zhunan Town", "address": "No. 248, Kezhuan 5th Rd(opposite side)"}}}, {"id": "80b4006b79424a9505101a1d948d3018", "name": "\u6148\u88d5\u5bae(\u4e2d\u6e2f\u8001\u8857)", "latitude": 24.68226, "longitude": 120.86421, "timestamp": "2025-04-17T03:06:55.392118Z", "free_bikes": 6, "empty_slots": 10, "extra": {"uid": "500705031", "district": "\u7af9\u5357\u93ae", "address": "\u6c11\u751f\u8def7\u865f", "slots": 16, "normal_bikes": 4, "ebikes": 2, "last_updated": "2025-04-17 05:44:22", "online": true, "youbike_version": 2, "en": {"name": "Zhonggang Cihyu Temple(Zhonggang Old Street)", "district": "Zhunan Town", "address": "No. 7, Minsheng Rd"}}}, {"id": "81f3b47ee5fb82f97917b8de91167434", "name": "\u6ff1\u6d77\u85dd\u6587\u4e2d\u5fc3(\u51fa\u6c34\u516c\u5712)", "latitude": 24.45337, "longitude": 120.64375, "timestamp": "2025-04-17T03:06:55.392340Z", "free_bikes": 1, "empty_slots": 14, "extra": {"uid": "500710007", "district": "\u82d1\u88e1\u93ae", "address": "\u51fa\u6c34\u8def64-11\u865f(\u5357\u5074)", "slots": 15, "normal_bikes": 1, "ebikes": 0, "last_updated": "2025-04-16 18:40:24", "online": true, "youbike_version": 2, "en": {"name": "Yuanli Binhai Art Center(Chushui  Park)", "district": "Yuanli Town", "address": "No. 64-11, Chushui Rd, Yuanli, Miaoli County, 358"}}}, {"id": "84974e825c83988874ca052126a96372", "name": "\u7af9\u5357\u93ae\u516c\u6240", "latitude": 24.6837, "longitude": 120.8734, "timestamp": "2025-04-17T03:06:55.391701Z", "free_bikes": 37, "empty_slots": 21, "extra": {"uid": "500705007", "district": "\u7af9\u5357\u93ae", "address": "\u4e2d\u6b63\u8def112\u865f\u524d\u65b9", "slots": 58, "normal_bikes": 17, "ebikes": 20, "last_updated": "2025-04-17 10:50:25", "online": true, "youbike_version": 2, "en": {"name": "Zhunan Township Office", "district": "Zhunan Town", "address": "No.112, Zhongzheng Rd."}}}, {"id": "8656f9831056a7c55cfb2e3697deaca7", "name": "\u7af9\u8208\u91cc\u7167\u5357\u6162\u901f\u58d8\u7403\u5834", "latitude": 24.68921, "longitude": 120.86555, "timestamp": "2025-04-17T03:06:55.392111Z", "free_bikes": 13, "empty_slots": 6, "extra": {"uid": "500705030", "district": "\u7af9\u5357\u93ae", "address": "\u535a\u611b\u8857441\u865f(\u5317\u5074)", "slots": 20, "normal_bikes": 12, "ebikes": 1, "last_updated": "2025-04-17 06:42:21", "online": true, "youbike_version": 2, "en": {"name": "Zhuxingli Zhaonan Slow Pitch Softball Field", "district": "Zhunan Town", "address": "No. 441, Bo'ai St (north side)"}}}, {"id": "8702b490b256334d8b4d9c104a8920a8", "name": "\u4fe1\u4e09\u6797\u68ee\u8def\u53e3(\u516c\u5712)", "latitude": 24.6907, "longitude": 120.8972, "timestamp": "2025-04-17T03:06:55.392814Z", "free_bikes": 4, "empty_slots": 16, "extra": {"uid": "500717016", "district": "\u982d\u4efd\u5e02", "address": "\u6797\u68ee\u8def52\u865f\u65c1", "slots": 20, "normal_bikes": 4, "ebikes": 0, "last_updated": "2025-04-17 08:14:18", "online": true, "youbike_version": 2, "en": {"name": "Xin 3rd St./ Linsen Rd.(Park)", "district": "Toufen Town", "address": "No. 52, Linsen Rd."}}}, {"id": "8717fe4547eb330d918461b99b9d0acb", "name": "\u82d1\u88e1\u9ad4\u80b2\u5834", "latitude": 24.43749, "longitude": 120.65504, "timestamp": "2025-04-17T03:06:55.392322Z", "free_bikes": 2, "empty_slots": 18, "extra": {"uid": "500710004", "district": "\u82d1\u88e1\u93ae", "address": "\u4e2d\u6b63\u8def\u4e00\u6bb532\u865f(\u5317\u5074)", "slots": 20, "normal_bikes": 2, "ebikes": 0, "last_updated": "2025-04-17 08:46:17", "online": true, "youbike_version": 2, "en": {"name": "Yuanli Stadium", "district": "Yuanli Town", "address": "No.32, Sec. 1, Zhongzheng Rd. (North)"}}}, {"id": "878c8dc7caf16c1b7b5a9ff2597e6b4b", "name": "\u516c\u9928\u591c\u5e02\u505c\u8eca\u5834", "latitude": 24.503, "longitude": 120.8239, "timestamp": "2025-04-17T03:06:55.391627Z", "free_bikes": 5, "empty_slots": 10, "extra": {"uid": "500704002", "district": "\u516c\u9928\u9109", "address": "\u901a\u660e\u885768\u865f\u5c0d\u9762(\u5357\u5074)", "slots": 15, "normal_bikes": 3, "ebikes": 2, "last_updated": "2025-04-17 06:45:23", "online": true, "youbike_version": 2, "en": {"name": "Gongguan Night Market Parking Lot", "district": "Gongguan Town", "address": "No. 68, Tongming St.(South)"}}}, {"id": "88769d93951f05375ec2fd7e007c87ca", "name": "\u4e09\u7fa9\u706b\u8eca\u7ad9", "latitude": 24.42041, "longitude": 120.77389, "timestamp": "2025-04-17T03:06:55.391527Z", "free_bikes": 13, "empty_slots": 7, "extra": {"uid": "500701001", "district": "\u4e09\u7fa9\u9109", "address": "\u96d9\u6e5690\u865f(\u5357\u7aef\u6a5f\u8eca\u505c\u8eca\u5834)", "slots": 20, "normal_bikes": 13, "ebikes": 0, "last_updated": "2025-04-17 06:42:21", "online": true, "youbike_version": 2, "en": {"name": "TRA Sanyi Station", "district": "Sanyi Town", "address": "No. 90, Shuanghu(Motorcycle Parking Lot)"}}}, {"id": "88e8b8d0f4e9eeceb0b3b8474e41ec12", "name": "\u8ac7\u6587\u706b\u8eca\u7ad9", "latitude": 24.65623, "longitude": 120.85796, "timestamp": "2025-04-17T03:06:55.392699Z", "free_bikes": 2, "empty_slots": 18, "extra": {"uid": "500714003", "district": "\u9020\u6a4b\u9109", "address": "\u4ec1\u611b\u8def29\u865f", "slots": 20, "normal_bikes": 2, "ebikes": 0, "last_updated": "2025-04-16 08:20:25", "online": true, "youbike_version": 2, "en": {"name": "Tanwen Railway Station", "district": "Zaoqiao Town", "address": "No. 29 Renai Road"}}}, {"id": "8957e0d747f07279e80889abc5d61460", "name": "\u4ec1\u611b\u79d1\u5c08\u4e8c\u8def\u53e3", "latitude": 24.71025, "longitude": 120.90606, "timestamp": "2025-04-17T03:06:55.392039Z", "free_bikes": 8, "empty_slots": 17, "extra": {"uid": "500705021", "district": "\u7af9\u5357\u93ae", "address": "\u4ec1\u611b\u8def/\u79d1\u5c08\u4e8c\u8def\u53e3", "slots": 25, "normal_bikes": 3, "ebikes": 5, "last_updated": "2025-04-17 02:35:18", "online": true, "youbike_version": 2, "en": {"name": "Ren Ai and  Kezhuan 2th Rd.", "district": "Zhunan Town", "address": "Ren Ai and  Kezhuan 2th Rd."}}}, {"id": "89b64d2c1cfabb877f4cc7324ec2af08", "name": "\u82d7\u6817\u8fb2\u5de5", "latitude": 24.5573, "longitude": 120.8351, "timestamp": "2025-04-17T03:06:55.392402Z", "free_bikes": 58, "empty_slots": 22, "extra": {"uid": "500711003", "district": "\u82d7\u6817\u5e02", "address": "\u7389\u7dad\u8def/\u7389\u6e05\u8def380\u5df7\u53e3", "slots": 80, "normal_bikes": 24, "ebikes": 34, "last_updated": "2025-04-17 09:34:19", "online": true, "youbike_version": 2, "en": {"name": "National Miao-Li Agricultural & Industrial Vocational High School", "district": "Miaoli Town", "address": "Yuwei Rd./Ln. 380, Yuqing Rd."}}}, {"id": "8a36247e7d55ec000f2dcdf15085a749", "name": "\u65b0\u57d4\u706b\u8eca\u7ad9", "latitude": 24.54073, "longitude": 120.69519, "timestamp": "2025-04-17T03:06:55.392653Z", "free_bikes": 1, "empty_slots": 16, "extra": {"uid": "500713006", "district": "\u901a\u9704\u93ae", "address": "\u65b0\u57d457 \u865f", "slots": 17, "normal_bikes": 1, "ebikes": 0, "last_updated": "2025-04-16 11:50:24", "online": true, "youbike_version": 2, "en": {"name": "Xinpu Railway Station", "district": "Tongxiao Town", "address": "No.57 Xinpu"}}}, {"id": "8a845f923af7859afc55c038682b3069", "name": "\u7af9\u5357\u706b\u8eca\u7ad9(\u897f\u7ad9)", "latitude": 24.6868, "longitude": 120.88, "timestamp": "2025-04-17T03:06:55.391696Z", "free_bikes": 0, "empty_slots": 50, "extra": {"uid": "500705006", "district": "\u7af9\u5357\u93ae", "address": "\u4e2d\u5c71\u8def125-1\u865f", "slots": 50, "normal_bikes": 0, "ebikes": 0, "last_updated": "2025-04-17 11:02:18", "online": true, "youbike_version": 2, "en": {"name": "TRA Zhunan Station (West)", "district": "Zhunan Town", "address": "No.125-1, Zhongshan Rd."}}}, {"id": "8d440fe4fbecebf6ca709438b5773fe0", "name": "\u516c\u7fa9\u79d1\u5b78\u8def\u53e3", "latitude": 24.71419, "longitude": 120.90602, "timestamp": "2025-04-17T03:06:55.392048Z", "free_bikes": 1, "empty_slots": 24, "extra": {"uid": "500705022", "district": "\u7af9\u5357\u93ae", "address": "\u79d1\u5b78\u8def243\u865f(\u897f\u5317\u5074)", "slots": 25, "normal_bikes": 0, "ebikes": 1, "last_updated": "2025-04-17 10:06:18", "online": true, "youbike_version": 2, "en": {"name": "Gongyi Kexue Intersection", "district": "Zhunan Town", "address": "No.243 kexue Rd(northwest side)"}}}, {"id": "8ebf6a3de74b3cddac90b99c7fc9059b", "name": "\u901a\u9704\u706b\u8eca\u7ad9", "latitude": 24.4914, "longitude": 120.6786, "timestamp": "2025-04-17T03:06:55.392630Z", "free_bikes": 7, "empty_slots": 14, "extra": {"uid": "500713002", "district": "\u901a\u9704\u93ae", "address": "\u4e2d\u5c71\u8def109\u865f\u65c1(\u5317\u5074)", "slots": 22, "normal_bikes": 7, "ebikes": 0, "last_updated": "2025-04-17 10:02:18", "online": true, "youbike_version": 2, "en": {"name": "TRA Tongxiao Station", "district": "Tongxiao Town", "address": "No. 109, Zhongshan Rd.(North)"}}}, {"id": "8eeb1c6b679a9adc835c4681d0266289", "name": "\u9020\u6a4b\u706b\u8eca\u7ad9", "latitude": 24.64184, "longitude": 120.8672, "timestamp": "2025-04-17T03:06:55.392693Z", "free_bikes": 10, "empty_slots": 9, "extra": {"uid": "500714002", "district": "\u9020\u6a4b\u9109", "address": "\u5e73\u4ec1\u8def53\u4e4b1\u865f", "slots": 20, "normal_bikes": 3, "ebikes": 7, "last_updated": "2025-04-16 10:40:24", "online": true, "youbike_version": 2, "en": {"name": "Zaoqiao Railway Station", "district": "Zaoqiao Town", "address": "No. 53-1, Pingren Road"}}}, {"id": "9130159ac916f7f3ad936cd3a6cc9f44", "name": "\u5b98\u7fa9\u6e21\u751f\u614b\u516c\u5712", "latitude": 24.6654, "longitude": 120.84309, "timestamp": "2025-04-17T03:06:55.392144Z", "free_bikes": 6, "empty_slots": 14, "extra": {"uid": "500705035", "district": "\u7af9\u5357\u93ae", "address": "\u4e94\u798f\u5927\u6a4b\u4e0b", "slots": 20, "normal_bikes": 6, "ebikes": 0, "last_updated": "2025-04-17 06:42:21", "online": true, "youbike_version": 2, "en": {"name": "Guanyidu Ecological Park", "district": "Zhunan Town", "address": "Under Wufu Bridge"}}}, {"id": "91411247f468750c1509da87678b58a4", "name": "\u4ec1\u5fb7\u91ab\u5c08", "latitude": 24.6203, "longitude": 120.7798, "timestamp": "2025-04-17T03:06:55.392236Z", "free_bikes": 13, "empty_slots": 23, "extra": {"uid": "500709004", "district": "\u5f8c\u9f8d\u93ae", "address": "\u52dd\u5229\u8def60\u4e4b1\u865f\u65c1(\u6771\u5074)", "slots": 36, "normal_bikes": 13, "ebikes": 0, "last_updated": "2025-04-17 10:50:25", "online": true, "youbike_version": 2, "en": {"name": "Jenteh Junior College of Medicine, Nursing and Management", "district": "Houlong Town", "address": "No. 60-1, Shengli Rd.(East)"}}}, {"id": "94d43c3e632509df80652364a3d23cd0", "name": "\u555f\u6587\u570b\u5c0f(\u8c50\u5e74\u8def)", "latitude": 24.57417, "longitude": 120.82663, "timestamp": "2025-04-17T03:06:55.392487Z", "free_bikes": 2, "empty_slots": 18, "extra": {"uid": "500711018", "district": "\u82d7\u6817\u5e02", "address": "\u8c50\u5e74\u8def140\u865f", "slots": 20, "normal_bikes": 0, "ebikes": 2, "last_updated": "2025-04-17 10:22:17", "online": true, "youbike_version": 2, "en": {"name": "Chiwen Elementary School(Fengnian Road)", "district": "Miaoli Town", "address": "No. 140 Fengnian Road"}}}, {"id": "955166ee952d09a7c7a052d718f6d9ec", "name": "\u82d7\u6817\u9ec3\u660f\u5e02\u5834", "latitude": 24.5611, "longitude": 120.8227, "timestamp": "2025-04-17T03:06:55.392453Z", "free_bikes": 1, "empty_slots": 29, "extra": {"uid": "500711012", "district": "\u82d7\u6817\u5e02", "address": "\u4e2d\u6b63\u8def/\u4e2d\u6b63\u8def393\u5df7\u53e3(\u6771\u5317\u5074)", "slots": 30, "normal_bikes": 0, "ebikes": 1, "last_updated": "2025-04-17 10:28:17", "online": true, "youbike_version": 2, "en": {"name": "Miaoli Sunset Market", "district": "Miaoli Town", "address": "Zhongzheng Rd./Ln. 393, Zhongzheng Rd.(Northeast)"}}}, {"id": "95b6e2fda23fb8aa73c47082bd3c3d8d", "name": "\u5f8c\u9f8d\u706b\u8eca\u7ad9", "latitude": 24.6161, "longitude": 120.7875, "timestamp": "2025-04-17T03:06:55.392230Z", "free_bikes": 1, "empty_slots": 70, "extra": {"uid": "500709003", "district": "\u5f8c\u9f8d\u93ae", "address": "\u8eca\u7ad9\u8857127\u4e4b2\u865f(\u6771\u5074)", "slots": 72, "normal_bikes": 1, "ebikes": 0, "last_updated": "2025-04-17 10:01:17", "online": true, "youbike_version": 2, "en": {"name": "TRA Houlong Station", "district": "Houlong Town", "address": "No. 127-2, Chezhan St.(East)"}}}, {"id": "95be51849187e9b22d56469a0ee83ed5", "name": "\u548c\u5e73\u5bcc\u5f37\u4e8c\u8857\u53e3", "latitude": 24.68635, "longitude": 120.89804, "timestamp": "2025-04-17T03:06:55.392891Z", "free_bikes": 4, "empty_slots": 21, "extra": {"uid": "500717031", "district": "\u982d\u4efd\u5e02", "address": "\u5bcc\u5f37\u4e8c\u88571\u865f", "slots": 25, "normal_bikes": 2, "ebikes": 2, "last_updated": "2025-04-17 10:41:17", "online": true, "youbike_version": 2, "en": {"name": "Heping and Fuqiang St", "district": "Toufen Town", "address": "No. 1, Fuqiang 2nd Street"}}}, {"id": "95eff6cf9694328d60da8f464236113a", "name": "\u516c\u9928\u9109\u7acb\u5716\u66f8\u9928", "latitude": 24.4998, "longitude": 120.8262, "timestamp": "2025-04-17T03:06:55.391632Z", "free_bikes": 1, "empty_slots": 11, "extra": {"uid": "500704003", "district": "\u516c\u9928\u9109", "address": "\u5bae\u524d\u8def6\u4e4b1\u865f\u524d(\u897f\u5074)", "slots": 12, "normal_bikes": 0, "ebikes": 1, "last_updated": "2025-04-15 17:05:18", "online": true, "youbike_version": 2, "en": {"name": "Gongguan Township Public Library", "district": "Gongguan Town", "address": "No. 6-1, Gongqian Rd.(West)"}}}, {"id": "979f36aa0e035b6eae3fa588418cd427", "name": "\u5efa\u570b\u570b\u4e2d(\u5fe0\u5b5d\u4e8c\u8def)", "latitude": 24.69463, "longitude": 120.91124, "timestamp": "2025-04-17T03:06:55.392840Z", "free_bikes": 10, "empty_slots": 15, "extra": {"uid": "500717020", "district": "\u982d\u4efd\u5e02", "address": "\u5efa\u570b\u8def119\u865f", "slots": 25, "normal_bikes": 10, "ebikes": 0, "last_updated": "2025-04-17 10:13:19", "online": true, "youbike_version": 2, "en": {"name": "Municipal Jianguoguomin Junior High School(Zhongxiao 2nd Road)", "district": "Toufen Town", "address": "No. 119, Jianguo Rd"}}}, {"id": "9a2b6f817c935bc53848b1ff6ffa7e9e", "name": "\u82d7\u6817\u9ad8\u4e2d", "latitude": 24.5584, "longitude": 120.8163, "timestamp": "2025-04-17T03:06:55.392470Z", "free_bikes": 68, "empty_slots": 29, "extra": {"uid": "500711015", "district": "\u82d7\u6817\u5e02", "address": "\u81f3\u516c\u8def183\u865f(\u6821\u9580\u53e3\u5c0d\u9762\u4eba\u884c\u9053)", "slots": 99, "normal_bikes": 19, "ebikes": 49, "last_updated": "2025-04-17 08:23:18", "online": true, "youbike_version": 2, "en": {"name": "National Miaoli Senior High School", "district": "Miaoli Town", "address": "No. 183, Zhigong Rd. (opposite)"}}}, {"id": "9a4a7733115342e7b9a27fb18e7d8000", "name": "\u74b0\u5e02\u535a\u611b\u8857\u53e3", "latitude": 24.68766, "longitude": 120.8696, "timestamp": "2025-04-17T03:06:55.392102Z", "free_bikes": 1, "empty_slots": 28, "extra": {"uid": "500705029", "district": "\u7af9\u5357\u93ae", "address": "\u74b0\u5e02\u8def\u4e8c\u6bb5259\u865f", "slots": 29, "normal_bikes": 0, "ebikes": 1, "last_updated": "2025-04-17 07:20:25", "online": true, "youbike_version": 2, "en": {"name": "Huanshi Bo'ai St", "district": "Zhunan Town", "address": "No. 259, Section 2, Huanshi Rd"}}}, {"id": "9aac9d44f12f7a3adb3fa8a7d3ab8526", "name": "\u90f5\u96fb\u8857\u65b0\u90fd\u8857\u53e3(\u9ad8\u67b6\u6a4b\u4e0b)", "latitude": 24.5593, "longitude": 120.8197, "timestamp": "2025-04-17T03:06:55.392447Z", "free_bikes": 12, "empty_slots": 16, "extra": {"uid": "500711011", "district": "\u82d7\u6817\u5e02", "address": "\u4e2d\u5c71\u8def536\u865f(\u897f\u5074)", "slots": 28, "normal_bikes": 10, "ebikes": 2, "last_updated": "2025-04-17 08:40:24", "online": true, "youbike_version": 2, "en": {"name": "Youdian St./Xindu St.", "district": "Miaoli Town", "address": "No. 536, Zhongshan Rd.(West)"}}}, {"id": "9c7dd053628facfce6ed143edab6f1ad", "name": "\u5c1a\u9806\u5ee3\u5834", "latitude": 24.6896, "longitude": 120.9046, "timestamp": "2025-04-17T03:06:55.392734Z", "free_bikes": 4, "empty_slots": 56, "extra": {"uid": "500717005", "district": "\u982d\u4efd\u5e02", "address": "\u4e2d\u592e\u8def130\u865f\u5c0d\u9762\u4eba\u884c\u9053", "slots": 60, "normal_bikes": 4, "ebikes": 0, "last_updated": "2025-04-17 09:53:18", "online": true, "youbike_version": 2, "en": {"name": "Shang Shun Plaza", "district": "Toufen Town", "address": "No. 130, Zhongyang Rd. (opposite)"}}}, {"id": "a25ea4660e07a89f80bc0bea9e745289", "name": "\u5efa\u570b\u4e2d\u8208\u8def\u53e3(\u5efa\u570b\u570b\u4e2d)", "latitude": 24.6958, "longitude": 120.9091, "timestamp": "2025-04-17T03:06:55.392796Z", "free_bikes": 25, "empty_slots": 10, "extra": {"uid": "500717014", "district": "\u982d\u4efd\u5e02", "address": "\u5efa\u570b\u8def/\u4e2d\u8208\u8def\u53e3(\u897f\u5357\u5074)", "slots": 35, "normal_bikes": 12, "ebikes": 13, "last_updated": "2025-04-17 10:20:23", "online": true, "youbike_version": 2, "en": {"name": "Jianguo Rd./Zhongxing Rd.(Jian Guo Junior High School)", "district": "Toufen Town", "address": "Jianguo Rd./Zhongxing Rd.(Southwast)"}}}, {"id": "a4fb1de07c470435a6d74f3a9633cab2", "name": "\u82d1\u88e1\u93ae\u7acb\u5716\u66f8\u9928", "latitude": 24.43932, "longitude": 120.65296, "timestamp": "2025-04-17T03:06:55.392316Z", "free_bikes": 7, "empty_slots": 8, "extra": {"uid": "500710003", "district": "\u82d1\u88e1\u93ae", "address": "\u516c\u6c11\u885716\u865f(\u6771\u5357\u5074)", "slots": 15, "normal_bikes": 6, "ebikes": 1, "last_updated": "2025-04-17 06:31:18", "online": true, "youbike_version": 2, "en": {"name": "Yuanli Township Public Library", "district": "Yuanli Town", "address": "No.16, Gongmin St. (Southeast)"}}}, {"id": "a544fc3adb4600afe510d12bc34a5bc0", "name": "\u4ec1\u5fb7\u91ab\u5c08(\u6821\u5712)", "latitude": 24.6234, "longitude": 120.7817, "timestamp": "2025-04-17T03:06:55.392247Z", "free_bikes": 64, "empty_slots": 16, "extra": {"uid": "500709006", "district": "\u5f8c\u9f8d\u93ae", "address": "\u6eaa\u6d32\u91cc7\u9130\u7802\u5d19\u6e5679-9\u865f(\u5fa9\u6280\u5927\u6a13\u524d)", "slots": 80, "normal_bikes": 36, "ebikes": 28, "last_updated": "2025-04-17 10:49:18", "online": true, "youbike_version": 2, "en": {"name": "Jenteh Junior College of Medicine, Nursing and Management(campus)", "district": "Houlong Town", "address": "No. 79-9, Shalunhu."}}}, {"id": "a5cb90fd8756af47cbe8b628e68711a0", "name": "\u97f3\u6a02\u516c\u5712", "latitude": 24.68766, "longitude": 120.89998, "timestamp": "2025-04-17T03:06:55.392898Z", "free_bikes": 7, "empty_slots": 18, "extra": {"uid": "500717032", "district": "\u982d\u4efd\u5e02", "address": "\u660c\u9686\u4e00\u88573\u865f", "slots": 25, "normal_bikes": 1, "ebikes": 6, "last_updated": "2025-04-16 16:00:27", "online": true, "youbike_version": 2, "en": {"name": "Toufenyinyue Park", "district": "Toufen Town", "address": "No. 3, Changlong 1st Street"}}}, {"id": "a6b2c27c8aac442c7222649bb8897962", "name": "\u82d7\u6817\u5730\u65b9\u6cd5\u9662", "latitude": 24.5446, "longitude": 120.8166, "timestamp": "2025-04-17T03:06:55.392436Z", "free_bikes": 13, "empty_slots": 17, "extra": {"uid": "500711009", "district": "\u82d7\u6817\u5e02", "address": "\u4e2d\u6b63\u8def\u4e2d\u8208\u8857\u53e3\u6771\u5074\u4eba\u884c\u9053", "slots": 30, "normal_bikes": 9, "ebikes": 4, "last_updated": "2025-04-17 05:50:29", "online": true, "youbike_version": 2, "en": {"name": "Taiwan Miaoli District Court", "district": "Miaoli Town", "address": "Zhongzheng Rd./Zhongxing St."}}}, {"id": "a6f352a4852b5470a07702805a175402", "name": "\u82d1\u88e1\u93ae\u8fb2\u6703(\u611b\u60c5\u679c\u5712)", "latitude": 24.41356, "longitude": 120.6853, "timestamp": "2025-04-17T03:06:55.392368Z", "free_bikes": 2, "empty_slots": 18, "extra": {"uid": "500710012", "district": "\u82d1\u88e1\u93ae", "address": "\u5f4e\u9e97\u8def98\u865f", "slots": 20, "normal_bikes": 2, "ebikes": 0, "last_updated": "2025-04-11 15:37:17", "online": true, "youbike_version": 2, "en": {"name": "Yuanli Town Farmers Association Wanli Love Orchard", "district": "Yuanli Town", "address": "No. 101, Wanli Rd"}}}, {"id": "a71ea31ee08a43e53ecc1271944edd39", "name": "\u81fa\u9e7d\u901a\u9704\u89c0\u5149\u5712\u5340", "latitude": 24.5564, "longitude": 120.7043, "timestamp": "2025-04-17T03:06:55.392636Z", "free_bikes": 7, "empty_slots": 5, "extra": {"uid": "500713003", "district": "\u901a\u9704\u93ae", "address": "\u5167\u5cf6\u91cc122\u865f", "slots": 12, "normal_bikes": 5, "ebikes": 2, "last_updated": "2025-04-17 10:13:19", "online": true, "youbike_version": 2, "en": {"name": "Taiyen Tung-Hsiao Tourism Park", "district": "Tongxiao Town", "address": "No. 122, Neidao."}}}, {"id": "a8f41627609728e01bb39b5f616a3352", "name": "\u982d\u4efd\u89aa\u5b50\u9928", "latitude": 24.69734, "longitude": 120.89583, "timestamp": "2025-04-17T03:06:55.392915Z", "free_bikes": 1, "empty_slots": 19, "extra": {"uid": "500717035", "district": "\u982d\u4efd\u5e02", "address": "\u5408\u8208\u885732\u865f", "slots": 20, "normal_bikes": 0, "ebikes": 1, "last_updated": "2025-04-17 11:05:17", "online": true, "youbike_version": 2, "en": {"name": "Toufen Parent-Child Center", "district": "Toufen Town", "address": "No. 32, Hexing St."}}}, {"id": "aa2422dc1bb5317587cc458778e7deaa", "name": "\u65b0\u8208\u570b\u5c0f", "latitude": 24.674716, "longitude": 120.912777, "timestamp": "2025-04-17T03:06:55.392874Z", "free_bikes": 2, "empty_slots": 13, "extra": {"uid": "500717027", "district": "\u982d\u4efd\u5e02", "address": "\u6c34\u6e90\u8def157\u865f(\u5357\u5074)", "slots": 15, "normal_bikes": 1, "ebikes": 1, "last_updated": "2025-04-17 08:45:18", "online": true, "youbike_version": 2, "en": {"name": "Miaolixiantoufenshixinxing Elementary School", "district": "Toufen Town", "address": "No. 157, Shuiyuan Rd"}}}, {"id": "ac47484394b98a9c9b6d7a8f7ee94e94", "name": "\u516c\u7fa9\u79d1\u5c08\u516d\u8def\u53e3(\u5927\u540c\u9ad8\u4e2d)", "latitude": 24.70897, "longitude": 120.89664, "timestamp": "2025-04-17T03:06:55.391679Z", "free_bikes": 13, "empty_slots": 17, "extra": {"uid": "500705003", "district": "\u7af9\u5357\u93ae", "address": "\u516c\u7fa9\u8def936\u865f\u524d", "slots": 30, "normal_bikes": 6, "ebikes": 7, "last_updated": "2025-04-17 07:50:24", "online": true, "youbike_version": 2, "en": {"name": "Gongyi Rd./ Kezhuan 6th Rd.(Datong Senior High School)", "district": "Zhunan Town", "address": "No.936, Gongyi Rd."}}}, {"id": "ad8977a7d30286563aa0c06495c3abbe", "name": "\u82d1\u88e1\u706b\u8eca\u7ad9", "latitude": 24.44325, "longitude": 120.651536, "timestamp": "2025-04-17T03:06:55.392304Z", "free_bikes": 10, "empty_slots": 89, "extra": {"uid": "500710001", "district": "\u82d1\u88e1\u93ae", "address": "\u4e2d\u5c71\u8def165 \u865f(\u6771\u5317\u5074)", "slots": 99, "normal_bikes": 7, "ebikes": 3, "last_updated": "2025-04-17 10:50:25", "online": true, "youbike_version": 2, "en": {"name": "TRA Yuanli Station", "district": "Yuanli Town", "address": "No. 165, Zhongshan Rd.(northeast)"}}}, {"id": "ad96c4c492d3c3b5eba118d1c1591503", "name": "\u79cb\u8302\u5712", "latitude": 24.53717, "longitude": 120.69438, "timestamp": "2025-04-17T03:06:55.392658Z", "free_bikes": 5, "empty_slots": 12, "extra": {"uid": "500713007", "district": "\u901a\u9704\u93ae", "address": "\u901a\u7063\u91cc20-1\u865f", "slots": 17, "normal_bikes": 5, "ebikes": 0, "last_updated": "2025-04-16 12:50:24", "online": true, "youbike_version": 2, "en": {"name": "Autumn Mao Garden", "district": "Tongxiao Town", "address": "357, Miaoli County, Tongxiao Township"}}}, {"id": "b208046428bcf026c934034634705c6f", "name": "\u7dad\u65b0\u8def317\u5df7\u53e3", "latitude": 24.69042, "longitude": 120.88187, "timestamp": "2025-04-17T03:06:55.392167Z", "free_bikes": 1, "empty_slots": 23, "extra": {"uid": "500705039", "district": "\u7af9\u5357\u93ae", "address": "\u7dad\u65b0\u8def315\u865f(\u6771\u5074)", "slots": 24, "normal_bikes": 1, "ebikes": 0, "last_updated": "2025-04-17 08:01:18", "online": true, "youbike_version": 2, "en": {"name": "Lane 317, Weixin Rd.", "district": "Zhunan Town", "address": "No. 315, Weixin Road (east side)"}}}, {"id": "b25760b9af730d0b38352322ac00a10b", "name": "\u4e2d\u592e\u516c\u5712\u4e09\u8857\u53e3", "latitude": 24.69398, "longitude": 120.88884, "timestamp": "2025-04-17T03:06:55.393118Z", "free_bikes": 5, "empty_slots": 23, "extra": {"uid": "500717043", "district": "\u982d\u4efd\u5e02", "address": "\u4e2d\u592e\u8def753\u865f", "slots": 28, "normal_bikes": 4, "ebikes": 1, "last_updated": "2025-04-17 09:02:19", "online": true, "youbike_version": 2, "en": {"name": "central park three st.", "district": "Toufen Town", "address": "No. 753, Central Road"}}}, {"id": "b37387cf9b8bd709a1f87de1923905bb", "name": "\u82d7\u6817\u5e02\u516c\u6240", "latitude": 24.5614, "longitude": 120.8189, "timestamp": "2025-04-17T03:06:55.392413Z", "free_bikes": 27, "empty_slots": 13, "extra": {"uid": "500711005", "district": "\u82d7\u6817\u5e02", "address": "\u5e9c\u524d\u8def76\u865f\u65c1\u4eba\u884c\u9053", "slots": 40, "normal_bikes": 27, "ebikes": 0, "last_updated": "2025-04-17 11:00:23", "online": true, "youbike_version": 2, "en": {"name": "Miaoli City Office", "district": "Miaoli Town", "address": "No.76, Fuqian Rd."}}}, {"id": "b54e61e345ce75e12929340184b60250", "name": "\u5ba2\u5bb6\u5713\u6a13\uff08\u9ad8\u9435\u82d7\u6817\u7ad9\uff09", "latitude": 24.6043, "longitude": 120.8234, "timestamp": "2025-04-17T03:06:55.392218Z", "free_bikes": 4, "empty_slots": 11, "extra": {"uid": "500709001", "district": "\u5f8c\u9f8d\u93ae", "address": "\u65b0\u6e2f\u4e09\u8def/\u8c50\u5bcc\u4e94\u8857\u53e3(\u897f\u5357\u5074)", "slots": 15, "normal_bikes": 4, "ebikes": 0, "last_updated": "2025-04-17 09:15:18", "online": true, "youbike_version": 2, "en": {"name": "Miaoli Hakka Roundhouse(HSR Miaoli Station)", "district": "Houlong Town", "address": "Xingang 3rd Rd/Fengfu 5th St.(Southwast)"}}}, {"id": "b57f7097799809aa049c921547aa98da", "name": "\u7af9\u5357\u904b\u52d5\u516c\u5712", "latitude": 24.69052, "longitude": 120.8893, "timestamp": "2025-04-17T03:06:55.392156Z", "free_bikes": 13, "empty_slots": 17, "extra": {"uid": "500705037", "district": "\u7af9\u5357\u93ae", "address": "\u516c\u5712\u8def55\u865f", "slots": 30, "normal_bikes": 13, "ebikes": 0, "last_updated": "2025-04-17 07:40:27", "online": true, "youbike_version": 2, "en": {"name": "Zhunan Sports Park", "district": "Zhunan Town", "address": "No. 55, Gongyuan Rd"}}}, {"id": "b5b3dbd096cf5687df5757e91f055da1", "name": "\u4e2d\u6b63\u4e2d\u5c71\u8def\u53e3", "latitude": 24.60043, "longitude": 120.99868, "timestamp": "2025-04-17T03:06:55.392201Z", "free_bikes": 7, "empty_slots": 8, "extra": {"uid": "500708005", "district": "\u5357\u5e84\u9109", "address": "\u4e2d\u6b63\u8def/\u4e2d\u5c71\u8def\u53e3(\u6771\u5074)", "slots": 15, "normal_bikes": 5, "ebikes": 2, "last_updated": "2025-04-17 10:13:19", "online": true, "youbike_version": 2, "en": {"name": "Zhongzheng Rd./ Zhongshan Rd.", "district": "Nanzhuang Town", "address": "Zhongzheng Rd./ Zhongshan Rd.(East)"}}}, {"id": "b6c7816ad10a1088a5afd079ddf473e4", "name": "\u82d7\u6817\u7e23\u7acb\u82d1\u88e1\u9ad8\u4e2d\u5ba2\u5e84\u6821\u5340", "latitude": 24.43901, "longitude": 120.65648, "timestamp": "2025-04-17T03:06:55.392357Z", "free_bikes": 12, "empty_slots": 8, "extra": {"uid": "500710010", "district": "\u82d1\u88e1\u93ae", "address": "\u65b0\u8208\u8def19\u865f", "slots": 20, "normal_bikes": 4, "ebikes": 8, "last_updated": "2025-04-17 09:57:17", "online": true, "youbike_version": 2, "en": {"name": "Miaoli County Yuanli High School (Kezhuang Campus)", "district": "Yuanli Town", "address": "No. 19, Xinxing Rd, Yuanli, Miaoli County, 358"}}}, {"id": "b758a8b142214e468f826b0404b744a0", "name": "\u82d7\u6817\u706b\u8eca\u7ad9(\u6771\u7ad9)", "latitude": 24.5703, "longitude": 120.8228, "timestamp": "2025-04-17T03:06:55.392391Z", "free_bikes": 5, "empty_slots": 70, "extra": {"uid": "500711001", "district": "\u82d7\u6817\u5e02", "address": "\u70ba\u516c\u8def2\u865f\u524d\u65b9", "slots": 76, "normal_bikes": 4, "ebikes": 1, "last_updated": "2025-04-17 10:50:25", "online": true, "youbike_version": 2, "en": {"name": "TRA Miaoli Station (East)", "district": "Miaoli Town", "address": "No.8, Weigong Rd."}}}, {"id": "b7e9aaae37abb89d60bc91fba18c329e", "name": "\u9f8d\u9a30\u65b7\u6a4b", "latitude": 24.35924, "longitude": 120.77399, "timestamp": "2025-04-17T03:06:55.391584Z", "free_bikes": 3, "empty_slots": 22, "extra": {"uid": "500701010", "district": "\u4e09\u7fa9\u9109", "address": "\u82d749(\u9f8d\u9a30\u65b7\u6a4b\u505c\u8eca\u5834\u5357\u5074\u5ee3\u5834)", "slots": 25, "normal_bikes": 3, "ebikes": 0, "last_updated": "2025-04-13 14:37:18", "online": true, "youbike_version": 2, "en": {"name": "Longteng Broken Bridge", "district": "Sanyi Town", "address": "ML49(Longteng Broken Bridge Parking Lot(South))"}}}, {"id": "b80d7671e21447cd39a6243e600d39b1", "name": "\u74b0\u5e02\u5ef6\u5e73\u8def\u53e3", "latitude": 24.6917, "longitude": 120.8733, "timestamp": "2025-04-17T03:06:55.391750Z", "free_bikes": 12, "empty_slots": 32, "extra": {"uid": "500705013", "district": "\u7af9\u5357\u93ae", "address": "\u74b0\u5e02\u8def\u4e09\u6bb5186\u865f\u524d\u65b9\u4eba\u884c\u9053", "slots": 44, "normal_bikes": 12, "ebikes": 0, "last_updated": "2025-04-16 16:00:27", "online": true, "youbike_version": 2, "en": {"name": "Huanshi & Yanping Rd. Intersection", "district": "Zhunan Town", "address": "No.186, Sec. 3, Huanshi Rd."}}}, {"id": "b8f8bc67858aedddf2b0f2932096be7f", "name": "\u5f8c\u9f8d\u93ae\u7acb\u5716\u66f8\u9928(\u5f8c\u9f8d\u93ae\u516c\u6240)", "latitude": 24.61422, "longitude": 120.79173, "timestamp": "2025-04-17T03:06:55.392284Z", "free_bikes": 3, "empty_slots": 12, "extra": {"uid": "500709012", "district": "\u5f8c\u9f8d\u93ae", "address": "\u4e2d\u5c71\u8def142\u4e4b1\u865f", "slots": 15, "normal_bikes": 3, "ebikes": 0, "last_updated": "2025-04-17 10:02:18", "online": true, "youbike_version": 2, "en": {"name": "Miaoli County Houlong Municipal Library", "district": "Houlong Town", "address": "No. 142-1, Zhongshan Rd"}}}, {"id": "b957103b028df0e33e86bf2f007f69c8", "name": "\u82d7\u6817\u9ad8\u5546", "latitude": 24.55739, "longitude": 120.81551, "timestamp": "2025-04-17T03:06:55.392578Z", "free_bikes": 47, "empty_slots": 36, "extra": {"uid": "500711031", "district": "\u82d7\u6817\u5e02", "address": "\u96fb\u53f0\u88577\u865f(\u6771\u5317\u5074)", "slots": 83, "normal_bikes": 14, "ebikes": 33, "last_updated": "2025-04-17 08:50:25", "online": true, "youbike_version": 2, "en": {"name": "National Miaoli Senior Commercial & Vocational School", "district": "Miaoli Town", "address": "No.7 Diantai St(northeast side)"}}}, {"id": "ba998f9a5be8b4f55d0b039894780a5f", "name": "\u5927\u502b\u570b\u4e2d", "latitude": 24.57005, "longitude": 120.83109, "timestamp": "2025-04-17T03:06:55.392499Z", "free_bikes": 5, "empty_slots": 23, "extra": {"uid": "500711020", "district": "\u82d7\u6817\u5e02", "address": "\u80b2\u82f1\u885782\u865f", "slots": 28, "normal_bikes": 3, "ebikes": 2, "last_updated": "2025-04-17 08:10:25", "online": true, "youbike_version": 2, "en": {"name": "Taluen Junior High School", "district": "Miaoli Town", "address": "No. 82 Yuying St"}}}, {"id": "baf7986d9491cba69d38b53cd22617ff", "name": "\u570b\u5bb6\u885b\u751f\u7814\u7a76\u9662", "latitude": 24.70695, "longitude": 120.91475, "timestamp": "2025-04-17T03:06:55.391684Z", "free_bikes": 12, "empty_slots": 3, "extra": {"uid": "500705004", "district": "\u7af9\u5357\u93ae", "address": "\u79d1\u7814\u8def35\u865f(\u4e8c\u865f\u51fa\u53e3\u65c1\u4eba\u884c\u9053)", "slots": 15, "normal_bikes": 8, "ebikes": 4, "last_updated": "2025-04-17 09:34:19", "online": true, "youbike_version": 2, "en": {"name": "National Health Research Institutes", "district": "Zhunan Town", "address": "No.35, Keyan Rd. (Exit 2)"}}}, {"id": "bb0e7591ed8453996c897d5b61faa371", "name": "\u82d7\u6817\u7e23\u7acb\u7db2\u7403\u5834", "latitude": 24.56548, "longitude": 120.81748, "timestamp": "2025-04-17T03:06:55.392619Z", "free_bikes": 5, "empty_slots": 22, "extra": {"uid": "500711038", "district": "\u82d7\u6817\u5e02", "address": "\u7e23\u5e9c\u8def168\u865f(\u5357\u5074)", "slots": 27, "normal_bikes": 4, "ebikes": 1, "last_updated": "2025-04-17 07:40:27", "online": true, "youbike_version": 2, "en": {"name": "Miaoli County Tennis Court", "district": "Miaoli Town", "address": "No. 168, Xianfu Road (south side)"}}}, {"id": "c12239cef4c3158cac747700bc1f4afa", "name": "\u6597\u7165\u570b\u5c0f", "latitude": 24.6805, "longitude": 120.94696, "timestamp": "2025-04-17T03:06:55.393088Z", "free_bikes": 1, "empty_slots": 9, "extra": {"uid": "500717038", "district": "\u982d\u4efd\u5e02", "address": "\u4e2d\u6b63\u4e8c\u8def221\u865f", "slots": 10, "normal_bikes": 0, "ebikes": 1, "last_updated": "2025-04-11 16:16:18", "online": true, "youbike_version": 2, "en": {"name": "Douhuan Elementary School", "district": "Toufen Town", "address": "No. 221, Zhongzheng 2nd Road"}}}, {"id": "c1c973d962ae99f96c025d3fcaecf4d1", "name": "\u8c93\u88cf\u55b5\u89aa\u5b50\u516c\u5712", "latitude": 24.56424, "longitude": 120.83722, "timestamp": "2025-04-17T03:06:55.392510Z", "free_bikes": 2, "empty_slots": 18, "extra": {"uid": "500711022", "district": "\u82d7\u6817\u5e02", "address": "\u7d93\u570b\u8def\u4e09\u6bb5255\u5df713\u5f0458\u865f", "slots": 20, "normal_bikes": 0, "ebikes": 2, "last_updated": "2025-04-17 07:00:26", "online": true, "youbike_version": 2, "en": {"name": "Maolimiao Parent-Child Park", "district": "Miaoli Town", "address": "No. 58, Aly. 13, Ln. 255, Sec. 3, Jingguo Rd."}}}, {"id": "c3d5f6181e0628088e275eb42b3d5723", "name": "\u4e2d\u6b63\u4e16\u754c\u8def\u53e3", "latitude": 24.43685, "longitude": 120.65934, "timestamp": "2025-04-17T03:06:55.392385Z", "free_bikes": 6, "empty_slots": 19, "extra": {"uid": "500710015", "district": "\u82d1\u88e1\u93ae", "address": "\u4e2d\u6b63\u8def150\u865f(\u897f\u5074)", "slots": 25, "normal_bikes": 2, "ebikes": 4, "last_updated": "2025-04-17 07:50:24", "online": true, "youbike_version": 2, "en": {"name": "Zhongzheng and Shijie Rd.", "district": "Yuanli Town", "address": "No. 150 Zhongzheng Road (west side)"}}}, {"id": "c52c16ea1d2a74e4494b35e2b0831234", "name": "\u660c\u9686\u5ee3\u5834", "latitude": 24.6884, "longitude": 120.8984, "timestamp": "2025-04-17T03:06:55.392770Z", "free_bikes": 6, "empty_slots": 24, "extra": {"uid": "500717011", "district": "\u982d\u4efd\u5e02", "address": "\u660c\u9686\u4e8c\u8857\u5e78\u798f\u516c\u5712\u65c1\u4eba\u884c\u9053", "slots": 30, "normal_bikes": 6, "ebikes": 0, "last_updated": "2025-04-17 07:20:25", "online": true, "youbike_version": 2, "en": {"name": "Glory Square", "district": "Toufen Town", "address": "No. 26 of Ren\u2019ai Section"}}}, {"id": "c62c68e816167c4e82cb5b9edc5eba06", "name": "\u52dd\u8208\u8eca\u7ad9\u5317\u54e8", "latitude": 24.39292, "longitude": 120.78058, "timestamp": "2025-04-17T03:06:55.391572Z", "free_bikes": 7, "empty_slots": 14, "extra": {"uid": "500701008", "district": "\u4e09\u7fa9\u9109", "address": "\u82d749(\u52dd\u8208\u8eca\u7ad9\u5317\u7aef\u8def\u908a\u505c\u8eca\u5834)", "slots": 21, "normal_bikes": 7, "ebikes": 0, "last_updated": "2025-04-15 11:50:25", "online": true, "youbike_version": 2, "en": {"name": "Shenghsing Station(North)", "district": "Sanyi Town", "address": "ML49(Shenghsing Station Parking Lot(North))"}}}, {"id": "c6d2be2e52e341fb701f1a5fcc4ea7c6", "name": "\u6ed1\u6b65\u8eca\u516c\u5712", "latitude": 24.7025, "longitude": 120.91947, "timestamp": "2025-04-17T03:06:55.392846Z", "free_bikes": 3, "empty_slots": 16, "extra": {"uid": "500717021", "district": "\u982d\u4efd\u5e02", "address": "\u79d1\u6771\u4e8c\u8def\u9678\u6a4b\u4e0b", "slots": 20, "normal_bikes": 1, "ebikes": 2, "last_updated": "2025-04-16 11:02:19", "online": true, "youbike_version": 2, "en": {"name": "Huabuche Park", "district": "Toufen Town", "address": "Under the land bridge of Kedong 2nd Road"}}}, {"id": "c70b3d8de433273015cebcab0873853f", "name": "\u4e09\u7fa9\u6728\u96d5\u535a\u7269\u9928", "latitude": 24.40575, "longitude": 120.76143, "timestamp": "2025-04-17T03:06:55.391560Z", "free_bikes": 0, "empty_slots": 36, "extra": {"uid": "500701005", "district": "\u4e09\u7fa9\u9109", "address": "\u5ee3\u8072\u65b0\u57ce88\u865f(\u5c0d\u5074\u505c\u8eca\u5834)", "slots": 36, "normal_bikes": 0, "ebikes": 0, "last_updated": "2025-04-17 10:12:18", "online": true, "youbike_version": 2, "en": {"name": "Sanyi Wood Sculpture Museum", "district": "Sanyi Town", "address": "No. 88, Guangsheng Xincheng(Opposite)"}}}, {"id": "c71f15446ba004a1ae59aa8586f533b9", "name": "\u96d9\u6f6d\u4f11\u9592\u8fb2\u696d\u5340\u65c5\u5ba2\u670d\u52d9\u4e2d\u5fc3", "latitude": 24.40889, "longitude": 120.78291, "timestamp": "2025-04-17T03:06:55.391596Z", "free_bikes": 6, "empty_slots": 9, "extra": {"uid": "500701012", "district": "\u4e09\u7fa9\u9109", "address": "\u96d9\u9023\u6f6d110\u4e4b7\u865f", "slots": 15, "normal_bikes": 6, "ebikes": 0, "last_updated": "2025-04-16 11:06:19", "online": true, "youbike_version": 2, "en": {"name": "Shuang Tan Agri-tourism Area(Tourism Service Center)", "district": "Sanyi Town", "address": "No. 110-7, Shuangliantan"}}}, {"id": "c7aeb186c71b02d1cb9d9ef25e6c9fe8", "name": "\u6148\u540e\u5bae", "latitude": 24.51012, "longitude": 120.69027, "timestamp": "2025-04-17T03:06:55.392664Z", "free_bikes": 4, "empty_slots": 14, "extra": {"uid": "500713008", "district": "\u901a\u9704\u93ae", "address": "\u901a\u7063\u91cc10\u913093\u4e4b2\u865f", "slots": 18, "normal_bikes": 4, "ebikes": 0, "last_updated": "2025-04-17 07:50:24", "online": true, "youbike_version": 2, "en": {"name": "Ci Harem", "district": "Tongxiao Town", "address": "357, Miaoli County, Tongxiao Township, \u901a\u7063\u91cc10\u913093\u4e4b2\u865f"}}}, {"id": "cd2780a9aae116aec0315207ad830643", "name": "\u4e09\u7063\u8001\u8857", "latitude": 24.65494, "longitude": 120.95521, "timestamp": "2025-04-17T03:06:55.391614Z", "free_bikes": 1, "empty_slots": 19, "extra": {"uid": "500702002", "district": "\u4e09\u7063\u9109", "address": "\u4e2d\u5c71\u8def46\u865f", "slots": 20, "normal_bikes": 0, "ebikes": 1, "last_updated": "2025-04-15 16:48:18", "online": true, "youbike_version": 2, "en": {"name": "Sanwan Old Street", "district": "Sanwan Town", "address": "No. 46, Zhongshan Road"}}}, {"id": "cd6be11318535bd5b9ae91aa783d0088", "name": "\u5bb6\u6a02\u798f\u82d7\u6817\u5e97", "latitude": 24.57446, "longitude": 120.81771, "timestamp": "2025-04-17T03:06:55.392607Z", "free_bikes": 5, "empty_slots": 15, "extra": {"uid": "500711036", "district": "\u82d7\u6817\u5e02", "address": "\u570b\u83ef\u8def599\u865f", "slots": 20, "normal_bikes": 4, "ebikes": 1, "last_updated": "2025-04-17 10:20:24", "online": true, "youbike_version": 2, "en": {"name": "Carrefour Miaoli Store", "district": "Miaoli Town", "address": "No. 599, Guohua Rd"}}}, {"id": "ce9b03a6b4a15a4b5562e55d1958a93a", "name": "\u7fe0\u4ea8\u516b\u5fb7\u4e8c\u8def\u53e3", "latitude": 24.69997, "longitude": 120.90151, "timestamp": "2025-04-17T03:06:55.393097Z", "free_bikes": 7, "empty_slots": 9, "extra": {"uid": "500717039", "district": "\u982d\u4efd\u5e02", "address": "\u516b\u5fb7\u4e8c\u8def338\u865f(\u897f\u5074)", "slots": 18, "normal_bikes": 1, "ebikes": 6, "last_updated": "2025-04-17 07:00:26", "online": true, "youbike_version": 2, "en": {"name": "Cuiheng and Bade 2nd Rd.", "district": "Toufen Town", "address": "No. 338, Bade 2nd Road (west side)"}}}, {"id": "cfb3f259e7315963a18bd297db1bd23c", "name": "\u982d\u4efd\u5e02\u7acb\u5716\u66f8\u9928", "latitude": 24.688, "longitude": 120.9112, "timestamp": "2025-04-17T03:06:55.392788Z", "free_bikes": 7, "empty_slots": 13, "extra": {"uid": "500717013", "district": "\u982d\u4efd\u5e02", "address": "\u4e2d\u83ef\u8def1167\u865f\u524d", "slots": 20, "normal_bikes": 3, "ebikes": 4, "last_updated": "2025-04-17 06:50:26", "online": true, "youbike_version": 2, "en": {"name": "Tou Fen Library", "district": "Toufen Town", "address": "No. 1167, Zhonghua Rd."}}}, {"id": "d03a9fd55cdd777601414cccc05b3421", "name": "\u7af9\u5357\u5d0e\u9802\u6ff1\u6d77\u904a\u61a9\u5712\u5340", "latitude": 24.72215, "longitude": 120.86739, "timestamp": "2025-04-17T03:06:55.391982Z", "free_bikes": 3, "empty_slots": 21, "extra": {"uid": "500705017", "district": "\u7af9\u5357\u93ae", "address": "\u7af9\u5357\u93ae\u5317\u623639\u865f", "slots": 24, "normal_bikes": 2, "ebikes": 1, "last_updated": "2025-04-16 14:00:24", "online": true, "youbike_version": 2, "en": {"name": "Zhunan Qiding Coastal Recreation Park", "district": "Zhunan Town", "address": "No. 39, Beihu, Zhunan Town"}}}, {"id": "d11ea6766318f0b6eae25d76e28fa858", "name": "\u982d\u4efd\u5e02\u7acb\u6e38\u6cf3\u6c60", "latitude": 24.6931, "longitude": 120.9101, "timestamp": "2025-04-17T03:06:55.392757Z", "free_bikes": 6, "empty_slots": 24, "extra": {"uid": "500717009", "district": "\u982d\u4efd\u5e02", "address": "\u5fe0\u5b5d\u4e8c\u8def126\u865f\u5c0d\u9762\u4eba\u884c\u9053", "slots": 30, "normal_bikes": 4, "ebikes": 2, "last_updated": "2025-04-17 07:40:27", "online": true, "youbike_version": 2, "en": {"name": "Toufen City Swimming Pool", "district": "Toufen Town", "address": "No.126, Zhongxiao 2nd Rd. (opposite)"}}}, {"id": "d133ef0effeb827ee919a2cd1d2a913b", "name": "\u6c11\u751f\u91cc\u793e\u5340\u6d3b\u52d5\u4e2d\u5fc3", "latitude": 24.67823, "longitude": 120.89767, "timestamp": "2025-04-17T03:06:55.392879Z", "free_bikes": 3, "empty_slots": 17, "extra": {"uid": "500717028", "district": "\u982d\u4efd\u5e02", "address": "\u4e2d\u83ef\u8def595\u865f", "slots": 20, "normal_bikes": 3, "ebikes": 0, "last_updated": "2025-04-17 09:38:17", "online": true, "youbike_version": 2, "en": {"name": "Minshengli Activity Center", "district": "Toufen Town", "address": "No. 595, Zhonghua Rd."}}}, {"id": "d157cee7cf1403d33ee1907c9af66a7a", "name": "\u5f8c\u9f8d\u706b\u8eca\u7ad9(\u9298\u5fb7\u8def)", "latitude": 24.616391, "longitude": 120.786526, "timestamp": "2025-04-17T03:06:55.392264Z", "free_bikes": 4, "empty_slots": 66, "extra": {"uid": "500709009", "district": "\u5f8c\u9f8d\u93ae", "address": "\u8eca\u7ad9\u8857127\u4e4b2\u865f(\u6771\u5317\u5074)", "slots": 70, "normal_bikes": 3, "ebikes": 1, "last_updated": "2025-04-17 10:20:24", "online": true, "youbike_version": 2, "en": {"name": "Houlong Station(Mingde Road)", "district": "Houlong Town", "address": "No. 127-2, Chezhan St(northeast side)"}}}, {"id": "d259ff7299e447bf9b79a25ee689a262", "name": "\u7acb\u9054\u505c\u8eca\u5834", "latitude": 24.68839, "longitude": 120.87914, "timestamp": "2025-04-17T03:06:55.392092Z", "free_bikes": 1, "empty_slots": 23, "extra": {"uid": "500705028", "district": "\u7af9\u5357\u93ae", "address": "\u5149\u5fa9\u8def205\u865f", "slots": 24, "normal_bikes": 1, "ebikes": 0, "last_updated": "2025-04-17 08:12:17", "online": true, "youbike_version": 2, "en": {"name": "PAKU CITY", "district": "Zhunan Town", "address": "No. 205, Guangfu Rd"}}}, {"id": "d2caad06fe9471ff1d5b8aa7530f0c25", "name": "\u516c\u9928\u5152\u4e09\u516c\u5712", "latitude": 24.50308, "longitude": 120.82919, "timestamp": "2025-04-17T03:06:55.391656Z", "free_bikes": 5, "empty_slots": 10, "extra": {"uid": "500704007", "district": "\u516c\u9928\u9109", "address": "\u5fe0\u5b5d\u8def142\u865f", "slots": 15, "normal_bikes": 4, "ebikes": 1, "last_updated": "2025-04-16 07:50:25", "online": true, "youbike_version": 2, "en": {"name": "Gongguanersan Park", "district": "Gongguan Town", "address": "No. 142, Zhongxiao Rd"}}}, {"id": "d5eb4fe6d83f65817aabd72c6346de4f", "name": "\u798f\u5b89\u91cc\u505c\u8eca\u5834(\u793e\u5340\u6d3b\u52d5\u4e2d\u5fc3)", "latitude": 24.58397, "longitude": 120.825, "timestamp": "2025-04-17T03:06:55.392476Z", "free_bikes": 2, "empty_slots": 16, "extra": {"uid": "500711016", "district": "\u82d7\u6817\u5e02", "address": "\u4e2d\u83ef\u8def581-1\u865f(\u5357\u5074)", "slots": 18, "normal_bikes": 2, "ebikes": 0, "last_updated": "2025-04-17 08:54:18", "online": true, "youbike_version": 2, "en": {"name": "Fu'anli parking lot (community activity center)", "district": "Miaoli Town", "address": "No. 581-1, Zhonghua Rd (south side)"}}}, {"id": "d6233ac96f731d3f67dd84fca76338a2", "name": "\u4e09\u7fa9\u9ad8\u4e2d", "latitude": 24.40951, "longitude": 120.76759, "timestamp": "2025-04-17T03:06:55.391553Z", "free_bikes": 1, "empty_slots": 29, "extra": {"uid": "500701003", "district": "\u4e09\u7fa9\u9109", "address": "\u4e2d\u6b63\u8def174-2\u865f(\u5c0d\u5074)", "slots": 30, "normal_bikes": 1, "ebikes": 0, "last_updated": "2025-04-16 19:26:18", "online": true, "youbike_version": 2, "en": {"name": "Sanyi Senior High School", "district": "Sanyi Town", "address": "No. 174-2, Zhongzheng Rd.(Opposite)"}}}, {"id": "d77b423b2ca740dbddd0d632dc5ec86f", "name": "\u82d7\u5317\u85dd\u6587\u4e2d\u5fc3", "latitude": 24.6905, "longitude": 120.886, "timestamp": "2025-04-17T03:06:55.391715Z", "free_bikes": 7, "empty_slots": 43, "extra": {"uid": "500705009", "district": "\u7af9\u5357\u93ae", "address": "\u516c\u5712\u8def206\u865f\u5c0d\u9762\u4eba\u884c\u9053", "slots": 50, "normal_bikes": 7, "ebikes": 0, "last_updated": "2025-04-17 07:20:25", "online": true, "youbike_version": 2, "en": {"name": "Northern Miaoli Art Center", "district": "Zhunan Town", "address": "No.206, Gongyuan Rd. (opposite)"}}}, {"id": "d9c26ce8e0dbce3ac6962ed2323b503c", "name": "\u4e2d\u8208\u5546\u5de5", "latitude": 24.6882, "longitude": 120.8727, "timestamp": "2025-04-17T03:06:55.391707Z", "free_bikes": 22, "empty_slots": 44, "extra": {"uid": "500705008", "district": "\u7af9\u5357\u93ae", "address": "\u5927\u71df\u8def211\u865f(\u9762\u6821\u9580\u53f3\u5074\u8def\u5074)", "slots": 66, "normal_bikes": 8, "ebikes": 14, "last_updated": "2025-04-17 10:04:19", "online": true, "youbike_version": 2, "en": {"name": "Chung Hsing Commercial Industrial Vocational High School", "district": "Zhunan Town", "address": "No.211, Daying Rd."}}}, {"id": "d9c815ea963102b4bcec519a585692c1", "name": "\u6c11\u751f\u793e\u5340(\u4e2d\u83ef\u8def)", "latitude": 24.6795, "longitude": 120.9005, "timestamp": "2025-04-17T03:06:55.392779Z", "free_bikes": 3, "empty_slots": 12, "extra": {"uid": "500717012", "district": "\u982d\u4efd\u5e02", "address": "\u4e2d\u83ef\u8def693\u865f(\u6771\u5357\u5074)", "slots": 15, "normal_bikes": 3, "ebikes": 0, "last_updated": "2025-04-17 09:40:24", "online": true, "youbike_version": 2, "en": {"name": "Min Sheng Community(Zhonghua Rd.)", "district": "Toufen Town", "address": "No. 693, Zhonghua Rd.(Southeast)"}}}, {"id": "da88a5aa3256845c9e196bf212350106", "name": "\u8336\u82b1\u516c\u5712(\u5353\u4e5f\u5c0f\u5c4b)", "latitude": 24.39259, "longitude": 120.79488, "timestamp": "2025-04-17T03:06:55.391590Z", "free_bikes": 3, "empty_slots": 17, "extra": {"uid": "500701011", "district": "\u4e09\u7fa9\u9109", "address": "130\u7e23\u9053(\u842c\u58fd\u6a4b)", "slots": 20, "normal_bikes": 3, "ebikes": 0, "last_updated": "2025-04-14 17:40:27", "online": true, "youbike_version": 2, "en": {"name": "Camellia Park(Zhuo Ye Cottage)", "district": "Sanyi Town", "address": "County Highway 130(Wanshou Bridge)"}}}, {"id": "dd328e990866150856ef5c524d21f032", "name": "\u7ae5\u8a71\u516c\u5712", "latitude": 24.68802, "longitude": 120.89567, "timestamp": "2025-04-17T03:06:55.392885Z", "free_bikes": 1, "empty_slots": 24, "extra": {"uid": "500717030", "district": "\u982d\u4efd\u5e02", "address": "\u660c\u9686\u4e8c\u8857333\u865f", "slots": 25, "normal_bikes": 1, "ebikes": 0, "last_updated": "2025-04-17 10:22:17", "online": true, "youbike_version": 2, "en": {"name": "Tonghua Park", "district": "Toufen Town", "address": "NO.333,Changlong 2nd St"}}}, {"id": "df44cf977e023c936f5014e52ce4cf77", "name": "\u982d\u4efd\u570b\u4e2d(\u4e2d\u8208\u8def)", "latitude": 24.6903, "longitude": 120.901, "timestamp": "2025-04-17T03:06:55.392862Z", "free_bikes": 9, "empty_slots": 11, "extra": {"uid": "500717025", "district": "\u982d\u4efd\u5e02", "address": "\u4fe1\u7fa9\u8def171\u5df7", "slots": 20, "normal_bikes": 7, "ebikes": 2, "last_updated": "2025-04-17 09:30:25", "online": true, "youbike_version": 2, "en": {"name": "Toufen Junior High School(Zhongyang Rd)", "district": "Toufen Town", "address": "Lane 171, Xinyi Rd"}}}, {"id": "e3599587b2c66af11eba6b2e8e9d1c62", "name": "\u982d\u4efd\u570b\u4e2d", "latitude": 24.6927, "longitude": 120.9005, "timestamp": "2025-04-17T03:06:55.392806Z", "free_bikes": 17, "empty_slots": 31, "extra": {"uid": "500717015", "district": "\u982d\u4efd\u5e02", "address": "\u4e2d\u592e\u8def/\u5fb7\u7fa9\u8def\u53e3(\u897f\u5074)", "slots": 48, "normal_bikes": 12, "ebikes": 5, "last_updated": "2025-04-17 07:30:25", "online": true, "youbike_version": 2, "en": {"name": "Tou Fen Junior High School", "district": "Toufen Town", "address": "Zhongyang Rd./Deyi Rd.(West)"}}}, {"id": "e40b54d7b1dc1a6bc839dff77e55b6cd", "name": "\u82d1\u6e2f\u89c0\u5149\u6f01\u6e2f", "latitude": 24.46022, "longitude": 120.64944, "timestamp": "2025-04-17T03:06:55.392334Z", "free_bikes": 5, "empty_slots": 15, "extra": {"uid": "500710006", "district": "\u82d1\u88e1\u93ae", "address": "\u82d1\u6e2f\u91cc\u56db\u913045\u4e4b5\u865f", "slots": 20, "normal_bikes": 2, "ebikes": 3, "last_updated": "2025-04-17 05:22:18", "online": true, "youbike_version": 2, "en": {"name": "Yuangang Fishing Port", "district": "Yuanli Town", "address": "No. 360, Western Coastal Expy, Yuanli,"}}}, {"id": "e90e57010f7581b94562f361ad195a86", "name": "\u6e05\u6d77\u5bae", "latitude": 24.5989, "longitude": 120.7233, "timestamp": "2025-04-17T03:06:55.392241Z", "free_bikes": 6, "empty_slots": 6, "extra": {"uid": "500709005", "district": "\u5f8c\u9f8d\u93ae", "address": "\u5357\u6e2f\u91cc14\u9130114-1\u865f", "slots": 12, "normal_bikes": 5, "ebikes": 1, "last_updated": "2025-04-16 10:40:24", "online": true, "youbike_version": 2, "en": {"name": "Ching Hai Temple", "district": "Houlong Town", "address": "No. 114-1, Nangang."}}}, {"id": "e9a8fb80370b490a3f4e1fb99aefa738", "name": "\u901a\u9704\u9435\u9053\u7ce7\u5009", "latitude": 24.4898, "longitude": 120.67696, "timestamp": "2025-04-17T03:06:55.392682Z", "free_bikes": 4, "empty_slots": 16, "extra": {"uid": "500713011", "district": "\u901a\u9704\u93ae", "address": "\u6d77\u6ff1\u8def54\u865f(\u897f\u5357\u5074)", "slots": 20, "normal_bikes": 4, "ebikes": 0, "last_updated": "2025-04-17 10:50:25", "online": true, "youbike_version": 2, "en": {"name": "Tongxiao Railway Granary", "district": "Tongxiao Town", "address": "No. 54 Haibin Road (southwest side)"}}}, {"id": "ead4ee6411c1b8da4d0daa6b980c1c66", "name": "\u7af9\u5357\u93ae\u6c11\u5ee3\u5834", "latitude": 24.6784, "longitude": 120.8713, "timestamp": "2025-04-17T03:06:55.391759Z", "free_bikes": 7, "empty_slots": 8, "extra": {"uid": "500705014", "district": "\u7af9\u5357\u93ae", "address": "\u771f\u5982\u8def560\u865f\u65c1(\u897f\u5074)", "slots": 15, "normal_bikes": 7, "ebikes": 0, "last_updated": "2025-04-17 05:22:18", "online": true, "youbike_version": 2, "en": {"name": "Zhunan Zhenmin Square", "district": "Zhunan Town", "address": "No. 560, Zhenru Rd.(West)"}}}, {"id": "ec401ddc0c3de86c1cf3565e56dd1db4", "name": "\u82d7\u6817\u5730\u65b9\u6cd5\u9662(\u4e2d\u6b63\u8def1099\u5df7)", "latitude": 24.54684, "longitude": 120.81635, "timestamp": "2025-04-17T03:06:55.392572Z", "free_bikes": 14, "empty_slots": 9, "extra": {"uid": "500711029", "district": "\u82d7\u6817\u5e02", "address": "\u4e2d\u6b63\u8def1149\u865f", "slots": 23, "normal_bikes": 6, "ebikes": 8, "last_updated": "2025-04-17 06:41:18", "online": true, "youbike_version": 2, "en": {"name": "Taiwan Miaoli District Court(Lane 1099, Zhongzheng Rd)", "district": "Miaoli Town", "address": "No. 1149, Zhongzheng Road"}}}, {"id": "ecb3dcf0603cbc909aa02af06edc1d2b", "name": "\u4e2d\u6b63\u96d9\u6e56\u8def\u53e3(7-11\u65e5\u6674\u9580\u5e02)", "latitude": 24.41941, "longitude": 120.77348, "timestamp": "2025-04-17T03:06:55.391602Z", "free_bikes": 5, "empty_slots": 10, "extra": {"uid": "500701013", "district": "\u4e09\u7fa9\u9109", "address": "\u4e09\u7fa9\u910911-8\u865f", "slots": 15, "normal_bikes": 5, "ebikes": 0, "last_updated": "2025-04-17 09:50:27", "online": true, "youbike_version": 2, "en": {"name": "Zhongzheng Shuanghu Rd.(7-ELEVEN Nissei Store)", "district": "Sanyi Town", "address": "No. 11-8, Sanyi Township"}}}, {"id": "ed6b0cb35c3cd6ce00c5c7a617f7e46e", "name": "\u7dad\u771f\u570b\u4e2d", "latitude": 24.6138, "longitude": 120.7955, "timestamp": "2025-04-17T03:06:55.392224Z", "free_bikes": 0, "empty_slots": 15, "extra": {"uid": "500709002", "district": "\u5f8c\u9f8d\u93ae", "address": "\u6210\u529f\u8def254\u865f\u5c0d\u9762(\u897f\u5357\u5074)", "slots": 15, "normal_bikes": 0, "ebikes": 0, "last_updated": "2025-04-17 10:51:18", "online": true, "youbike_version": 2, "en": {"name": "Wei Jhen Junior High School", "district": "Houlong Town", "address": "No. 254, Chenggong Rd.(Southwast)"}}}, {"id": "edee0d0da29f32a1b2ee11c144106846", "name": "\u65b0\u5357\u91cc\u6d3b\u52d5\u4e2d\u5fc3", "latitude": 24.68884, "longitude": 120.8857, "timestamp": "2025-04-17T03:06:55.392179Z", "free_bikes": 1, "empty_slots": 29, "extra": {"uid": "500705041", "district": "\u7af9\u5357\u93ae", "address": "\u6c38\u8c9e\u8def\u4e8c\u6bb5196\u865f", "slots": 30, "normal_bikes": 1, "ebikes": 0, "last_updated": "2025-04-17 08:00:23", "online": true, "youbike_version": 2, "en": {"name": "Xinnanli Community Activity Center", "district": "Zhunan Town", "address": "No. 196, Section 2, Yongzhen Rd."}}}, {"id": "efba93b05db9e97af7dc037937f353cd", "name": "\u9285\u947c\u706b\u8eca\u7ad9", "latitude": 24.48561, "longitude": 120.78627, "timestamp": "2025-04-17T03:06:55.392704Z", "free_bikes": 8, "empty_slots": 20, "extra": {"uid": "500716001", "district": "\u9285\u947c\u9109", "address": "\u5927\u540c\u8def12\u865f(\u897f\u5074)", "slots": 30, "normal_bikes": 6, "ebikes": 2, "last_updated": "2025-04-17 07:30:25", "online": true, "youbike_version": 2, "en": {"name": "Tongluo Railway Station", "district": "Tongluo Town", "address": "No. 12, Datong Road (west side)"}}}, {"id": "f111ee866d4a937c46e6550e6572e0cd", "name": "\u8c50\u539f\u5ba2\u904b(\u897f\u6e56\u6e21\u5047\u6751)", "latitude": 24.39002, "longitude": 120.76088, "timestamp": "2025-04-17T03:06:55.391566Z", "free_bikes": 3, "empty_slots": 17, "extra": {"uid": "500701006", "district": "\u4e09\u7fa9\u9109", "address": "\u897f\u6e5611\u865f(\u8c50\u539f\u5ba2\u904b\u5019\u8eca\u4ead\u65c1)", "slots": 20, "normal_bikes": 3, "ebikes": 0, "last_updated": "2025-04-15 19:28:18", "online": true, "youbike_version": 2, "en": {"name": "Fengyuan Bus(West Lake Resortopia)", "district": "Sanyi Town", "address": "No. 11, Xihu(Fengyuan Bus Shelter)"}}}, {"id": "f24e67f04f25a4bb5e707bde32a32f6d", "name": "\u7389\u6e05\u5bae", "latitude": 24.5639, "longitude": 120.8269, "timestamp": "2025-04-17T03:06:55.392419Z", "free_bikes": 5, "empty_slots": 20, "extra": {"uid": "500711006", "district": "\u82d7\u6817\u5e02", "address": "\u70ba\u6c11\u885730-6\u865f\u5916\u4eba\u884c\u9053", "slots": 25, "normal_bikes": 2, "ebikes": 3, "last_updated": "2025-04-17 07:20:25", "online": true, "youbike_version": 2, "en": {"name": "Yu Qing Temple", "district": "Miaoli Town", "address": "No.30-6, Weimin St."}}}, {"id": "f3a2dcf2d9490891c9343cda8a64d81e", "name": "\u982d\u4efd\u5e02\u516c\u6240", "latitude": 24.6866, "longitude": 120.9129, "timestamp": "2025-04-17T03:06:55.392716Z", "free_bikes": 2, "empty_slots": 12, "extra": {"uid": "500717001", "district": "\u982d\u4efd\u5e02", "address": "\u4e2d\u5c71\u8def232\u865f\u524d\u65b9\u8def\u5074", "slots": 15, "normal_bikes": 1, "ebikes": 1, "last_updated": "2025-04-17 10:50:25", "online": true, "youbike_version": 2, "en": {"name": "Toufen City Office", "district": "Toufen Town", "address": "No.232, Zhongshan Rd."}}}, {"id": "f3cbbb2514961c6cdeecbe473348a3d6", "name": "\u62f1\u5929\u5bae", "latitude": 24.5721, "longitude": 120.7106, "timestamp": "2025-04-17T03:06:55.392647Z", "free_bikes": 17, "empty_slots": 21, "extra": {"uid": "500713005", "district": "\u901a\u9704\u93ae", "address": "\u767d\u6771\u91cc28-1\u865f\u65c1(\u5317\u5074)", "slots": 38, "normal_bikes": 10, "ebikes": 7, "last_updated": "2025-04-17 10:30:24", "online": true, "youbike_version": 2, "en": {"name": "Gong Tian Temple", "district": "Tongxiao Town", "address": "No. 28-1, Baidong.(North)"}}}, {"id": "f3da1d8c8732ffc43847c8200e63ac91", "name": "\u70ba\u606d\u91ab\u9662", "latitude": 24.6874, "longitude": 120.9066, "timestamp": "2025-04-17T03:06:55.392722Z", "free_bikes": 4, "empty_slots": 36, "extra": {"uid": "500717002", "district": "\u982d\u4efd\u5e02", "address": "\u4e2d\u592e\u8def11\u865f\u524d\u65b9\u4eba\u884c\u9053", "slots": 40, "normal_bikes": 3, "ebikes": 1, "last_updated": "2025-04-17 10:10:24", "online": true, "youbike_version": 2, "en": {"name": "Wei Gong Memorial Hospital", "district": "Toufen Town", "address": "No.11, Zhongyang Rd."}}}, {"id": "f7f0440fb8985ec68894a29f3783f5f2", "name": "\u7063\u9e97\u89aa\u5b50\u516c\u5712", "latitude": 24.44712, "longitude": 120.65672, "timestamp": "2025-04-17T03:06:55.392380Z", "free_bikes": 8, "empty_slots": 22, "extra": {"uid": "500710014", "district": "\u82d1\u88e1\u93ae", "address": "\u80b2\u82f1\u885716\u5df7\u53e3", "slots": 30, "normal_bikes": 4, "ebikes": 4, "last_updated": "2025-04-16 09:20:29", "online": true, "youbike_version": 2, "en": {"name": "Wanli Parent-Child Park", "district": "Yuanli Town", "address": "No. 258, Cihe St., Yuanli Township"}}}, {"id": "fb739554a4434068a5de9cfd1de6f0b1", "name": "\u65b0\u6e2f\u570b\u4e2d\u5c0f(\u6821\u6905\u793e\u5340\u516c\u5712)", "latitude": 24.609925, "longitude": 120.826882, "timestamp": "2025-04-17T03:06:55.392293Z", "free_bikes": 5, "empty_slots": 15, "extra": {"uid": "500709013", "district": "\u5f8c\u9f8d\u93ae", "address": "\u6821\u6905\u4e8c\u8def193\u865f", "slots": 20, "normal_bikes": 5, "ebikes": 0, "last_updated": "2025-04-17 09:05:17", "online": true, "youbike_version": 2, "en": {"name": "Xin-Gang Elementary and Junior High School(Xiaoyi Community Park)", "district": "Houlong Town", "address": "No. 193, Xiaoyi 2nd Rd"}}}, {"id": "fc0bb0bd93504ba3e562811a912a79db", "name": "\u5efa\u570b\u8def(\u9f8d\u9cf3\u5bae)", "latitude": 24.6912, "longitude": 120.8683, "timestamp": "2025-04-17T03:06:55.391741Z", "free_bikes": 6, "empty_slots": 14, "extra": {"uid": "500705012", "district": "\u7af9\u5357\u93ae", "address": "\u5efa\u570b\u8def356\u5df7\u897f\u5317\u5074\u8857\u53e3", "slots": 20, "normal_bikes": 6, "ebikes": 0, "last_updated": "2025-04-17 08:40:24", "online": true, "youbike_version": 2, "en": {"name": "Jianguo Rd. (Longfeng Temple)", "district": "Zhunan Town", "address": "Jianguo Rd./Ln. 356, Jianguo Rd."}}}, {"id": "fe1bf8fe92ce41fdbe16ef9230aa35ea", "name": "\u767d\u6c99\u5c6f\u706b\u8eca\u7ad9", "latitude": 24.5647, "longitude": 120.7083, "timestamp": "2025-04-17T03:06:55.392641Z", "free_bikes": 3, "empty_slots": 37, "extra": {"uid": "500713004", "district": "\u901a\u9704\u93ae", "address": "\u767d\u897f123\u865f\u5c0d\u9762(\u897f\u5074)", "slots": 40, "normal_bikes": 3, "ebikes": 0, "last_updated": "2025-04-17 10:50:25", "online": true, "youbike_version": 2, "en": {"name": "TRA Baishatun Station", "district": "Tongxiao Town", "address": "No. 131, Baixi.(West)"}}}]}