{"id": "youbike-hsinchu-science-park", "name": "YouBike", "location": {"latitude": 24.7818, "longitude": 121.005, "city": "\u65b0\u7af9\u79d1\u5b78\u5de5\u696d\u5712\u5340 Hsinchu Science Park", "country": "TW"}, "href": "/v2/networks/youbike-hsinchu-science-park", "company": ["YouBike Co., Ltd."], "system": "YouBike", "stations": [{"id": "0621e45f2a3bcc26c1b5514ff4c8895f", "name": "\u5712\u4e8c\u5712\u4e09\u5ee3\u5834", "latitude": 24.77282, "longitude": 121.01019, "timestamp": "2025-04-17T03:06:54.577124Z", "free_bikes": 10, "empty_slots": 4, "extra": {"uid": "508201007", "district": "\u65b0\u7af9\u79d1\u5b78\u5712\u5340", "address": "\u5712\u5340\u4e09\u8def1\u865f(\u5c0d\u9762\u4eba\u884c\u9053)", "slots": 15, "normal_bikes": 7, "ebikes": 3, "last_updated": "2025-04-17 09:34:19", "online": true, "youbike_version": 2, "en": {"name": "Park Ave. 2 and Park Ave. 3 Plaza", "district": "Hsinchu Science Park", "address": "Park Road No. 1 (opposite the sidewalk)"}}}, {"id": "0b971514e2df3571748616928862ea43", "name": "\u77fd\u5c0e\u7814\u767c\u4e2d\u5fc3\u505c\u8eca\u5834", "latitude": 24.77279, "longitude": 121.01881, "timestamp": "2025-04-17T03:06:54.577113Z", "free_bikes": 12, "empty_slots": 6, "extra": {"uid": "508201005", "district": "\u65b0\u7af9\u79d1\u5b78\u5712\u5340", "address": "\u529b\u884c\u4e8c\u8def2\u865f\u524d\u4eba\u884c\u9053", "slots": 18, "normal_bikes": 9, "ebikes": 3, "last_updated": "2025-04-17 09:36:18", "online": true, "youbike_version": 2, "en": {"name": "Si-Soft R&D Center Parking Lot", "district": "Hsinchu Science Park", "address": "Force two road on the 2nd front sidewalk"}}}, {"id": "1469df394bffee6781b4eaf32ff4dcd1", "name": "\u5bf6\u5c71\u8def452\u5df7", "latitude": 24.785, "longitude": 120.99084, "timestamp": "2025-04-17T03:06:54.577194Z", "free_bikes": 8, "empty_slots": 17, "extra": {"uid": "508201019", "district": "\u65b0\u7af9\u79d1\u5b78\u5712\u5340", "address": "\u5bf6\u5c71\u8def452\u5df7/\u5bf6\u5c71\u8def\u53e3(\u6771\u5317\u5074)", "slots": 25, "normal_bikes": 8, "ebikes": 0, "last_updated": "2025-04-17 09:50:27", "online": true, "youbike_version": 2, "en": {"name": "Ln. 452, Baoshan Rd.", "district": "Hsinchu Science Park", "address": "Ln. 452, Baoshan Rd. / Baoshan Rd. Intersection (NorthEast)"}}}, {"id": "14b2f9b9e51c75c1d4c32ab89c48a9bd", "name": "\u7814\u767c\u4e00\u8def", "latitude": 24.77451, "longitude": 121.00213, "timestamp": "2025-04-17T03:06:54.577210Z", "free_bikes": 5, "empty_slots": 10, "extra": {"uid": "508201022", "district": "\u65b0\u7af9\u79d1\u5b78\u5712\u5340", "address": "\u7814\u767c\u4e00\u8def15\u865f", "slots": 15, "normal_bikes": 2, "ebikes": 3, "last_updated": "2025-04-17 06:39:21", "online": true, "youbike_version": 2, "en": {"name": "R&D Rd. 1", "district": "Hsinchu Science Park", "address": "No.15, R&D Rd. 1"}}}, {"id": "14f7c619ac397d1559b22fb3c072823f", "name": "\u5712\u5340\u62d6\u540a\u5834", "latitude": 24.7679, "longitude": 121.0221, "timestamp": "2025-04-17T03:06:54.577272Z", "free_bikes": 7, "empty_slots": 7, "extra": {"uid": "508201033", "district": "\u65b0\u7af9\u79d1\u5b78\u5712\u5340", "address": "\u7be4\u884c\u8def7\u865f", "slots": 14, "normal_bikes": 4, "ebikes": 3, "last_updated": "2025-04-17 09:02:19", "online": true, "youbike_version": 2, "en": {"name": "Science Park Towing Zone", "district": "Hsinchu Science Park", "address": "No.7, Du Sing Rd."}}}, {"id": "17510e55797c157bf1a9ed3150a819dd", "name": "\u967d\u660e\u4ea4\u901a\u5927\u5b78-\u65b0\u5b89\u8def", "latitude": 24.78386, "longitude": 120.9942, "timestamp": "2025-04-17T03:06:54.577136Z", "free_bikes": 15, "empty_slots": 15, "extra": {"uid": "508201009", "district": "\u65b0\u7af9\u79d1\u5b78\u5712\u5340", "address": "\u65b0\u5b89\u8def/\u5712\u5340\u4e09\u8def\u53e3(\u6771\u5357\u5074)", "slots": 30, "normal_bikes": 13, "ebikes": 2, "last_updated": "2025-04-17 08:40:24", "online": true, "youbike_version": 2, "en": {"name": "NYCU (Hsin Ann Rd.)", "district": "Hsinchu Science Park", "address": "Xin\u2019an Rd. / Yuanqu 3rd Rd. (Southeast)"}}}, {"id": "1d036c6e3e707435486c500302477fcd", "name": "\u7be4\u884c\u5e7c\u5152\u5712", "latitude": 24.77092, "longitude": 121.02517, "timestamp": "2025-04-17T03:06:54.577119Z", "free_bikes": 11, "empty_slots": 7, "extra": {"uid": "508201006", "district": "\u65b0\u7af9\u79d1\u5b78\u5712\u5340", "address": "\u7be4\u884c\u8def6\u865f\u524d\u4eba\u884c\u9053", "slots": 18, "normal_bikes": 5, "ebikes": 6, "last_updated": "2025-04-17 09:40:24", "online": true, "youbike_version": 2, "en": {"name": "Du-Xing Preschool", "district": "Hsinchu Science Park", "address": "Benedictine Road No. 6 front sidewalk"}}}, {"id": "2109e48a51f6da63504d0610ab40e81f", "name": "\u806f\u5408\u670d\u52d9\u5927\u6a13", "latitude": 24.775771, "longitude": 121.010993, "timestamp": "2025-04-17T03:06:54.577296Z", "free_bikes": 6, "empty_slots": 10, "extra": {"uid": "508201037", "district": "\u65b0\u7af9\u79d1\u5b78\u5712\u5340", "address": "\u5de5\u696d\u6771\u4e03\u8def/\u5712\u5340\u4e00\u8def\u53e3(\u5357\u5074)", "slots": 16, "normal_bikes": 5, "ebikes": 1, "last_updated": "2025-04-17 01:01:18", "online": true, "youbike_version": 2, "en": {"name": "Integrated Services Building", "district": "Hsinchu Science Park", "address": "Industry E. Rd. 7 / Park Ave. 1 Intersection (South)"}}}, {"id": "2691e149b28669d2d1ae6d7f28ea784a", "name": "\u6e56\u6ff1\u4e09\u8def", "latitude": 24.77698, "longitude": 121.01218, "timestamp": "2025-04-17T03:06:54.577226Z", "free_bikes": 7, "empty_slots": 9, "extra": {"uid": "508201025", "district": "\u65b0\u7af9\u79d1\u5b78\u5712\u5340", "address": "\u6e56\u6ff1\u4e09\u8def/\u7af9\u6751\u4e03\u8def\u53e3(\u897f\u5074)", "slots": 16, "normal_bikes": 7, "ebikes": 0, "last_updated": "2025-04-17 06:39:21", "online": true, "youbike_version": 2, "en": {"name": "Hubin Rd. 3", "district": "Hsinchu Science Park", "address": "Lakeshore Rd. 3 / Bamboo Rd. 7 Intersection (West)"}}}, {"id": "297e80f44470ee8c00b66f7aa14727f1", "name": "\u529b\u884c\u56db\u8def", "latitude": 24.76306, "longitude": 121.022187, "timestamp": "2025-04-17T03:06:54.577177Z", "free_bikes": 8, "empty_slots": 6, "extra": {"uid": "508201016", "district": "\u65b0\u7af9\u79d1\u5b78\u5712\u5340", "address": "\u529b\u884c\u8def/\u529b\u884c\u56db\u8def\u53e3(\u897f\u5074)", "slots": 14, "normal_bikes": 2, "ebikes": 6, "last_updated": "2025-04-17 09:27:18", "online": true, "youbike_version": 2, "en": {"name": "Li Hsin Rd. 4", "district": "Hsinchu Science Park", "address": "Li Hsin Rd. / Li Hsin Rd. 4 Intersection (West)"}}}, {"id": "2aa4b1b3477dcb75d225c895fb451c6c", "name": "\u529b\u884c\u4e00\u8def\u529b\u884c\u516d\u8def\u53e3", "latitude": 24.77395, "longitude": 121.0155, "timestamp": "2025-04-17T03:06:54.577148Z", "free_bikes": 17, "empty_slots": 7, "extra": {"uid": "508201011", "district": "\u65b0\u7af9\u79d1\u5b78\u5712\u5340", "address": "\u529b\u884c\u4e00\u8def/\u529b\u884c\u516d\u8def\u53e3(\u5317\u5074)", "slots": 24, "normal_bikes": 14, "ebikes": 3, "last_updated": "2025-04-17 09:20:25", "online": true, "youbike_version": 2, "en": {"name": "Li Hsin Rd. 1/ Li Hsin Rd. 6", "district": "Hsinchu Science Park", "address": "Lixing 1st Rd. / Lixing 6th Rd. (North)"}}}, {"id": "34fb553dc156ab57c7099638820eea5f", "name": "\u5de5\u696d\u6771\u4e5d\u8def(\u897f\u5074)", "latitude": 24.77228, "longitude": 121.00496, "timestamp": "2025-04-17T03:06:54.577307Z", "free_bikes": 5, "empty_slots": 10, "extra": {"uid": "508201039", "district": "\u65b0\u7af9\u79d1\u5b78\u5712\u5340", "address": "\u5de5\u696d\u6771\u4e5d\u8def25\u865f", "slots": 15, "normal_bikes": 5, "ebikes": 0, "last_updated": "2025-04-16 14:20:24", "online": true, "youbike_version": 2, "en": {"name": "Industry E. Rd. 9 (West)", "district": "Hsinchu Science Park", "address": "No.25, Industry E. Rd. 9"}}}, {"id": "3a69ad35386aa95e341e5b47e0eb7f4b", "name": "\u5de5\u696d\u6771\u4e5d\u8def(\u6771\u5074)", "latitude": 24.7721932, "longitude": 121.0082023, "timestamp": "2025-04-17T03:06:54.577312Z", "free_bikes": 5, "empty_slots": 10, "extra": {"uid": "508201040", "district": "\u65b0\u7af9\u79d1\u5b78\u5712\u5340", "address": "\u5de5\u696d\u6771\u4e5d\u8def12\u865f(\u5c0d\u5074)", "slots": 15, "normal_bikes": 5, "ebikes": 0, "last_updated": "2025-04-15 08:40:24", "online": true, "youbike_version": 2, "en": {"name": "Industry E. Rd. 9 (East)", "district": "Hsinchu Science Park", "address": "No.12, Industry E. Rd. 9 (opposite)"}}}, {"id": "3a6e36158d9b9002ac10f43321430e96", "name": "\u5712\u5340\u4e09\u8def\u7814\u65b0\u4e00\u8def\u53e3", "latitude": 24.77678, "longitude": 120.99512, "timestamp": "2025-04-17T03:06:54.577160Z", "free_bikes": 6, "empty_slots": 9, "extra": {"uid": "508201013", "district": "\u65b0\u7af9\u79d1\u5b78\u5712\u5340", "address": "\u7814\u65b0\u4e00\u8def/\u5712\u5340\u4e09\u8def\u53e3(\u897f\u5317\u5074)", "slots": 15, "normal_bikes": 5, "ebikes": 1, "last_updated": "2025-04-17 06:42:21", "online": true, "youbike_version": 2, "en": {"name": "Park Ave. 3 / Creation Rd. 1", "district": "Hsinchu Science Park", "address": "Yanxin 1st Rd. / Yuanqu 3rd Rd. (NorthWest)"}}}, {"id": "4d558410eb44f3807b728d672aef2ae5", "name": "\u7814\u65b0\u56db\u8def", "latitude": 24.77645, "longitude": 120.98544, "timestamp": "2025-04-17T03:06:54.577200Z", "free_bikes": 13, "empty_slots": 7, "extra": {"uid": "508201020", "district": "\u65b0\u7af9\u79d1\u5b78\u5712\u5340", "address": "\u7814\u65b0\u56db\u8def/\u9ad8\u5cf0\u8def\u53e3(\u897f\u5074)", "slots": 20, "normal_bikes": 2, "ebikes": 11, "last_updated": "2025-04-16 09:30:24", "online": true, "youbike_version": 2, "en": {"name": "Creation Rd. 4", "district": "Hsinchu Science Park", "address": "Creation Rd. 4 / Gaofeng Rd. Intersection (West)"}}}, {"id": "50bd36eba0f9722ba997718038892fa1", "name": "\u91d1\u5c71\u5bfa", "latitude": 24.77739, "longitude": 121.01466, "timestamp": "2025-04-17T03:06:54.577107Z", "free_bikes": 10, "empty_slots": 8, "extra": {"uid": "508201004", "district": "\u65b0\u7af9\u79d1\u5b78\u5712\u5340", "address": "\u6e56\u6ff1\u4e8c\u8def201\u865f\u65c1(\u4eba\u884c\u9053)", "slots": 18, "normal_bikes": 10, "ebikes": 0, "last_updated": "2025-04-17 06:05:23", "online": true, "youbike_version": 2, "en": {"name": "Jinshan Temple", "district": "Hsinchu Science Park", "address": "Lakeside Route 201 (sidewalk)"}}}, {"id": "51f37fe4d40df1826dffbf069c2e1a49", "name": "\u529b\u884c\u4e8c\u8def", "latitude": 24.775052, "longitude": 121.01906, "timestamp": "2025-04-17T03:06:54.577255Z", "free_bikes": 9, "empty_slots": 11, "extra": {"uid": "508201030", "district": "\u65b0\u7af9\u79d1\u5b78\u5712\u5340", "address": "\u529b\u884c\u4e8c\u8def1\u865f", "slots": 20, "normal_bikes": 8, "ebikes": 1, "last_updated": "2025-04-17 09:02:19", "online": true, "youbike_version": 2, "en": {"name": "Li Hsin Rd. 2", "district": "Hsinchu Science Park", "address": "No.1, Li Hsin Rd. 2"}}}, {"id": "573a60de9269d971ce823206a34ddd1d", "name": "\u529b\u884c\u516d\u8def", "latitude": 24.771308, "longitude": 121.013191, "timestamp": "2025-04-17T03:06:54.577266Z", "free_bikes": 10, "empty_slots": 11, "extra": {"uid": "508201032", "district": "\u65b0\u7af9\u79d1\u5b78\u5712\u5340", "address": "\u529b\u884c\u516d\u8def/\u5712\u5340\u4e8c\u8def\u53e3", "slots": 21, "normal_bikes": 5, "ebikes": 5, "last_updated": "2025-04-17 09:49:17", "online": true, "youbike_version": 2, "en": {"name": "Li Hsin Rd. 6", "district": "Hsinchu Science Park", "address": "Li Hsin Rd. 6 / Park Ave. 2 Intersection"}}}, {"id": "5eddad2a69b7a78d0291f0dc49b9bf4c", "name": "\u5275\u65b0\u4e09\u8def", "latitude": 24.77943, "longitude": 120.99977, "timestamp": "2025-04-17T03:06:54.577189Z", "free_bikes": 4, "empty_slots": 6, "extra": {"uid": "508201018", "district": "\u65b0\u7af9\u79d1\u5b78\u5712\u5340", "address": "\u5275\u65b0\u4e09\u8def15\u865f", "slots": 10, "normal_bikes": 3, "ebikes": 1, "last_updated": "2025-04-17 08:10:24", "online": true, "youbike_version": 2, "en": {"name": "Innova Rd. 3", "district": "Hsinchu Science Park", "address": "No.15, Innova Rd. 3"}}}, {"id": "61341b08156568326c99128f62112731", "name": "\u897f\u5340\u7db2\u7403\u5834", "latitude": 24.77666, "longitude": 120.99686, "timestamp": "2025-04-17T03:06:54.577205Z", "free_bikes": 8, "empty_slots": 7, "extra": {"uid": "508201021", "district": "\u65b0\u7af9\u79d1\u5b78\u5712\u5340", "address": "\u5275\u65b0\u4e00\u8def/\u7814\u767c\u56db\u8def\u53e3(\u6771\u5074)", "slots": 15, "normal_bikes": 8, "ebikes": 0, "last_updated": "2025-04-16 00:24:18", "online": true, "youbike_version": 2, "en": {"name": "West Tennis Courts", "district": "Hsinchu Science Park", "address": "Innova Rd. 3 / R&D Rd. 4 Intersection (East)"}}}, {"id": "621e49c450883b347bd5b803e74e4cc1", "name": "\u540c\u696d\u516c\u6703", "latitude": 24.78228, "longitude": 121.00198, "timestamp": "2025-04-17T03:06:54.577166Z", "free_bikes": 10, "empty_slots": 5, "extra": {"uid": "508201014", "district": "\u65b0\u7af9\u79d1\u5b78\u5712\u5340", "address": "\u5c55\u696d\u4e00\u8def/\u65b0\u5b89\u8def(\u5317\u5074)", "slots": 15, "normal_bikes": 10, "ebikes": 0, "last_updated": "2025-04-17 09:02:19", "online": true, "youbike_version": 2, "en": {"name": "Allied Assoiciation for Science Park Industries", "district": "Hsinchu Science Park", "address": "Zhanye 1st Rd. / Xin\u2019an Rd. (North)"}}}, {"id": "68ebb07a41ed436eb1d72b2dda07cbad", "name": "\u77fd\u5c0e\u7814\u767c\u4e2d\u5fc3", "latitude": 24.772356, "longitude": 121.016983, "timestamp": "2025-04-17T03:06:54.577318Z", "free_bikes": 3, "empty_slots": 14, "extra": {"uid": "508201041", "district": "\u65b0\u7af9\u79d1\u5b78\u5712\u5340", "address": "\u529b\u884c\u4e00\u8def10-1\u865f(\u6771\u5317\u5074)", "slots": 17, "normal_bikes": 3, "ebikes": 0, "last_updated": "2025-04-17 01:08:17", "online": true, "youbike_version": 2, "en": {"name": "Si-Soft R&D Center", "district": "Hsinchu Science Park", "address": "No.10-1, Li Hsin Rd. 1 (NorthEast)"}}}, {"id": "69c45481e719828f63f6af27ab0da4e2", "name": "\u65fa\u5712", "latitude": 24.76697, "longitude": 121.02508, "timestamp": "2025-04-17T03:06:54.577278Z", "free_bikes": 13, "empty_slots": 2, "extra": {"uid": "508201034", "district": "\u65b0\u7af9\u79d1\u5b78\u5712\u5340", "address": "\u529b\u884c\u8def16\u865f(\u5357\u5074)", "slots": 15, "normal_bikes": 10, "ebikes": 3, "last_updated": "2025-04-16 17:17:18", "online": true, "youbike_version": 2, "en": {"name": "MXIC Park", "district": "Hsinchu Science Park", "address": "No.16, Li Hsin Rd. (South)"}}}, {"id": "808019ef95da5b05b495866c74590cc1", "name": "\u5de5\u696d\u6771\u4e09\u8def", "latitude": 24.7758, "longitude": 121.00466, "timestamp": "2025-04-17T03:06:54.577221Z", "free_bikes": 5, "empty_slots": 10, "extra": {"uid": "508201024", "district": "\u65b0\u7af9\u79d1\u5b78\u5712\u5340", "address": "\u5de5\u696d\u6771\u4e09\u8def/\u5712\u5340\u4e8c\u8def\u53e3(\u5317\u5074)", "slots": 15, "normal_bikes": 5, "ebikes": 0, "last_updated": "2025-04-17 00:41:17", "online": true, "youbike_version": 2, "en": {"name": "Industry E. Rd. 3", "district": "Hsinchu Science Park", "address": "Industry E. Rd. 3 / Park Ave. 2 Intersection (North)"}}}, {"id": "8210d33d4cf39113a422afd80bceb7a7", "name": "\u8208\u696d\u4e8c\u8def\u505c\u8eca\u5834", "latitude": 24.77872, "longitude": 120.98996, "timestamp": "2025-04-17T03:06:54.577172Z", "free_bikes": 9, "empty_slots": 6, "extra": {"uid": "508201015", "district": "\u65b0\u7af9\u79d1\u5b78\u5712\u5340", "address": "\u8208\u696d\u4e8c\u8def/\u7814\u65b0\u4e09\u8def\u53e3(\u897f\u5074)", "slots": 15, "normal_bikes": 6, "ebikes": 3, "last_updated": "2025-04-17 09:50:27", "online": true, "youbike_version": 2, "en": {"name": "Singye Rd. 2 lot", "district": "Hsinchu Science Park", "address": "Xingye 2nd Rd. / Yanxin 3rd Rd. (West)"}}}, {"id": "87fbe4703012a6760bbfd075dae895d4", "name": "\u975c\u5fc3\u6e56", "latitude": 24.77874, "longitude": 121.01078, "timestamp": "2025-04-17T03:06:54.577100Z", "free_bikes": 14, "empty_slots": 10, "extra": {"uid": "508201003", "district": "\u65b0\u7af9\u79d1\u5b78\u5712\u5340", "address": "\u7af9\u6751\u4e03\u8def7\u865f\u524d\u4eba\u884c\u9053", "slots": 24, "normal_bikes": 14, "ebikes": 0, "last_updated": "2025-04-17 09:10:25", "online": true, "youbike_version": 2, "en": {"name": "Jingsin Lake", "district": "Hsinchu Science Park", "address": "Bamboo Village 7 Road on the 7th front sidewalk"}}}, {"id": "915160feba90e93690a10122b15cff62", "name": "\u5c55\u696d\u4e8c\u8def", "latitude": 24.78375, "longitude": 121.00059, "timestamp": "2025-04-17T03:06:54.577183Z", "free_bikes": 6, "empty_slots": 9, "extra": {"uid": "508201017", "district": "\u65b0\u7af9\u79d1\u5b78\u5712\u5340", "address": "\u5c55\u696d\u4e00\u8def/\u5c55\u696d\u4e8c\u8def\u53e3(\u5317\u5074)", "slots": 15, "normal_bikes": 5, "ebikes": 1, "last_updated": "2025-04-17 07:30:25", "online": true, "youbike_version": 2, "en": {"name": "Prosperity Rd. 2", "district": "Hsinchu Science Park", "address": "Prosperity Rd. 1 / Prosperity Rd. 2 Intersection (North)"}}}, {"id": "9bca91eea8bc8d0395b7372e65774db5", "name": "\u7be4\u884c\u6c61\u6c34\u8655\u7406\u5ee0", "latitude": 24.776042, "longitude": 121.022801, "timestamp": "2025-04-17T03:06:54.577261Z", "free_bikes": 0, "empty_slots": 20, "extra": {"uid": "508201031", "district": "\u65b0\u7af9\u79d1\u5b78\u5712\u5340", "address": "\u529b\u884c\u4e09\u8def/\u529b\u884c\u8def\u53e3(\u6771\u5317\u5074)", "slots": 20, "normal_bikes": 0, "ebikes": 0, "last_updated": "2025-04-17 08:33:18", "online": true, "youbike_version": 2, "en": {"name": "Du-Sing Wastewater Treatment Plant", "district": "Hsinchu Science Park", "address": "Li Hsin Rd. 3 / Li Hsin Rd. Intersection (NorthEast)"}}}, {"id": "9cfa8bb24496e467d3e890148f751dcc", "name": "\u7af9\u79d1\u7ba1\u7406\u5c40", "latitude": 24.78142, "longitude": 121.00607, "timestamp": "2025-04-17T03:06:54.577078Z", "free_bikes": 6, "empty_slots": 9, "extra": {"uid": "508201001", "district": "\u65b0\u7af9\u79d1\u5b78\u5712\u5340", "address": "\u65b0\u5b89\u8def2\u865f\u524d\u4eba\u884c\u9053", "slots": 15, "normal_bikes": 3, "ebikes": 3, "last_updated": "2025-04-17 09:02:19", "online": true, "youbike_version": 2, "en": {"name": "Science Park Bureau", "district": "Hsinchu Science Park", "address": "Xin'an Road No. 2 front sidewalk"}}}, {"id": "abc0497cbba9d70644b2d4b6b3c821b6", "name": "\u5de5\u696d\u6771\u56db\u8def", "latitude": 24.7748, "longitude": 121.0078, "timestamp": "2025-04-17T03:06:54.577301Z", "free_bikes": 13, "empty_slots": 4, "extra": {"uid": "508201038", "district": "\u65b0\u7af9\u79d1\u5b78\u5712\u5340", "address": "\u5de5\u696d\u6771\u56db\u8def/\u5de5\u696d\u6771\u4e94\u8def\u53e3(\u897f\u5074)", "slots": 17, "normal_bikes": 11, "ebikes": 2, "last_updated": "2025-04-16 13:10:23", "online": true, "youbike_version": 2, "en": {"name": "Industry E. Rd. 4", "district": "Hsinchu Science Park", "address": "Industry E. Rd. 4 / Industry E. Rd. 5 Intersection (West)"}}}, {"id": "af6970381ac5b5dd2be1b52638b4ce83", "name": "\u4ecb\u58fd\u8def", "latitude": 24.778, "longitude": 121.01901, "timestamp": "2025-04-17T03:06:54.577290Z", "free_bikes": 13, "empty_slots": 7, "extra": {"uid": "508201036", "district": "\u65b0\u7af9\u79d1\u5b78\u5712\u5340", "address": "\u4ecb\u58fd\u8def/\u91d1\u5c71\u8857\u53e3", "slots": 20, "normal_bikes": 12, "ebikes": 1, "last_updated": "2025-04-17 09:40:24", "online": true, "youbike_version": 2, "en": {"name": "Jie Shou Rd.", "district": "Hsinchu Science Park", "address": "Jie Shou Rd. / Jin Shan St. Intersection"}}}, {"id": "b00ffd426ad16ab984e48c2b2c2b099e", "name": "\u96d9\u5712\u8def\u505c\u8eca\u5834", "latitude": 24.769811, "longitude": 121.00532, "timestamp": "2025-04-17T03:06:54.577284Z", "free_bikes": 18, "empty_slots": 1, "extra": {"uid": "508201035", "district": "\u65b0\u7af9\u79d1\u5b78\u5712\u5340", "address": "\u96d9\u5712\u8def\u4e00\u6bb5/\u96d9\u5712\u8def\u4e00\u6bb56\u5df7\u53e3", "slots": 20, "normal_bikes": 12, "ebikes": 6, "last_updated": "2025-04-16 17:00:24", "online": true, "youbike_version": 2, "en": {"name": "Shuang Yuan Rd. Parking Lot", "district": "Hsinchu Science Park", "address": "Sec. 1, Shuang Yuan Rd. / Ln. 6, Sec. 1, Shuang Yuan Rd. Intersection"}}}, {"id": "b983184e87d3f88a999ffc04585c291a", "name": "\u5712\u5340\u5927\u9580(\u6771\u5074)", "latitude": 24.78727, "longitude": 121.00959, "timestamp": "2025-04-17T03:06:54.577232Z", "free_bikes": 6, "empty_slots": 19, "extra": {"uid": "508201026", "district": "\u65b0\u7af9\u79d1\u5b78\u5712\u5340", "address": "\u5149\u5fa9\u8def\u4e00\u6bb5/\u5712\u5340\u4e00\u8def\u53e3(\u6771\u5074)", "slots": 25, "normal_bikes": 6, "ebikes": 0, "last_updated": "2025-04-16 15:51:23", "online": true, "youbike_version": 2, "en": {"name": "HSP Main Gate (East)", "district": "Hsinchu Science Park", "address": "Guangfu Rd. / Park Ave. 1 Intersection ((East)"}}}, {"id": "bb30e8d59d700a97c1e156c1dd587ae0", "name": "\u7af9\u6751\u4e09\u8def(\u897f\u5074)", "latitude": 24.7798, "longitude": 121.00738, "timestamp": "2025-04-17T03:06:54.577250Z", "free_bikes": 7, "empty_slots": 8, "extra": {"uid": "508201029", "district": "\u65b0\u7af9\u79d1\u5b78\u5712\u5340", "address": "\u7af9\u6751\u4e09\u8def9\u865f(\u5317\u5074)", "slots": 15, "normal_bikes": 5, "ebikes": 2, "last_updated": "2025-04-16 22:32:18", "online": true, "youbike_version": 2, "en": {"name": "Bamboo Rd. 3 (West)", "district": "Hsinchu Science Park", "address": "No.9, Bamboo Rd. 3 (North)"}}}, {"id": "bf6b467b5e3030a4db8cec21729447e6", "name": "\u5712\u5340\u5927\u9580(\u897f\u5074)", "latitude": 24.78819, "longitude": 121.00834, "timestamp": "2025-04-17T03:06:54.577238Z", "free_bikes": 7, "empty_slots": 10, "extra": {"uid": "508201027", "district": "\u65b0\u7af9\u79d1\u5b78\u5712\u5340", "address": "\u5149\u5fa9\u8def\u4e00\u6bb5/\u5712\u5340\u4e00\u8def\u53e3(\u897f\u5074)", "slots": 18, "normal_bikes": 7, "ebikes": 0, "last_updated": "2025-04-17 07:00:26", "online": true, "youbike_version": 2, "en": {"name": "HSP Main Gate (West)", "district": "Hsinchu Science Park", "address": "Guangfu Rd. / Park Ave. 1 Intersection ((West)"}}}, {"id": "c522fdd488762a4ef7550afe413009ee", "name": "\u7814\u767c\u56db\u8def\u516c\u5712", "latitude": 24.77884, "longitude": 120.99843, "timestamp": "2025-04-17T03:06:54.577130Z", "free_bikes": 4, "empty_slots": 11, "extra": {"uid": "508201008", "district": "\u65b0\u7af9\u79d1\u5b78\u5712\u5340", "address": "\u5712\u5340\u4e8c\u8def15\u865f(\u659c\u5c0d\u9762\u4eba\u884c\u9053)", "slots": 15, "normal_bikes": 4, "ebikes": 0, "last_updated": "2025-04-16 19:10:28", "online": true, "youbike_version": 2, "en": {"name": "R&D Rd. 4 Public Park", "district": "Hsinchu Science Park", "address": "Park Road No. 15 (diagonally opposite sidewalk)"}}}, {"id": "cf3c769f520a052e129919f6e53488e5", "name": "\u806f\u5712", "latitude": 24.76807, "longitude": 121.01915, "timestamp": "2025-04-17T03:06:54.577154Z", "free_bikes": 3, "empty_slots": 15, "extra": {"uid": "508201012", "district": "\u65b0\u7af9\u79d1\u5b78\u5712\u5340", "address": "\u529b\u884c\u4e09\u8def/\u529b\u884c\u4e8c\u8def\u53e3(\u5317\u5074)", "slots": 18, "normal_bikes": 1, "ebikes": 2, "last_updated": "2025-04-17 08:30:25", "online": true, "youbike_version": 2, "en": {"name": "UMC Recreation Center", "district": "Hsinchu Science Park", "address": "Lixing 3rd Rd. / Lixing 2nd Rd. (North)"}}}, {"id": "d70318cdcfc9cec79cd8e056007e57d2", "name": "\u79d1\u6280\u751f\u6d3b\u9928", "latitude": 24.78004, "longitude": 121.0054, "timestamp": "2025-04-17T03:06:54.577093Z", "free_bikes": 2, "empty_slots": 28, "extra": {"uid": "508201002", "district": "\u65b0\u7af9\u79d1\u5b78\u5712\u5340", "address": "\u5de5\u696d\u6771\u4e8c\u8def1\u865f\u65c1\u4eba\u884c\u9053", "slots": 30, "normal_bikes": 2, "ebikes": 0, "last_updated": "2025-04-17 10:03:18", "online": true, "youbike_version": 2, "en": {"name": "Science Park Hub", "district": "Hsinchu Science Park", "address": "Industrial East Road on the 1st side of the sidewalk"}}}, {"id": "db9c3eaa1c2092e77189fcba46cce8c9", "name": "\u7af9\u6751\u4e09\u8def(\u6771\u5074)", "latitude": 24.77816, "longitude": 121.00931, "timestamp": "2025-04-17T03:06:54.577244Z", "free_bikes": 12, "empty_slots": 11, "extra": {"uid": "508201028", "district": "\u65b0\u7af9\u79d1\u5b78\u5712\u5340", "address": "\u7af9\u6751\u4e09\u8def20\u865f(\u5c0d\u5074)", "slots": 23, "normal_bikes": 9, "ebikes": 3, "last_updated": "2025-04-17 06:27:18", "online": true, "youbike_version": 2, "en": {"name": "Bamboo Rd. 3 (East)", "district": "Hsinchu Science Park", "address": "No.20, Bamboo Rd. 3 (opposite)"}}}, {"id": "ee23cdaf6d5b8542ccb85e74b92e6498", "name": "\u7814\u767c\u4e8c\u8def\u505c\u8eca\u5834", "latitude": 24.77786, "longitude": 121.00223, "timestamp": "2025-04-17T03:06:54.577142Z", "free_bikes": 3, "empty_slots": 12, "extra": {"uid": "508201010", "district": "\u65b0\u7af9\u79d1\u5b78\u5712\u5340", "address": "\u7814\u767c\u4e8c\u8def/\u5275\u65b0\u4e09\u8def\u53e3(\u5357\u5074)", "slots": 15, "normal_bikes": 3, "ebikes": 0, "last_updated": "2025-04-16 23:41:17", "online": true, "youbike_version": 2, "en": {"name": "R&D Rd. 2 lot", "district": "Hsinchu Science Park", "address": "Yanfa 2nd Rd. / Chuangxin 3rd Rd. (East)"}}}, {"id": "ff3c59f4c52c5b9e625993f5a7b0d2e3", "name": "\u5be6\u9a57\u4e2d\u5b78", "latitude": 24.77589, "longitude": 121.01619, "timestamp": "2025-04-17T03:06:54.577215Z", "free_bikes": 10, "empty_slots": 9, "extra": {"uid": "508201023", "district": "\u65b0\u7af9\u79d1\u5b78\u5712\u5340", "address": "\u4ecb\u58fd\u8def/\u5712\u5340\u4e00\u8def\u53e3(\u897f\u5074)", "slots": 19, "normal_bikes": 5, "ebikes": 5, "last_updated": "2025-04-17 07:50:24", "online": true, "youbike_version": 2, "en": {"name": "National Experimental High School At Hsinchu Science Park", "district": "Hsinchu Science Park", "address": "Park Ave. 1 / Jie Shou Rd. Intersection ((West)"}}}]}