{"id": "youbike-hsinchu-county", "name": "YouBike", "location": {"latitude": 24.8269, "longitude": 121.0129, "city": "\u65b0\u7af9\u7e23 Hsinchu County", "country": "TW"}, "href": "/v2/networks/youbike-hsinchu-county", "company": ["YouBike Co., Ltd."], "system": "YouBike", "stations": [{"id": "03f681e677a0d888137da044f36483d9", "name": "\u516d\u5bb6\u9ad8\u4e2d", "latitude": 24.82072, "longitude": 121.03144, "timestamp": "2025-04-17T03:06:51.715944Z", "free_bikes": 14, "empty_slots": 3, "extra": {"uid": "500501019", "district": "\u7af9\u5317\u5e02", "address": "\u5609\u8208\u8def356\u865f", "slots": 20, "normal_bikes": 5, "ebikes": 9, "last_updated": "2025-04-17 08:40:23", "online": true, "youbike_version": 2, "en": {"name": "Liou Jia Senior High School", "district": "Zhubei", "address": "No.356, Jiaxing Rd."}}}, {"id": "05dd1a63ffa9606d050f2d63200e158b", "name": "\u7af9\u6771\u93ae\u516c\u6240", "latitude": 24.73681, "longitude": 121.09169, "timestamp": "2025-04-17T03:06:51.716806Z", "free_bikes": 1, "empty_slots": 14, "extra": {"uid": "500502012", "district": "\u7af9\u6771\u93ae", "address": "\u6771\u6797\u8def88\u865f", "slots": 15, "normal_bikes": 1, "ebikes": 0, "last_updated": "2025-04-17 10:42:17", "online": true, "youbike_version": 2, "en": {"name": "Zhudong Township Office", "district": "Zhudong", "address": "No. 88, Donglin Rd."}}}, {"id": "066499e04667c4037fd3948f09f2169a", "name": "\u5149\u660e\u516d\u8def\u838a\u656c\u516d\u8857\u53e3", "latitude": 24.82048, "longitude": 121.02702, "timestamp": "2025-04-17T03:06:51.715777Z", "free_bikes": 5, "empty_slots": 11, "extra": {"uid": "500501002", "district": "\u7af9\u5317\u5e02", "address": "\u5149\u660e\u516d\u8def\u6771\u4e00\u6bb5/\u838a\u656c\u516d\u8857\u53e3(\u897f\u5317\u5074)", "slots": 17, "normal_bikes": 5, "ebikes": 0, "last_updated": "2025-04-17 09:34:18", "online": true, "youbike_version": 2, "en": {"name": "Guangming 6th Rd. / Zhuangjing 6th St.", "district": "Zhubei", "address": "Dong Sec. 1, Guangming 6th Rd. / Zhuangjing 6th St. Intersection (Northwest)"}}}, {"id": "0abccdca2c0449ab26e7f07e09313b56", "name": "\u738b\u723a\u58df\u904b\u52d5\u516c\u5712", "latitude": 24.89831, "longitude": 121.04253, "timestamp": "2025-04-17T03:06:51.716888Z", "free_bikes": 4, "empty_slots": 8, "extra": {"uid": "500503004", "district": "\u6e56\u53e3\u9109", "address": "\u4e2d\u5c71\u8def\u4e00\u6bb5/\u6eaa\u5357\u4e00\u8857\u53e3(\u897f\u5357\u5074)", "slots": 12, "normal_bikes": 4, "ebikes": 0, "last_updated": "2025-04-17 09:28:17", "online": true, "youbike_version": 2, "en": {"name": "Wang Ye Long Sports Park", "district": "Hukou", "address": "Sec. 1, Zhongshan Rd. / Xinan 1st St. Intersection (Southwest)"}}}, {"id": "0c4e902515ffab27407d7b7173dc84e9", "name": "\u81ea\u5f37\u570b\u4e2d", "latitude": 24.74498, "longitude": 121.08535, "timestamp": "2025-04-17T03:06:51.716731Z", "free_bikes": 0, "empty_slots": 12, "extra": {"uid": "500502004", "district": "\u7af9\u6771\u93ae", "address": "\u81ea\u5f37\u8def169\u865f", "slots": 12, "normal_bikes": 0, "ebikes": 0, "last_updated": "2025-04-17 10:32:17", "online": true, "youbike_version": 2, "en": {"name": "Tuz Chiang Junior High School", "district": "Zhudong", "address": "No. 169, Ziqiang Rd."}}}, {"id": "113773b03b4a5286796ddd50e7c82f05", "name": "\u6587\u5c71\u793e\u5340\u6d3b\u52d5\u4e2d\u5fc3", "latitude": 24.83249, "longitude": 121.03475, "timestamp": "2025-04-17T03:06:51.717189Z", "free_bikes": 11, "empty_slots": 9, "extra": {"uid": "500505005", "district": "\u65b0\u57d4\u93ae", "address": "\u6587\u5c71\u4e00\u885769\u865f", "slots": 20, "normal_bikes": 8, "ebikes": 3, "last_updated": "2025-04-16 07:20:25", "online": true, "youbike_version": 2, "en": {"name": "Wenshan Community Center", "district": "Xinpu", "address": "No. 69, Wenshan 1st St."}}}, {"id": "12ef5ff7ca93e3f511ef1e819f69cae5", "name": "\u515210\u516c\u5712", "latitude": 24.82921, "longitude": 121.013, "timestamp": "2025-04-17T03:06:51.716457Z", "free_bikes": 8, "empty_slots": 10, "extra": {"uid": "500501078", "district": "\u7af9\u5317\u5e02", "address": "\u5433\u6fc1\u6d41\u8def/\u6587\u5e73\u8def\u53e3(\u6771\u5317\u5074)", "slots": 18, "normal_bikes": 8, "ebikes": 0, "last_updated": "2025-04-17 09:50:27", "online": true, "youbike_version": 2, "en": {"name": "Children's 10th Park", "district": "Zhubei", "address": "Wuzhuoliu Rd. / Wenping Rd. Intersection (Northeast)"}}}, {"id": "13fb5eb5d19d88487f49db30642fc07f", "name": "\u65b0\u7af9\u7e23\u5a66\u5e7c\u9928", "latitude": 24.83367, "longitude": 121.01917, "timestamp": "2025-04-17T03:06:51.716211Z", "free_bikes": 11, "empty_slots": 8, "extra": {"uid": "500501048", "district": "\u7af9\u5317\u5e02", "address": "\u7e23\u653f\u4e8c\u8def/\u6587\u5fe0\u8857\u53e3(\u897f\u5074)", "slots": 20, "normal_bikes": 10, "ebikes": 1, "last_updated": "2025-04-17 06:50:25", "online": true, "youbike_version": 2, "en": {"name": "\"Hsinchu County Women and Children Affairs Building\"", "district": "Zhubei", "address": "Xianzheng 2nd Rd. / Wenzhong Rd. Intersection (West)"}}}, {"id": "14ceed43c2b8ff22256673dfd543d647", "name": "\u5b89\u5b85\u4e00\u8857\u862d\u5dde\u8857\u53e3", "latitude": 24.86994, "longitude": 121.033, "timestamp": "2025-04-17T03:06:51.717015Z", "free_bikes": 1, "empty_slots": 11, "extra": {"uid": "500503018", "district": "\u6e56\u53e3\u9109", "address": "\u862d\u5dde\u88572\u865f(\u5c0d\u5074)", "slots": 12, "normal_bikes": 1, "ebikes": 0, "last_updated": "2025-04-17 07:39:17", "online": true, "youbike_version": 2, "en": {"name": "Anzhai 1st St. / Lanzhou St.", "district": "Hukou", "address": "No. 2, Lanzhou St. (Opposite)"}}}, {"id": "15162dd0ebdf8096396d1e8d1d6f3d3f", "name": "\u9577\u9752\u8def\u9cf3\u5ca1\u8def\u53e3", "latitude": 24.86002, "longitude": 120.96296, "timestamp": "2025-04-17T03:06:51.716349Z", "free_bikes": 4, "empty_slots": 11, "extra": {"uid": "500501065", "district": "\u7af9\u5317\u5e02", "address": "\u9577\u9752\u8def\u4e8c\u6bb5/\u9cf3\u5ca1\u8def\u4e09\u6bb5\u53e3(\u5357\u5074)", "slots": 15, "normal_bikes": 3, "ebikes": 1, "last_updated": "2025-04-15 08:40:23", "online": true, "youbike_version": 2, "en": {"name": "Changqing Rd. / Fenggang Rd.", "district": "Zhubei", "address": "Sec. 2, Changqing Rd. / Sec. 3, Fenggang Rd. Intersection (South)"}}}, {"id": "176d068f7234c6da33a0203d119ecd30", "name": "\u5152\u516d\u852c\u679c\u516c\u5712", "latitude": 24.82393, "longitude": 121.02851, "timestamp": "2025-04-17T03:06:51.716023Z", "free_bikes": 4, "empty_slots": 11, "extra": {"uid": "500501028", "district": "\u7af9\u5317\u5e02", "address": "\u838a\u656c\u516d\u8857/\u52dd\u5229\u516d\u8857\u53e3(\u6771\u5357\u5074)", "slots": 15, "normal_bikes": 4, "ebikes": 0, "last_updated": "2025-04-17 09:10:24", "online": true, "youbike_version": 2, "en": {"name": "Children's 6th Fruit Park", "district": "Zhubei", "address": "Zhuangjing 6th St. / Shengli 6th St. Intersection (Southeast)"}}}, {"id": "189cff67e0d876d11474465c332a77bf", "name": "\u5149\u660e\u516d\u8def\u7e23\u653f\u4e5d\u8def\u53e3", "latitude": 24.82733, "longitude": 121.00952, "timestamp": "2025-04-17T03:06:51.715843Z", "free_bikes": 13, "empty_slots": 12, "extra": {"uid": "500501008", "district": "\u7af9\u5317\u5e02", "address": "\u7e23\u653f\u4e5d\u8def/\u5149\u660e\u516d\u8def\u53e3(\u897f\u5317\u5074)", "slots": 25, "normal_bikes": 12, "ebikes": 1, "last_updated": "2025-04-17 08:30:23", "online": true, "youbike_version": 2, "en": {"name": "Xianzheng 9th Rd. / Guangming 6th Rd.", "district": "Zhubei", "address": "Xianzheng 9th Rd. / Guangming 6th Rd. Intersection (Northwest)"}}}, {"id": "1cf8f7e1e57309815a147512686f7220", "name": "\u5317\u8208\u505c\u8eca\u5834", "latitude": 24.82685, "longitude": 121.02695, "timestamp": "2025-04-17T03:06:51.716485Z", "free_bikes": 11, "empty_slots": 14, "extra": {"uid": "500501081", "district": "\u7af9\u5317\u5e02", "address": "\u838a\u656c\u4e09\u8def250\u865f(\u897f\u5074)", "slots": 25, "normal_bikes": 11, "ebikes": 0, "last_updated": "2025-04-17 07:20:25", "online": true, "youbike_version": 2, "en": {"name": "Beixing Parking Lot", "district": "Zhubei", "address": "No. 250, Zhuangjing 3rd Rd. (West)"}}}, {"id": "1d2713fdb52f0ab452ac4622c51f6821", "name": "\u4e2d\u6b63\u897f\u8def\u65b0\u5bee\u8857\u53e3", "latitude": 24.84095, "longitude": 120.97569, "timestamp": "2025-04-17T03:06:51.716386Z", "free_bikes": 6, "empty_slots": 7, "extra": {"uid": "500501070", "district": "\u7af9\u5317\u5e02", "address": "\u4e2d\u6b63\u897f\u8def/\u65b0\u5bee\u8857\u53e3(\u6771\u5074)", "slots": 15, "normal_bikes": 6, "ebikes": 0, "last_updated": "2025-04-17 02:31:17", "online": true, "youbike_version": 2, "en": {"name": "Zhongzheng W. Rd. / Xinliao St.", "district": "Zhubei", "address": "Zhongzheng W. Rd. / Xinliao St. Intersection (East)"}}}, {"id": "214a5ef7de04c01c7ab69a1abdbc9293", "name": "\u7af9\u4ec1\u505c\u8eca\u5834", "latitude": 24.83552, "longitude": 121.01181, "timestamp": "2025-04-17T03:06:51.715881Z", "free_bikes": 8, "empty_slots": 6, "extra": {"uid": "500501012", "district": "\u7af9\u5317\u5e02", "address": "\u4e2d\u6b63\u6771\u8def/\u4ec1\u5b5d\u8857\u53e3(\u897f\u5317\u5074)", "slots": 15, "normal_bikes": 7, "ebikes": 1, "last_updated": "2025-04-16 21:20:24", "online": true, "youbike_version": 2, "en": {"name": "Zhuren Parking Lot", "district": "Zhubei", "address": "Zhongzheng E. Rd. / Renxiao St. Intersection (Northwest)"}}}, {"id": "239287e46d5d6b24c9cf825a30b40533", "name": "\u7af9\u7fa9\u6dbc\u4ead", "latitude": 24.83772, "longitude": 121.00279, "timestamp": "2025-04-17T03:06:51.716698Z", "free_bikes": 15, "empty_slots": 18, "extra": {"uid": "500501106", "district": "\u7af9\u5317\u5e02", "address": "\u4e2d\u592e\u8def98\u865f(\u6771\u5074)", "slots": 33, "normal_bikes": 13, "ebikes": 2, "last_updated": "2025-04-17 07:30:25", "online": true, "youbike_version": 2, "en": {"name": "Chu-Yi Pavilion", "district": "Zhubei", "address": "No. 98, Central Road (east side)"}}}, {"id": "2557a6f6aa042ab17f9a600d6017b832", "name": "\u4e2d\u83ef\u8def\u65b0\u5de5\u4e94\u8def\u53e3", "latitude": 24.8482, "longitude": 121.00486, "timestamp": "2025-04-17T03:06:51.716291Z", "free_bikes": 3, "empty_slots": 17, "extra": {"uid": "500501058", "district": "\u7af9\u5317\u5e02", "address": "\u4e2d\u83ef\u8def/\u65b0\u5de5\u4e94\u8def\u53e3(\u5357\u5074)", "slots": 20, "normal_bikes": 3, "ebikes": 0, "last_updated": "2025-04-17 09:34:18", "online": true, "youbike_version": 2, "en": {"name": "Zhonghua Rd. / Xingong 5th Rd.", "district": "Zhubei", "address": "Zhonghua Rd. / Xingong 5th Rd. Intersection (South)"}}}, {"id": "256a091e48507f6598868de7fa7d67c9", "name": "\u8c50\u7530\u570b\u5c0f", "latitude": 24.84251, "longitude": 120.96405, "timestamp": "2025-04-17T03:06:51.716341Z", "free_bikes": 8, "empty_slots": 7, "extra": {"uid": "500501064", "district": "\u7af9\u5317\u5e02", "address": "\u4e2d\u6b63\u897f\u8def1550\u865f(\u8c50\u7530\u6d3e\u51fa\u6240)", "slots": 15, "normal_bikes": 5, "ebikes": 3, "last_updated": "2025-04-13 13:10:23", "online": true, "youbike_version": 2, "en": {"name": "Feng Tien Elementary School", "district": "Zhubei", "address": "No. 1550, Zhongzheng W. Rd. (Feng Tien Police Station)"}}}, {"id": "2647847fb8aa6cdd7a9baf727f976a17", "name": "\u516c\u51522\u516c\u5712", "latitude": 24.83327, "longitude": 121.02492, "timestamp": "2025-04-17T03:06:51.716164Z", "free_bikes": 9, "empty_slots": 16, "extra": {"uid": "500501043", "district": "\u7af9\u5317\u5e02", "address": "\u65b0\u7027\u4e8c\u8857/\u5317\u65b0\u4e00\u8857\u53e3(\u6771\u5357\u5074)", "slots": 25, "normal_bikes": 5, "ebikes": 4, "last_updated": "2025-04-17 06:50:25", "online": true, "youbike_version": 2, "en": {"name": "Gonger2 Park", "district": "Zhubei", "address": "Xinlong 2nd St. / Beixin 1st St. Intersection (Southeast)"}}}, {"id": "2695ff9c45512b659c370b8cc2da7588", "name": "\u89aa\u5b50\u516c\u5712", "latitude": 24.82699, "longitude": 121.00487, "timestamp": "2025-04-17T03:06:51.716145Z", "free_bikes": 11, "empty_slots": 14, "extra": {"uid": "500501041", "district": "\u7af9\u5317\u5e02", "address": "\u5149\u660e\u4e5d\u8def301\u5df7/\u5149\u660e\u5341\u8857\u53e3(\u5317\u5074)", "slots": 25, "normal_bikes": 11, "ebikes": 0, "last_updated": "2025-04-17 08:50:23", "online": true, "youbike_version": 2, "en": {"name": "Parent-child Park", "district": "Zhubei", "address": "Ln. 301, Guangming 9th Rd. / Guangming 10th St. Intersection (North)"}}}, {"id": "2906aaeb633a9aa549155d1c5d506a9d", "name": "\u5152\u4e03\u516c\u5712", "latitude": 24.80374, "longitude": 121.03218, "timestamp": "2025-04-17T03:06:51.715979Z", "free_bikes": 6, "empty_slots": 7, "extra": {"uid": "500501023", "district": "\u7af9\u5317\u5e02", "address": "\u5609\u8c50\u5341\u4e00\u8def\u4e8c\u6bb5/\u9698\u53e3\u516d\u8857\u53e3(\u897f\u5357\u5074)", "slots": 13, "normal_bikes": 6, "ebikes": 0, "last_updated": "2025-04-17 09:50:26", "online": true, "youbike_version": 2, "en": {"name": "Children's 7th Park", "district": "Zhubei", "address": "Sec. 2, Jiafeng 11th Rd. / Aikou 6th St. Intersection (Southwest)"}}}, {"id": "29d262498b5876c8061a050a29024799", "name": "\u6e56\u53e3\u9109\u7acb\u5716\u66f8\u9928", "latitude": 24.90176, "longitude": 121.03808, "timestamp": "2025-04-17T03:06:51.717007Z", "free_bikes": 5, "empty_slots": 7, "extra": {"uid": "500503017", "district": "\u6e56\u53e3\u9109", "address": "\u660e\u5fb7\u8857296\u865f", "slots": 12, "normal_bikes": 3, "ebikes": 2, "last_updated": "2025-04-17 03:10:23", "online": true, "youbike_version": 2, "en": {"name": "Hukou Township Library", "district": "Hukou", "address": "No. 296, Mingde St."}}}, {"id": "2cf359bdfcd65642fc3160147ab2e844", "name": "\u81fa\u9435\u7af9\u4e2d\u8eca\u7ad9", "latitude": 24.78117, "longitude": 121.03144, "timestamp": "2025-04-17T03:06:51.716723Z", "free_bikes": 5, "empty_slots": 15, "extra": {"uid": "500502003", "district": "\u7af9\u6771\u93ae", "address": "\u7af9\u4e2d\u8def145\u865f", "slots": 20, "normal_bikes": 5, "ebikes": 0, "last_updated": "2025-04-17 09:10:24", "online": true, "youbike_version": 2, "en": {"name": "Taiwan Railway Zhuzhong Station", "district": "Zhudong", "address": "No. 145, Zhuzhong Rd."}}}, {"id": "2d41881036834b01b3ffb5b87b664411", "name": "\u5fe0\u5b5d\u8def\u6c11\u751f\u8857\u53e3", "latitude": 24.90068, "longitude": 121.04604, "timestamp": "2025-04-17T03:06:51.716880Z", "free_bikes": 2, "empty_slots": 11, "extra": {"uid": "500503003", "district": "\u6e56\u53e3\u9109", "address": "\u5fe0\u5b5d\u8def/\u6c11\u751f\u8857\u53e3(\u6771\u5317\u5074)", "slots": 13, "normal_bikes": 2, "ebikes": 0, "last_updated": "2025-04-17 09:20:24", "online": true, "youbike_version": 2, "en": {"name": "Zhongxiao Rd. / Minsheng St.", "district": "Hukou", "address": "Zhongxiao Rd. / Minsheng St. Intersection (Northeast)"}}}, {"id": "2f8e8f9ada3c37640afe32b71880b63c", "name": "\u4e2d\u6b63\u570b\u4e2d", "latitude": 24.87249, "longitude": 121.01775, "timestamp": "2025-04-17T03:06:51.716940Z", "free_bikes": 5, "empty_slots": 10, "extra": {"uid": "500503010", "district": "\u6e56\u53e3\u9109", "address": "\u4ec1\u8208\u8def/\u6587\u5316\u8def\u53e3(\u897f\u5357\u5074)", "slots": 15, "normal_bikes": 4, "ebikes": 1, "last_updated": "2025-04-17 06:45:22", "online": true, "youbike_version": 2, "en": {"name": "chung cheng  Junior High School", "district": "Hukou", "address": "Renxing Rd. / Wenhua Rd. Intersection (Southwest)"}}}, {"id": "2fb01faecf08b83d3a830cf6607f4887", "name": "\u6e56\u5fc3\u516c\u5712", "latitude": 24.89575, "longitude": 121.04216, "timestamp": "2025-04-17T03:06:51.716897Z", "free_bikes": 4, "empty_slots": 8, "extra": {"uid": "500503005", "district": "\u6e56\u53e3\u9109", "address": "\u4e2d\u5c71\u8def\u4e00\u6bb5/\u9054\u751f\u4e8c\u8857\u53e3(\u6771\u5317\u5074)", "slots": 12, "normal_bikes": 3, "ebikes": 1, "last_updated": "2025-04-17 09:22:18", "online": true, "youbike_version": 2, "en": {"name": "Hu Xin Park", "district": "Hukou", "address": "Sec. 1, Zhongshan Rd. / Dasheng 2nd St. Intersection (Northeast)"}}}, {"id": "3217f3c4028d2e12db09fb26139b4521", "name": "\u4e16\u8208\u68d2\u7403\u5834", "latitude": 24.81101, "longitude": 121.03963, "timestamp": "2025-04-17T03:06:51.716042Z", "free_bikes": 1, "empty_slots": 16, "extra": {"uid": "500501030", "district": "\u7af9\u5317\u5e02", "address": "\u5149\u660e\u516d\u8def\u6771\u4e8c\u6bb5/\u5fa9\u8208\u4e8c\u8def\u53e3(\u897f\u5317\u5074)", "slots": 18, "normal_bikes": 1, "ebikes": 0, "last_updated": "2025-04-17 07:06:17", "online": true, "youbike_version": 2, "en": {"name": "Shi Xing Baseball Stadium", "district": "Zhubei", "address": "Dong Sec. 2, Guangming 6th Rd. / Fuxing 2nd Rd. Intersection (Northwest)"}}}, {"id": "341da986505c19626c37c981a58135b7", "name": "\u4e2d\u570b\u79d1\u5927\u65b0\u7af9\u6821\u5340", "latitude": 24.91918, "longitude": 121.055, "timestamp": "2025-04-17T03:06:51.716970Z", "free_bikes": 13, "empty_slots": 2, "extra": {"uid": "500503013", "district": "\u6e56\u53e3\u9109", "address": "\u4e2d\u5c71\u8def\u4e09\u6bb5530\u865f", "slots": 15, "normal_bikes": 12, "ebikes": 1, "last_updated": "2025-04-17 10:04:18", "online": true, "youbike_version": 2, "en": {"name": "CUTE (Hsinchu Campus)", "district": "Hukou", "address": "No. 530, Sec. 3, Zhongshan Rd."}}}, {"id": "34b4da86186b4d846ea35211c4447cf2", "name": "\u7af922(\u6771\u6d77\u4e00\u8857/\u6771\u6d77\u4e00\u8857156\u5df7\u53e3)", "latitude": 24.81117, "longitude": 121.04894, "timestamp": "2025-04-17T03:06:51.716647Z", "free_bikes": 6, "empty_slots": 9, "extra": {"uid": "500501100", "district": "\u7af9\u5317\u5e02", "address": "\u6771\u6d77\u4e00\u8857/\u6771\u6d77\u4e00\u8857156\u5df7\u53e3(\u6771\u5317\u5074)", "slots": 15, "normal_bikes": 5, "ebikes": 1, "last_updated": "2025-04-13 15:20:25", "online": true, "youbike_version": 2, "en": {"name": "HC22(Donghai 1st St. / Ln. 156, Donghai 1st St.)", "district": "Zhubei", "address": "Donghai 1st St. / Ln. 156, Donghai 1st St. Intersection (Northeast)"}}}, {"id": "37bdf221f9a84d76563415a6644e3e29", "name": "\u5609\u8c50\u5357\u8def\u6587\u8208\u8def\u53e3", "latitude": 24.80897, "longitude": 121.03311, "timestamp": "2025-04-17T03:06:51.716546Z", "free_bikes": 5, "empty_slots": 20, "extra": {"uid": "500501088", "district": "\u7af9\u5317\u5e02", "address": "\u5609\u8c50\u5357\u8def\u4e00\u6bb5147\u3001149\u865f\u524d", "slots": 25, "normal_bikes": 5, "ebikes": 0, "last_updated": "2025-04-17 10:50:25", "online": true, "youbike_version": 2, "en": {"name": "Jiafeng S. Rd. / Wenxing Rd.", "district": "Zhubei", "address": "No. 147\u3001149, Sec. 1, Jiafeng S. Rd."}}}, {"id": "3978009dc3e6eba06e603c5b63a6bb0a", "name": "\u6e56\u53e3\u4ec1\u6a02\u8def\u505c\u8eca\u5834", "latitude": 24.87207, "longitude": 121.01277, "timestamp": "2025-04-17T03:06:51.716922Z", "free_bikes": 2, "empty_slots": 10, "extra": {"uid": "500503008", "district": "\u6e56\u53e3\u9109", "address": "\u4ec1\u6a02\u8def/\u9cf3\u51f0\u56db\u8857\u53e3(\u5317\u5074)", "slots": 12, "normal_bikes": 1, "ebikes": 1, "last_updated": "2025-04-17 06:41:17", "online": true, "youbike_version": 2, "en": {"name": "Hukou Renle Rd. Parking Lot", "district": "Hukou", "address": "Renle Rd. / Fenghuang 4th St. Intersection (North)"}}}, {"id": "3a389b799cef127f7fea2d71e1a245fc", "name": "\u9054\u751f\u8def\u6c11\u6b0a\u8857\u53e3", "latitude": 24.9029, "longitude": 121.04669, "timestamp": "2025-04-17T03:06:51.716864Z", "free_bikes": 9, "empty_slots": 5, "extra": {"uid": "500503001", "district": "\u6e56\u53e3\u9109", "address": "\u9054\u751f\u8def/\u6c11\u6b0a\u8857\u53e3(\u6771\u5357\u5074)", "slots": 14, "normal_bikes": 9, "ebikes": 0, "last_updated": "2025-04-17 08:10:23", "online": true, "youbike_version": 2, "en": {"name": "Dasheng Rd. / Minquan St.", "district": "Hukou", "address": "Dasheng Rd. / Minquan St. Intersection (Southeast)"}}}, {"id": "3ba0132d76a285661e12224ed0171115", "name": "\u6c34\u5733\u68ee\u6797\u516c\u5712(\u5609\u8c50\u5341\u4e00\u8def)", "latitude": 24.80907, "longitude": 121.03588, "timestamp": "2025-04-17T03:06:51.716528Z", "free_bikes": 8, "empty_slots": 22, "extra": {"uid": "500501086", "district": "\u7af9\u5317\u5e02", "address": "\u5609\u8c50\u5341\u4e00\u8def\u4e00\u6bb5/\u5fa9\u8208\u4e09\u8def\u4e8c\u6bb5\u53e3(\u5317\u5074)", "slots": 30, "normal_bikes": 7, "ebikes": 1, "last_updated": "2025-04-17 09:30:25", "online": true, "youbike_version": 2, "en": {"name": "Shui Zun Forest Park (Jiafeng 11th Rd.)", "district": "Zhubei", "address": "Sec. 1, Jiafeng 11th Rd. / Sec. 2, Fuxing 3rd Rd. Intersection (North)"}}}, {"id": "3e206dcc8b054fed955b2d93638c1fab", "name": "\u9ad8\u9435\u65b0\u7af9\u7ad9", "latitude": 24.80625, "longitude": 121.04071, "timestamp": "2025-04-17T03:06:51.715834Z", "free_bikes": 14, "empty_slots": 9, "extra": {"uid": "500501007", "district": "\u7af9\u5317\u5e02", "address": "\u6587\u8208\u8def\u4e8c\u6bb5/\u9ad8\u9435\u4e03\u8def\u53e3(\u897f\u5317\u5074)", "slots": 25, "normal_bikes": 14, "ebikes": 0, "last_updated": "2025-04-17 09:20:24", "online": true, "youbike_version": 2, "en": {"name": "Taiwan High Speed Rail Hsinchu Station", "district": "Zhubei", "address": "Sec. 2, Wenxing Rd. / Gaotie 7th Rd. Intersection (Northwest)"}}}, {"id": "3e4db108c39242fbd8b447b343069ea8", "name": "\u81fa\u9435\u7af9\u5317\u8eca\u7ad9(\u524d\u7ad9)", "latitude": 24.83874, "longitude": 121.00916, "timestamp": "2025-04-17T03:06:51.716256Z", "free_bikes": 3, "empty_slots": 30, "extra": {"uid": "500501054", "district": "\u7af9\u5317\u5e02", "address": "\u548c\u5e73\u885759\u865f", "slots": 34, "normal_bikes": 0, "ebikes": 3, "last_updated": "2025-04-17 10:25:18", "online": true, "youbike_version": 2, "en": {"name": "Taiwan Railway Zhubei Station (Front Exit)", "district": "Zhubei", "address": "No. 59, Heping St."}}}, {"id": "4078381fd30f28e7e10bbf68c5fdb2d7", "name": "\u9ad8\u9435\u505c\u516d\u505c\u8eca\u5834", "latitude": 24.80812, "longitude": 121.03423, "timestamp": "2025-04-17T03:06:51.716537Z", "free_bikes": 13, "empty_slots": 17, "extra": {"uid": "500501087", "district": "\u7af9\u5317\u5e02", "address": "\u6587\u8208\u8def\u4e8c\u6bb5/\u5609\u8c50\u5341\u8def\u53e3(\u6771\u5317\u5074)", "slots": 30, "normal_bikes": 13, "ebikes": 0, "last_updated": "2025-04-17 10:10:24", "online": true, "youbike_version": 2, "en": {"name": "Gaotie Ting 6 Parking Lot", "district": "Zhubei", "address": "Sec. 2, Wenxing Rd. / Jiafeng 10th Rd. Intersection (Northeast)"}}}, {"id": "424a1a7c84b0fad77808dd0895693684", "name": "\u7af9\u6771\u4fe1\u7fa9\u7acb\u9ad4\u505c\u8eca\u5834", "latitude": 24.73871, "longitude": 121.09028, "timestamp": "2025-04-17T03:06:51.716772Z", "free_bikes": 3, "empty_slots": 12, "extra": {"uid": "500502008", "district": "\u7af9\u6771\u93ae", "address": "\u4fe1\u7fa9\u8def189\u865f(\u6a5f\u8eca\u505c\u8eca\u5834)", "slots": 15, "normal_bikes": 3, "ebikes": 0, "last_updated": "2025-04-17 10:30:23", "online": true, "youbike_version": 2, "en": {"name": "Zhudong Xinyi Parking Tower", "district": "Zhudong", "address": "No. 189, Xinyi Rd. (Motorcycle Parking Lot)"}}}, {"id": "4277701cc4ebf27de18bf15d7c96c29a", "name": "\u516c\u515227\u516c\u5712", "latitude": 24.8337, "longitude": 121.00295, "timestamp": "2025-04-17T03:06:51.716333Z", "free_bikes": 4, "empty_slots": 11, "extra": {"uid": "500501063", "district": "\u7af9\u5317\u5e02", "address": "\u7e23\u653f\u5341\u516b\u885733\u5df727\u865f(\u5c0d\u5074)", "slots": 15, "normal_bikes": 4, "ebikes": 0, "last_updated": "2025-04-17 10:30:23", "online": true, "youbike_version": 2, "en": {"name": "Gonger27 Park", "district": "Zhubei", "address": "No. 27, Ln. 33, Xianzheng 18th St. (Opposite)"}}}, {"id": "42f1404c819001a17282ab77a6b9c493", "name": "\u4ec1\u548c\u8def", "latitude": 24.87302, "longitude": 121.01432, "timestamp": "2025-04-17T03:06:51.716930Z", "free_bikes": 3, "empty_slots": 9, "extra": {"uid": "500503009", "district": "\u6e56\u53e3\u9109", "address": "\u4ec1\u548c\u8def92\u865f(\u897f\u5074)", "slots": 12, "normal_bikes": 3, "ebikes": 0, "last_updated": "2025-04-17 06:20:25", "online": true, "youbike_version": 2, "en": {"name": "Renhe Rd.", "district": "Hukou", "address": "No. 92, Renhe Rd. (West)"}}}, {"id": "47cb2da85e66ad900268999571e9b27f", "name": "\u5149\u660e\u4e5d\u8def\u505c\u8eca\u5834", "latitude": 24.82246, "longitude": 121.01549, "timestamp": "2025-04-17T03:06:51.716069Z", "free_bikes": 5, "empty_slots": 9, "extra": {"uid": "500501033", "district": "\u7af9\u5317\u5e02", "address": "\u5149\u660e\u4e5d\u8def1\u865f(\u5c0d\u5074\u505c\u8eca\u5834)", "slots": 15, "normal_bikes": 5, "ebikes": 0, "last_updated": "2025-04-17 09:50:26", "online": true, "youbike_version": 2, "en": {"name": "Guangming 9th Rd. Parking Lot", "district": "Zhubei", "address": "No.1, Guangming 9th Rd. (Opposite)"}}}, {"id": "48e2bf6b4c49d5374d6d6e029b58c0df", "name": "\u5609\u4ec1\u9ad4\u5065\u516c\u5712", "latitude": 24.82768, "longitude": 121.01799, "timestamp": "2025-04-17T03:06:51.716238Z", "free_bikes": 17, "empty_slots": 8, "extra": {"uid": "500501052", "district": "\u7af9\u5317\u5e02", "address": "\u5609\u4ec1\u8857117\u865f(\u5357\u5074)", "slots": 25, "normal_bikes": 13, "ebikes": 4, "last_updated": "2025-04-17 08:10:23", "online": true, "youbike_version": 2, "en": {"name": "Jia Ren Physique Park", "district": "Zhubei", "address": "No. 117, Jiaren St. (South)"}}}, {"id": "4a30b940892e30cd41d894dc3dba76a9", "name": "\u9f8d\u9cf3\u505c\u8eca\u5834", "latitude": 24.7301, "longitude": 121.09302, "timestamp": "2025-04-17T03:06:51.716789Z", "free_bikes": 3, "empty_slots": 9, "extra": {"uid": "500502010", "district": "\u7af9\u6771\u93ae", "address": "\u9f8d\u9cf3\u8def/\u4e2d\u6b63\u8def\u53e3(\u5357\u5074)", "slots": 12, "normal_bikes": 2, "ebikes": 1, "last_updated": "2025-04-16 18:18:17", "online": true, "youbike_version": 2, "en": {"name": "Long Feng  Parking Lot", "district": "Zhudong", "address": "Longfeng Rd. / Zhongzheng Rd. Intersection (South)"}}}, {"id": "4be1b205b824db55fa19048c5135e0a0", "name": "\u5609\u8c50\u6578\u5b78\u516c\u5712", "latitude": 24.81342, "longitude": 121.02711, "timestamp": "2025-04-17T03:06:51.716562Z", "free_bikes": 2, "empty_slots": 13, "extra": {"uid": "500501090", "district": "\u7af9\u5317\u5e02", "address": "\u5609\u8c50\u4e8c\u8857\u4e00\u6bb5/\u5609\u8c50\u4e00\u8857\u53e3(\u897f\u5074)", "slots": 15, "normal_bikes": 2, "ebikes": 0, "last_updated": "2025-04-17 08:40:24", "online": true, "youbike_version": 2, "en": {"name": "Jiafeng Maths Park", "district": "Zhubei", "address": "Sec. 1, Jiafeng 2nd St. / Jiafeng 1st St. Intersection (West)"}}}, {"id": "4cf278e5d454972e9939ea81977df3fd", "name": "\u65b0\u6eaa\u8857\u6eaa\u5dde\u8def\u53e3", "latitude": 24.83174, "longitude": 120.983, "timestamp": "2025-04-17T03:06:51.716631Z", "free_bikes": 7, "empty_slots": 4, "extra": {"uid": "500501098", "district": "\u7af9\u5317\u5e02", "address": "\u65b0\u6eaa\u8857/\u6eaa\u5dde\u8def\u53e3(\u6771\u5074)", "slots": 12, "normal_bikes": 5, "ebikes": 2, "last_updated": "2025-04-15 05:50:24", "online": true, "youbike_version": 2, "en": {"name": "Xinxi St. / Xizhou Rd.", "district": "Zhubei", "address": "Xinxi St. / Xizhou Rd. Intersection (East)"}}}, {"id": "50321ad260c65c66b3a7dd1fed34e62a", "name": "\u65b0\u8c50\u9109\u885b\u751f\u6240", "latitude": 24.89979, "longitude": 120.98791, "timestamp": "2025-04-17T03:06:51.717033Z", "free_bikes": 20, "empty_slots": 2, "extra": {"uid": "500504002", "district": "\u65b0\u8c50\u9109", "address": "\u8403\u8c50\u8def21\u865f", "slots": 22, "normal_bikes": 12, "ebikes": 8, "last_updated": "2025-04-17 00:46:18", "online": true, "youbike_version": 2, "en": {"name": "Xinfeng Township Public Health Center", "district": "Xinfeng", "address": "No. 21, Cuifeng Rd."}}}, {"id": "52a94449f3b59be4f808ef76619b4663", "name": "\u516c\u4e8c\u516c\u5712", "latitude": 24.82476, "longitude": 121.08008, "timestamp": "2025-04-17T03:06:51.717214Z", "free_bikes": 8, "empty_slots": 12, "extra": {"uid": "500505008", "district": "\u65b0\u57d4\u93ae", "address": "\u7530\u65b0\u8def292\u865f(\u897f\u5074)", "slots": 20, "normal_bikes": 8, "ebikes": 0, "last_updated": "2025-04-16 11:34:19", "online": true, "youbike_version": 2, "en": {"name": "Gonger Park", "district": "Xinpu", "address": "No. 292, Tianxin Rd."}}}, {"id": "5401a2951c99b2341f24b3136b287427", "name": "\u65b0\u7af9\u751f\u7269\u91ab\u5b78\u5712\u5340(\u5357\u9580)", "latitude": 24.80452, "longitude": 121.04378, "timestamp": "2025-04-17T03:06:51.716587Z", "free_bikes": 11, "empty_slots": 9, "extra": {"uid": "500501093", "district": "\u7af9\u5317\u5e02", "address": "\u6587\u8208\u8def\u4e8c\u6bb5/\u9ad8\u9435\u4e5d\u8def\u53e3(\u897f\u5317\u5074)", "slots": 20, "normal_bikes": 10, "ebikes": 1, "last_updated": "2025-04-17 08:10:25", "online": true, "youbike_version": 2, "en": {"name": "Hsinchu Biomedical Science Park (South Gate)", "district": "Zhubei", "address": "Sec. 2, Wenxing Rd. / Gaotie 9th Rd. Intersection (Northwest)"}}}, {"id": "5627eaf3aec6108c738270e1aeb6a059", "name": "\u9ad8\u9435\u65b0\u7af9\u7ad9(\u5fa9\u8208\u4e8c\u8def)", "latitude": 24.80919, "longitude": 121.03929, "timestamp": "2025-04-17T03:06:51.716579Z", "free_bikes": 9, "empty_slots": 32, "extra": {"uid": "500501092", "district": "\u7af9\u5317\u5e02", "address": "\u5fa9\u8208\u4e8c\u8def255-261\u865f(\u5c0d\u5074)", "slots": 44, "normal_bikes": 8, "ebikes": 1, "last_updated": "2025-04-17 10:02:18", "online": true, "youbike_version": 2, "en": {"name": "Taiwan High Speed Rail Hsinchu Station (Fuxing 2nd Rd.)", "district": "Zhubei", "address": "No. 255 - 261, Fuxing 2nd Rd. (Opposite)"}}}, {"id": "573b6b76b3a4ec59d8333a581a8426ce", "name": "\u4ec1\u611b\u570b\u4e2d", "latitude": 24.83316, "longitude": 121.01354, "timestamp": "2025-04-17T03:06:51.716099Z", "free_bikes": 16, "empty_slots": 12, "extra": {"uid": "500501036", "district": "\u7af9\u5317\u5e02", "address": "\u4e09\u6c11\u8def192\u865f(\u897f\u5074)", "slots": 28, "normal_bikes": 16, "ebikes": 0, "last_updated": "2025-04-17 07:50:23", "online": true, "youbike_version": 2, "en": {"name": "Jen Ai Junior High School", "district": "Zhubei", "address": "No.192, Sanmin Rd. (West)"}}}, {"id": "5aa6bb3356ddb5a96b2b8d2f654266ce", "name": "\u81fa\u9435\u6e56\u53e3\u8eca\u7ad9(\u5f8c\u7ad9)", "latitude": 24.90307, "longitude": 121.04327, "timestamp": "2025-04-17T03:06:51.716989Z", "free_bikes": 2, "empty_slots": 13, "extra": {"uid": "500503015", "district": "\u6e56\u53e3\u9109", "address": "\u529b\u884c\u885738\u865f(\u5c0d\u5074)", "slots": 15, "normal_bikes": 2, "ebikes": 0, "last_updated": "2025-04-17 07:00:25", "online": true, "youbike_version": 2, "en": {"name": "Taiwan Railway Hukou Station (Rear Exit)", "district": "Hukou", "address": "No. 38, Lixing St. (Opposite)"}}}, {"id": "5c876176ce8a43a57fe1a591215c8a69", "name": "\u4e2d\u6b63\u897f\u8def\u806f\u8208\u4e8c\u8857\u53e3", "latitude": 24.84251, "longitude": 120.98922, "timestamp": "2025-04-17T03:06:51.716377Z", "free_bikes": 3, "empty_slots": 12, "extra": {"uid": "500501068", "district": "\u7af9\u5317\u5e02", "address": "\u4e2d\u6b63\u897f\u8def/\u806f\u8208\u4e8c\u8857\u53e3(\u5317\u5074)", "slots": 15, "normal_bikes": 3, "ebikes": 0, "last_updated": "2025-04-17 06:42:20", "online": true, "youbike_version": 2, "en": {"name": "Zhongzheng W. Rd. / Lianxing 2nd St.", "district": "Zhubei", "address": "Zhongzheng W. Rd. / Lianxing 2nd St. Intersection (North)"}}}, {"id": "5dadcd774199ab789dd69de22c44f4e1", "name": "\u52dd\u5229\u904b\u52d5\u516c\u5712", "latitude": 24.86759, "longitude": 121.02771, "timestamp": "2025-04-17T03:06:51.716949Z", "free_bikes": 8, "empty_slots": 4, "extra": {"uid": "500503011", "district": "\u6e56\u53e3\u9109", "address": "\u5de5\u696d\u4e00\u8def/\u5de5\u696d\u4e8c\u8def\u53e3(\u897f\u5074)", "slots": 12, "normal_bikes": 1, "ebikes": 7, "last_updated": "2025-04-17 06:10:24", "online": true, "youbike_version": 2, "en": {"name": "Sheng Li Sports Park", "district": "Hukou", "address": "Gongye 1st Rd. / Gongye 2st Rd. Intersection (West)"}}}, {"id": "5e2de6f11265f4a37a906f86e467e56e", "name": "\u81fa\u9435\u7af9\u5317\u8eca\u7ad9(\u524d\u7ad9-\u548c\u5e73\u8857)", "latitude": 24.839493, "longitude": 121.009784, "timestamp": "2025-04-17T03:06:51.715813Z", "free_bikes": 8, "empty_slots": 13, "extra": {"uid": "500501005", "district": "\u7af9\u5317\u5e02", "address": "\u548c\u5e73\u885778\u865f(\u5c0d\u5074)", "slots": 21, "normal_bikes": 8, "ebikes": 0, "last_updated": "2025-04-17 07:40:25", "online": true, "youbike_version": 2, "en": {"name": "Taiwan Railway Zhubei Station (Front Exit - Heping St.)", "district": "Zhubei", "address": "No. 78, Heping St. (Opposite)"}}}, {"id": "5ef9db921c674d00556a40cded7114a9", "name": "\u7af9\u6771\u4ec1\u611b\u7acb\u9ad4\u505c\u8eca\u5834", "latitude": 24.73534, "longitude": 121.09057, "timestamp": "2025-04-17T03:06:51.716814Z", "free_bikes": 5, "empty_slots": 15, "extra": {"uid": "500502013", "district": "\u7af9\u6771\u93ae", "address": "\u4ec1\u611b\u8def232\u865f(\u5c0d\u5074)", "slots": 20, "normal_bikes": 1, "ebikes": 4, "last_updated": "2025-04-17 06:41:17", "online": true, "youbike_version": 2, "en": {"name": "Zhudong Ren'ai Parking Tower", "district": "Zhudong", "address": "No. 232, Ren'ai Rd. (Opposite)"}}}, {"id": "5f06c2cf3675c75d9d81d8ae9b7f59f4", "name": "\u7e23\u653f\u4e8c\u8def\u5357\u6bb5\u79d1\u5927\u4e8c\u8857\u53e3", "latitude": 24.81916, "longitude": 121.01187, "timestamp": "2025-04-17T03:06:51.716229Z", "free_bikes": 3, "empty_slots": 19, "extra": {"uid": "500501051", "district": "\u7af9\u5317\u5e02", "address": "\u79d1\u5927\u4e8c\u8857/\u7e23\u653f\u4e8c\u8def\u5357\u6bb5\u53e3(\u897f\u5074)", "slots": 25, "normal_bikes": 3, "ebikes": 0, "last_updated": "2025-04-17 08:30:25", "online": true, "youbike_version": 2, "en": {"name": "Sec. S., Xianzheng 2nd Rd. / Keda 2nd St.", "district": "Zhubei", "address": "Keda 2nd St. / Sec. S., Xianzheng 2nd Rd. Intersection (West)"}}}, {"id": "5f474c8da4a2f3dd3f384ac942c1aa77", "name": "\u4e2d\u6b63\u8def\u4e2d\u6b63\u4e00\u8857\u53e3", "latitude": 24.82699, "longitude": 121.08254, "timestamp": "2025-04-17T03:06:51.717206Z", "free_bikes": 3, "empty_slots": 15, "extra": {"uid": "500505007", "district": "\u65b0\u57d4\u93ae", "address": "\u4e2d\u6b63\u8def147\u865f", "slots": 20, "normal_bikes": 2, "ebikes": 1, "last_updated": "2025-04-14 20:40:25", "online": true, "youbike_version": 2, "en": {"name": "Zhongzheng Rd./Zhongzheng 1st St.", "district": "Xinpu", "address": "No. 147, Zhongzheng Rd."}}}, {"id": "616f3e8ce3bbdd3ebf11efca5531a952", "name": "\u7da041\u516c\u5712", "latitude": 24.81614, "longitude": 121.0171, "timestamp": "2025-04-17T03:06:51.716431Z", "free_bikes": 1, "empty_slots": 18, "extra": {"uid": "500501075", "district": "\u7af9\u5317\u5e02", "address": "\u81ea\u5f37\u4e09\u8def/\u6587\u8208\u8def\u53e3(\u897f\u5074)", "slots": 20, "normal_bikes": 1, "ebikes": 0, "last_updated": "2025-04-16 19:18:17", "online": true, "youbike_version": 2, "en": {"name": "Green 41 Park", "district": "Zhubei", "address": "Ziqiang 3rd Rd. / Wenxing Rd. Intersection (West)"}}}, {"id": "641a8f757c0e0bcfa8b78e1730745bae", "name": "\u7af9\u5317\u5e02\u516c\u6240", "latitude": 24.83942, "longitude": 121.00361, "timestamp": "2025-04-17T03:06:51.715791Z", "free_bikes": 6, "empty_slots": 18, "extra": {"uid": "500501003", "district": "\u7af9\u5317\u5e02", "address": "\u4e2d\u6b63\u897f\u8def15\u865f", "slots": 24, "normal_bikes": 4, "ebikes": 2, "last_updated": "2025-04-17 07:20:24", "online": true, "youbike_version": 2, "en": {"name": "Zhubei City \u200b\u200boffice", "district": "Zhubei", "address": "No. 15, Zhongzheng W. Rd."}}}, {"id": "64378ec75569b3c4d727b9caaa7e5593", "name": "\u65b0\u5d19\u516c\u5712", "latitude": 24.83332, "longitude": 120.99998, "timestamp": "2025-04-17T03:06:51.716183Z", "free_bikes": 0, "empty_slots": 14, "extra": {"uid": "500501045", "district": "\u7af9\u5317\u5e02", "address": "\u5149\u660e\u516d\u8def829\u865f(\u5c0d\u5074\u4eba\u884c\u9053)", "slots": 15, "normal_bikes": 0, "ebikes": 0, "last_updated": "2025-04-17 09:56:17", "online": true, "youbike_version": 2, "en": {"name": "Xin Lun Park", "district": "Zhubei", "address": "No. 829, Guangming 6th Rd. (Opposite)"}}}, {"id": "6a4b07ec61d39346aa864b74864ca312", "name": "\u65b0\u6708\u6c99\u7063", "latitude": 24.8661, "longitude": 120.94378, "timestamp": "2025-04-17T03:06:51.716358Z", "free_bikes": 3, "empty_slots": 12, "extra": {"uid": "500501066", "district": "\u7af9\u5317\u5e02", "address": "\u9cf3\u5ca1\u8def\u4e94\u6bb5155\u5df7/\u9cf3\u5ca1\u8def\u4e94\u6bb5155\u5df765\u5f04\u53e3(\u65c1\u505c\u8eca\u5834)", "slots": 15, "normal_bikes": 3, "ebikes": 0, "last_updated": "2025-04-16 16:40:24", "online": true, "youbike_version": 2, "en": {"name": "New Moon Beach", "district": "Zhubei", "address": "Ln. 155, Sec. 5, Fenggang Rd. / Aly. 65, Ln. 155, Sec. 5, Fenggang Rd. Intersection (Parking Lot)"}}}, {"id": "6ae896007eed05177cc0cb3c0499a13f", "name": "\u5ba2\u904b\u7af9\u6771\u7ad9", "latitude": 24.73945, "longitude": 121.08559, "timestamp": "2025-04-17T03:06:51.716764Z", "free_bikes": 1, "empty_slots": 13, "extra": {"uid": "500502007", "district": "\u7af9\u6771\u93ae", "address": "\u8208\u8fb2\u88572\u865f\u4e4b4(\u5c0d\u5074)", "slots": 14, "normal_bikes": 0, "ebikes": 1, "last_updated": "2025-04-16 21:07:17", "online": true, "youbike_version": 2, "en": {"name": "Bus Zhudong Station", "district": "Zhudong", "address": "No. 2-4, Xingnong St. (Opposite)"}}}, {"id": "6b4a9a4af83782d94c9ccd9c05f2dcab", "name": "\u81fa\u9435\u4e0a\u54e1\u8eca\u7ad9", "latitude": 24.77827, "longitude": 121.05532, "timestamp": "2025-04-17T03:06:51.716856Z", "free_bikes": 8, "empty_slots": 7, "extra": {"uid": "500502018", "district": "\u7af9\u6771\u93ae", "address": "\u516c\u9053\u8def/\u5149\u660e\u8def\u53e3(\u897f\u5074)", "slots": 15, "normal_bikes": 5, "ebikes": 3, "last_updated": "2025-04-17 06:40:24", "online": true, "youbike_version": 2, "en": {"name": "Taiwan Railway Shangyuan Station", "district": "Zhudong", "address": "Gongdao Rd. / Guangming Rd. Intersection (West)"}}}, {"id": "6d415cc8b725b5e8a845d764e15e0f5c", "name": "\u81ea\u5f37\u5317\u8def\u52dd\u5229\u4e09\u8857\u53e3", "latitude": 24.82206, "longitude": 121.02986, "timestamp": "2025-04-17T03:06:51.716604Z", "free_bikes": 12, "empty_slots": 7, "extra": {"uid": "500501095", "district": "\u7af9\u5317\u5e02", "address": "\u81ea\u5f37\u5317\u8def/\u52dd\u5229\u4e09\u8857\u53e3(\u897f\u5074)", "slots": 20, "normal_bikes": 12, "ebikes": 0, "last_updated": "2025-04-17 08:10:25", "online": true, "youbike_version": 2, "en": {"name": "Ziqiang N. Rd. / Shengli 3rd St.", "district": "Zhubei", "address": "Ziqiang N. Rd. / Shengli 3rd St. Intersection (West)"}}}, {"id": "6e2e28d61993f120876b4c006cc1ff69", "name": "\u5152\u4e00\u7e69\u7d22\u516c\u5712", "latitude": 24.81503, "longitude": 121.03075, "timestamp": "2025-04-17T03:06:51.715962Z", "free_bikes": 0, "empty_slots": 13, "extra": {"uid": "500501021", "district": "\u7af9\u5317\u5e02", "address": "\u5609\u8c50\u4e94\u8def\u4e00\u6bb5/\u5fa9\u8208\u4e00\u8857\u53e3(\u897f\u5074)", "slots": 14, "normal_bikes": 0, "ebikes": 0, "last_updated": "2025-04-17 10:36:17", "online": true, "youbike_version": 2, "en": {"name": "Children's 1st Rope Park", "district": "Zhubei", "address": "Sec. 1, Jiafeng 5th Rd. / Fuxing 1st St. Intersection (West)"}}}, {"id": "702fb6a9461eab8551459a38c786a83e", "name": "\u74b0\u5317\u8def\u65b0\u5317\u4e8c\u8857\u53e3", "latitude": 24.84566, "longitude": 120.99492, "timestamp": "2025-04-17T03:06:51.716307Z", "free_bikes": 6, "empty_slots": 15, "extra": {"uid": "500501060", "district": "\u7af9\u5317\u5e02", "address": "\u74b0\u5317\u8def\u4e09\u6bb5/\u65b0\u5317\u4e8c\u8857\u53e3(\u5357\u5074)", "slots": 25, "normal_bikes": 5, "ebikes": 1, "last_updated": "2025-04-17 10:50:24", "online": true, "youbike_version": 2, "en": {"name": "Huanbei Rd. / Xinbei 2nd St.", "district": "Zhubei", "address": "Sec. 3, Huanbei Rd. / Xinbei 2nd St. Intersection (South)"}}}, {"id": "703edd7beb3ae721202bfb6779fb3a5b", "name": "\u65b0\u8c50\u516c\u5712", "latitude": 24.878, "longitude": 120.9982, "timestamp": "2025-04-17T03:06:51.717085Z", "free_bikes": 6, "empty_slots": 6, "extra": {"uid": "500504008", "district": "\u65b0\u8c50\u9109", "address": "\u5fe0\u5b5d\u8def/\u5b5d\u4e09\u8857\u53e3(\u5317\u5074)", "slots": 12, "normal_bikes": 5, "ebikes": 1, "last_updated": "2025-04-17 01:20:23", "online": true, "youbike_version": 2, "en": {"name": "Xinfeng Park", "district": "Xinfeng", "address": "Zhongxiao Rd. / Xiao 3rd St. Intersection (North)"}}}, {"id": "72da0f939d6391c04cd6d9337275ede5", "name": "\u505c17\u505c\u8eca\u5834", "latitude": 24.82815, "longitude": 121.02733, "timestamp": "2025-04-17T03:06:51.715936Z", "free_bikes": 6, "empty_slots": 8, "extra": {"uid": "500501018", "district": "\u7af9\u5317\u5e02", "address": "\u52dd\u5229\u5341\u4e8c\u8857/\u838a\u656c\u4e09\u8def\u53e3(\u897f\u5074)", "slots": 15, "normal_bikes": 5, "ebikes": 1, "last_updated": "2025-04-16 20:30:23", "online": true, "youbike_version": 2, "en": {"name": "Ting 17 Parking Lot", "district": "Zhubei", "address": "Shengli 12th St. / Zhuangjing 3rd Rd. Intersection"}}}, {"id": "737e844a85c357cb53926486821902bb", "name": "\u65b0\u7af9\u751f\u7269\u91ab\u5b78\u5712\u5340(\u5317\u9580)", "latitude": 24.80783, "longitude": 121.0476, "timestamp": "2025-04-17T03:06:51.716638Z", "free_bikes": 11, "empty_slots": 8, "extra": {"uid": "500501099", "district": "\u7af9\u5317\u5e02", "address": "\u751f\u91ab\u4e09\u8def/\u6771\u8208\u8def\u4e00\u6bb5\u53e3(\u5357\u5074)", "slots": 20, "normal_bikes": 10, "ebikes": 1, "last_updated": "2025-04-17 09:20:25", "online": true, "youbike_version": 2, "en": {"name": "Hsinchu Biomedical Science Park (North Gate)", "district": "Zhubei", "address": "Shengyi 3rd Rd. / Sec. 1, Dongxing Rd. Intersection (South)"}}}, {"id": "73f887e59a412ba3e4a02efdfc75fd9c", "name": "\u576a\u9802\u4e00\u516c\u5712", "latitude": 24.86752, "longitude": 120.98575, "timestamp": "2025-04-17T03:06:51.717136Z", "free_bikes": 3, "empty_slots": 9, "extra": {"uid": "500504013", "district": "\u65b0\u8c50\u9109", "address": "\u5fb7\u660c\u8857133\u865f(\u6771\u5317\u5074)", "slots": 12, "normal_bikes": 2, "ebikes": 1, "last_updated": "2025-04-16 15:40:23", "online": true, "youbike_version": 2, "en": {"name": "Pingding 1 Park", "district": "Xinfeng", "address": "No. 133, Dechang St. (Northeast)"}}}, {"id": "75317b447953aad7caffb210fa666ada", "name": "\u8912\u5fe0\u4ead\u7fa9\u6c11\u5edf", "latitude": 24.84331, "longitude": 121.03601, "timestamp": "2025-04-17T03:06:51.717180Z", "free_bikes": 3, "empty_slots": 22, "extra": {"uid": "500505004", "district": "\u65b0\u57d4\u93ae", "address": "\u7fa9\u6c11\u8def\u4e09\u6bb5360\u865f", "slots": 25, "normal_bikes": 3, "ebikes": 0, "last_updated": "2025-04-16 07:50:25", "online": true, "youbike_version": 2, "en": {"name": "Baozhong Temple", "district": "Xinpu", "address": "No. 360, Sec. 3, Yimin Rd."}}}, {"id": "77c82b2fdefbf6ad2a7972cc4dcfc614", "name": "\u982d\u91cd\u793e\u5340\u767c\u5c55\u4e2d\u5fc3", "latitude": 24.77921, "longitude": 121.03425, "timestamp": "2025-04-17T03:06:51.716714Z", "free_bikes": 1, "empty_slots": 11, "extra": {"uid": "500502002", "district": "\u7af9\u6771\u93ae", "address": "\u5bcc\u69ae\u885725\u865f", "slots": 12, "normal_bikes": 1, "ebikes": 0, "last_updated": "2025-04-17 07:43:17", "online": true, "youbike_version": 2, "en": {"name": "Touchong Community Development Center", "district": "Zhudong", "address": "No. 25, Furong St."}}}, {"id": "7947ca578eae42a53705ffe2fe1f9a32", "name": "\u5ee3\u56db\u516c\u5712", "latitude": 24.83247, "longitude": 121.00626, "timestamp": "2025-04-17T03:06:51.716118Z", "free_bikes": 4, "empty_slots": 11, "extra": {"uid": "500501038", "district": "\u7af9\u5317\u5e02", "address": "\u5149\u660e\u4e8c\u8857/\u5149\u660e\u4e8c\u885781\u5df7\u53e3(\u897f\u5074)", "slots": 15, "normal_bikes": 4, "ebikes": 0, "last_updated": "2025-04-17 06:30:24", "online": true, "youbike_version": 2, "en": {"name": "Guang 4 Park", "district": "Zhubei", "address": "Guangming 2nd St. / Ln. 81, Guangming 2nd St. Intersection (West)"}}}, {"id": "799b2507837e343caef7027c49858a9e", "name": "\u660e\u65b0\u885724\u5df7\u660e\u65b0\u8857\u53e3", "latitude": 24.86475, "longitude": 120.99025, "timestamp": "2025-04-17T03:06:51.717077Z", "free_bikes": 2, "empty_slots": 13, "extra": {"uid": "500504007", "district": "\u65b0\u8c50\u9109", "address": "\u660e\u65b0\u885724\u5df7/\u660e\u65b0\u8857\u53e3(\u897f\u5074)", "slots": 15, "normal_bikes": 2, "ebikes": 0, "last_updated": "2025-04-17 10:50:24", "online": true, "youbike_version": 2, "en": {"name": "Ln. 24, Mingxin St. / Mingxin St.", "district": "Xinfeng", "address": "Ln. 24, Mingxin St. / Mingxin St. Intersection (West)"}}}, {"id": "7b6d077256561fb9f9dcf2245c6f2eb2", "name": "\u65b0\u57d4\u93ae\u516c\u6240", "latitude": 24.82543, "longitude": 121.07431, "timestamp": "2025-04-17T03:06:51.717163Z", "free_bikes": 11, "empty_slots": 8, "extra": {"uid": "500505002", "district": "\u65b0\u57d4\u93ae", "address": "\u7530\u65b0\u8def600\u865f", "slots": 20, "normal_bikes": 9, "ebikes": 2, "last_updated": "2025-04-14 13:50:24", "online": true, "youbike_version": 2, "en": {"name": "Hsinchu County Xinpu Township Office", "district": "Xinpu", "address": "No. 600, Tianxin Rd."}}}, {"id": "7d054d6d60017e6df05078a320359ae7", "name": "\u5c71\u5d0e\u516c\u5712", "latitude": 24.87558, "longitude": 120.99439, "timestamp": "2025-04-17T03:06:51.717111Z", "free_bikes": 5, "empty_slots": 6, "extra": {"uid": "500504010", "district": "\u65b0\u8c50\u9109", "address": "\u5efa\u8208\u8def\u4e00\u6bb5/\u4e2d\u8208\u8def\u53e3(\u6771\u5317\u5074)", "slots": 12, "normal_bikes": 4, "ebikes": 1, "last_updated": "2025-04-17 01:13:18", "online": true, "youbike_version": 2, "en": {"name": "Shan Chi Park", "district": "Xinfeng", "address": "Sec. 1, Jianxing Rd. / Zhongxing Rd. Intersection (Northeast)"}}}, {"id": "7dc1412566b77d12230fb5cd375985fe", "name": "\u677e\u67cf\u516c\u5712", "latitude": 24.87219, "longitude": 120.9919, "timestamp": "2025-04-17T03:06:51.717068Z", "free_bikes": 3, "empty_slots": 9, "extra": {"uid": "500504006", "district": "\u65b0\u8c50\u9109", "address": "\u5eb7\u6cf0\u8def250\u865f(\u5c0d\u5074)", "slots": 12, "normal_bikes": 3, "ebikes": 0, "last_updated": "2025-04-17 07:00:25", "online": true, "youbike_version": 2, "en": {"name": "Songbo Park", "district": "Xinfeng", "address": "No. 250, Kangtai Rd. (Opposite)"}}}, {"id": "7e19bf162b610fe876607fc660b9c41f", "name": "\u65b0\u7af9\u5730\u65b9\u6cd5\u9662", "latitude": 24.81107, "longitude": 121.01947, "timestamp": "2025-04-17T03:06:51.716220Z", "free_bikes": 13, "empty_slots": 1, "extra": {"uid": "500501050", "district": "\u7af9\u5317\u5e02", "address": "\u81ea\u5f37\u4e94\u8def/\u8208\u9686\u8def\u4e8c\u6bb5\u53e3(\u5317\u5074)", "slots": 15, "normal_bikes": 12, "ebikes": 1, "last_updated": "2025-04-17 06:50:25", "online": true, "youbike_version": 2, "en": {"name": "Hsinchu District Court", "district": "Zhubei", "address": "Ziqiang 5rd Rd. / Sec. 2, Xinglong Rd. Intersection (North)"}}}, {"id": "7e2e7f2c366c066306a35d6f2a701ff0", "name": "\u6587\u6797\u8857", "latitude": 24.86983, "longitude": 120.99204, "timestamp": "2025-04-17T03:06:51.717060Z", "free_bikes": 2, "empty_slots": 15, "extra": {"uid": "500504005", "district": "\u65b0\u8c50\u9109", "address": "\u6587\u6797\u8857/\u677e\u6797\u8857108\u5df7\u53e3(\u5357\u5074)", "slots": 17, "normal_bikes": 2, "ebikes": 0, "last_updated": "2025-04-17 09:50:26", "online": true, "youbike_version": 2, "en": {"name": "Wenlin St.", "district": "Xinfeng", "address": "Wenlin St. / Ln. 108, Songlin St. Intersection (South)"}}}, {"id": "80af95b97bc8e5aef989380e9165cb2d", "name": "\u53f0\u5143\u79d1\u6280\u5712\u5340", "latitude": 24.84097, "longitude": 121.01199, "timestamp": "2025-04-17T03:06:51.716079Z", "free_bikes": 6, "empty_slots": 14, "extra": {"uid": "500501034", "district": "\u7af9\u5317\u5e02", "address": "\u535a\u611b\u8857585\u865f(\u5c0d\u5074)", "slots": 20, "normal_bikes": 6, "ebikes": 0, "last_updated": "2025-04-17 08:40:23", "online": true, "youbike_version": 2, "en": {"name": "Tai Yuen Hi-Tech Industrial Park", "district": "Zhubei", "address": "No.585, Bo'ai St. (Opposite)"}}}, {"id": "818656377c45a9290b0c09ef14ed8b7d", "name": "\u65b0\u6e2f\u6d3b\u52d5\u4e2d\u5fc3", "latitude": 24.85035, "longitude": 120.94878, "timestamp": "2025-04-17T03:06:51.716622Z", "free_bikes": 2, "empty_slots": 10, "extra": {"uid": "500501097", "district": "\u7af9\u5317\u5e02", "address": "\u6e2f\u5b89\u8857\u4e00\u6bb5269\u865f", "slots": 12, "normal_bikes": 0, "ebikes": 2, "last_updated": "2025-04-09 01:20:23", "online": true, "youbike_version": 2, "en": {"name": "Xin Gang Community Center", "district": "Zhubei", "address": "No. 269, Sec. 1, Gang'an St."}}}, {"id": "83e98022262dccb254a2df3102dd4dfc", "name": "\u51525\u516c\u5712", "latitude": 24.80628, "longitude": 121.02833, "timestamp": "2025-04-17T03:06:51.716503Z", "free_bikes": 3, "empty_slots": 14, "extra": {"uid": "500501083", "district": "\u7af9\u5317\u5e02", "address": "\u516d\u5bb6\u4e03\u8def228\u5df7/\u5609\u653f\u4e8c\u8857\u53e3(\u6771\u5074)", "slots": 18, "normal_bikes": 3, "ebikes": 0, "last_updated": "2025-04-17 09:34:19", "online": true, "youbike_version": 2, "en": {"name": "Children's 5th Park", "district": "Zhubei", "address": "Ln. 228, Liujia 7th Rd. / Jiazheng 2nd St. Intersection (East)"}}}, {"id": "8422a6b2118a70a05b525931d8b9480b", "name": "\u9ad8\u9435\u4e5d\u8def\u505c\u8eca\u5834", "latitude": 24.80175, "longitude": 121.04212, "timestamp": "2025-04-17T03:06:51.716202Z", "free_bikes": 4, "empty_slots": 10, "extra": {"uid": "500501047", "district": "\u7af9\u5317\u5e02", "address": "\u9698\u53e3\u4e09\u8857231\u865f(\u5c0d\u5074\u4eba\u884c\u9053)", "slots": 15, "normal_bikes": 3, "ebikes": 1, "last_updated": "2025-04-17 08:40:23", "online": true, "youbike_version": 2, "en": {"name": "Gaotie 9th Rd. Parking Lot", "district": "Zhubei", "address": "No. 231, Aikou 3rd St. (Opposite)"}}}, {"id": "850c124955aa6a69eb4cc01d6c770443", "name": "\u9ad8\u9435\u516d\u8def\u9698\u53e3\u516b\u8857\u53e3", "latitude": 24.8002, "longitude": 121.039, "timestamp": "2025-04-17T03:06:51.716596Z", "free_bikes": 4, "empty_slots": 13, "extra": {"uid": "500501094", "district": "\u7af9\u5317\u5e02", "address": "\u9ad8\u9435\u516d\u8def/\u9698\u53e3\u516b\u8857\u53e3(\u897f\u5074)", "slots": 17, "normal_bikes": 4, "ebikes": 0, "last_updated": "2025-04-17 08:36:18", "online": true, "youbike_version": 2, "en": {"name": "Gaotie 6th Rd. / Aikou 8th St.", "district": "Zhubei", "address": "Gaotie 6th Rd. / Aikou 8th St. Intersection (West)"}}}, {"id": "861344795707a55f0ef4e598e4a215ef", "name": "\u7af9\u5317\u570b\u4e2d", "latitude": 24.84064, "longitude": 121.00111, "timestamp": "2025-04-17T03:06:51.715862Z", "free_bikes": 2, "empty_slots": 18, "extra": {"uid": "500501010", "district": "\u7af9\u5317\u5e02", "address": "\u4e2d\u6b63\u897f\u8def/\u570b\u8208\u8857\u53e3(\u6771\u5074)", "slots": 20, "normal_bikes": 1, "ebikes": 1, "last_updated": "2025-04-17 10:10:23", "online": true, "youbike_version": 2, "en": {"name": "Zhubei Junior High School", "district": "Zhubei", "address": "Zhongzheng W. Rd. / Guoxing St. Intersection (East)"}}}, {"id": "86aed5f7ea053d9979d9e501b76f8ec1", "name": "\u65b0\u8c50\u9109\u516c\u6240", "latitude": 24.901, "longitude": 120.98532, "timestamp": "2025-04-17T03:06:51.717024Z", "free_bikes": 16, "empty_slots": 1, "extra": {"uid": "500504001", "district": "\u65b0\u8c50\u9109", "address": "\u65b0\u5e02\u8def93\u865f", "slots": 17, "normal_bikes": 10, "ebikes": 6, "last_updated": "2025-04-17 01:01:17", "online": true, "youbike_version": 2, "en": {"name": "Xinfeng Township Office", "district": "Xinfeng", "address": "No. 93, Xinshi Rd."}}}, {"id": "8719c19d72f7dbdd24414f1cff23571c", "name": "\u52dd\u5229\u570b\u4e2d", "latitude": 24.82889, "longitude": 121.02585, "timestamp": "2025-04-17T03:06:51.716475Z", "free_bikes": 14, "empty_slots": 6, "extra": {"uid": "500501080", "district": "\u7af9\u5317\u5e02", "address": "\u838a\u656c\u5317\u8def/\u667a\u6167\u4e8c\u8def\u53e3(\u5357\u5074)", "slots": 20, "normal_bikes": 13, "ebikes": 1, "last_updated": "2025-04-17 10:20:23", "online": true, "youbike_version": 2, "en": {"name": "Sheng-Li Junior High School", "district": "Zhubei", "address": "Zhuangjing N. Rd. / Zhihui 2nd Rd. Intersection (South)"}}}, {"id": "87ffdc392e75fec58cc4810a101bde30", "name": "\u4e8c\u91cd\u505c\u8eca\u5834", "latitude": 24.76952, "longitude": 121.0572, "timestamp": "2025-04-17T03:06:51.716706Z", "free_bikes": 8, "empty_slots": 12, "extra": {"uid": "500502001", "district": "\u7af9\u6771\u93ae", "address": "\u5149\u660e\u8def/\u4e2d\u592e\u8def\u53e3(\u6771\u5074)", "slots": 20, "normal_bikes": 8, "ebikes": 0, "last_updated": "2025-04-17 07:30:23", "online": true, "youbike_version": 2, "en": {"name": "Er Chong Parking Lot", "district": "Zhudong", "address": "Guangming Rd. / Zhongyang Rd. Intersection (East)"}}}, {"id": "88d4c165cdfe5e3f67a5cfa4a5833f6d", "name": "\u505c\u4e8c\u6cf0\u548c\u505c\u8eca\u5834", "latitude": 24.84653, "longitude": 121.0031, "timestamp": "2025-04-17T03:06:51.716299Z", "free_bikes": 3, "empty_slots": 12, "extra": {"uid": "500501059", "district": "\u7af9\u5317\u5e02", "address": "\u6cf0\u548c\u4e00\u8857/\u6cf0\u548c\u4e00\u885727\u5df7\u53e3(\u6771\u5317\u5074)", "slots": 15, "normal_bikes": 0, "ebikes": 3, "last_updated": "2025-04-17 06:30:24", "online": true, "youbike_version": 2, "en": {"name": "Ting 2 Taihe Parking Lot", "district": "Zhubei", "address": "Taihe 1st St. / Ln. 27, Taihe 1st St. Intersection (Northeast)"}}}, {"id": "8a87e6e1eae2169853235aff103989b7", "name": "\u81ea\u5f37\u8def76\u865f\u524d", "latitude": 24.74759, "longitude": 121.08185, "timestamp": "2025-04-17T03:06:51.716755Z", "free_bikes": 4, "empty_slots": 6, "extra": {"uid": "500502006", "district": "\u7af9\u6771\u93ae", "address": "\u81ea\u5f37\u8def76\u865f", "slots": 11, "normal_bikes": 0, "ebikes": 4, "last_updated": "2025-04-16 11:34:18", "online": true, "youbike_version": 2, "en": {"name": "No. 76, Ziqiang Rd.", "district": "Zhudong", "address": "No. 76, Ziqiang Rd."}}}, {"id": "8a9ba97e53d31bb446497719e78016ac", "name": "\u535a\u611b\u570b\u4e2d", "latitude": 24.82921, "longitude": 121.00632, "timestamp": "2025-04-17T03:06:51.716127Z", "free_bikes": 5, "empty_slots": 15, "extra": {"uid": "500501039", "district": "\u7af9\u5317\u5e02", "address": "\u5149\u660e\u516d\u8def/\u7e23\u653f\u5341\u4e09\u8def\u53e3(\u897f\u5317\u5074)", "slots": 20, "normal_bikes": 5, "ebikes": 0, "last_updated": "2025-04-17 09:40:23", "online": true, "youbike_version": 2, "en": {"name": "Po-Ai Junior High School", "district": "Zhubei", "address": "Guangming 6th Rd. / Xianzheng 13th Rd. Intersection (Northwest)"}}}, {"id": "8b1b732c726d8a85d8ce49e2120e7f8f", "name": "\u9cf3\u5ca1\u8def\u4e09\u6bb529\u5df7", "latitude": 24.86329, "longitude": 120.96763, "timestamp": "2025-04-17T03:06:51.716405Z", "free_bikes": 5, "empty_slots": 10, "extra": {"uid": "500501072", "district": "\u7af9\u5317\u5e02", "address": "\u9cf3\u5ca1\u8def\u4e09\u6bb529\u5df7/\u9cf3\u5ca1\u8def\u4e09\u6bb5\u53e3(\u5357\u5074)", "slots": 15, "normal_bikes": 4, "ebikes": 1, "last_updated": "2025-04-13 08:00:24", "online": true, "youbike_version": 2, "en": {"name": "Ln. 29, Sec. 3, Fenggang Rd.", "district": "Zhubei", "address": "Ln. 29, Sec. 3, Fenggang Rd. / Sec. 3, Fenggang Rd. Intersection (South)"}}}, {"id": "8c1df673f375cf6c646048f06a2cadb5", "name": "\u767e\u8001\u532f\u5f71\u57ce", "latitude": 24.81897, "longitude": 121.02735, "timestamp": "2025-04-17T03:06:51.716051Z", "free_bikes": 15, "empty_slots": 9, "extra": {"uid": "500501031", "district": "\u7af9\u5317\u5e02", "address": "\u81ea\u5f37\u5357\u8def/\u6210\u529f\u4e8c\u8857\u53e3(\u5317\u5074)", "slots": 26, "normal_bikes": 15, "ebikes": 0, "last_updated": "2025-04-17 10:10:23", "online": true, "youbike_version": 2, "en": {"name": "Broadway Cineplex", "district": "Zhubei", "address": "Ziqiang S. Rd. / Chenggong 2nd St. Intersection (North)"}}}, {"id": "8c5fdda84ea35e18489b640c73e8be60", "name": "\u798f\u5fb7\u8857\u7530\u65b0\u516d\u8857\u53e3", "latitude": 24.82588, "longitude": 121.07673, "timestamp": "2025-04-17T03:06:51.717231Z", "free_bikes": 3, "empty_slots": 17, "extra": {"uid": "500505010", "district": "\u65b0\u57d4\u93ae", "address": "\u798f\u5fb7\u8857375\u865f(\u6771\u5074)", "slots": 20, "normal_bikes": 2, "ebikes": 1, "last_updated": "2025-04-15 19:40:27", "online": true, "youbike_version": 2, "en": {"name": "Fude Street/Tianxin 6th St.", "district": "Xinpu", "address": "No. 375, Fude Street(South)"}}}, {"id": "8c97f5e0554728ded828a5f23380772d", "name": "\u6587\u8208\u8def\u838a\u656c\u5357\u8def\u53e3", "latitude": 24.81498, "longitude": 121.01923, "timestamp": "2025-04-17T03:06:51.715927Z", "free_bikes": 1, "empty_slots": 13, "extra": {"uid": "500501017", "district": "\u7af9\u5317\u5e02", "address": "\u838a\u656c\u5357\u8def/\u6587\u8208\u8def\u53e3(\u897f\u5357\u5074)", "slots": 14, "normal_bikes": 0, "ebikes": 1, "last_updated": "2025-04-17 07:28:17", "online": true, "youbike_version": 2, "en": {"name": "Wenxing Rd. / Zhuangjing S. Rd.", "district": "Zhubei", "address": "Wenxing Rd. / Zhuangjing S. Rd. Intersection (West)"}}}, {"id": "90eb8289e8c76aa5c4ef4e95ee591c24", "name": "\u515215\u516c\u5712", "latitude": 24.84407, "longitude": 120.9998, "timestamp": "2025-04-17T03:06:51.716316Z", "free_bikes": 2, "empty_slots": 13, "extra": {"uid": "500501061", "district": "\u7af9\u5317\u5e02", "address": "\u570b\u76db\u8857/\u570b\u5149\u8857\u53e3(\u897f\u5074)", "slots": 15, "normal_bikes": 2, "ebikes": 0, "last_updated": "2025-04-17 09:20:24", "online": true, "youbike_version": 2, "en": {"name": "Children's 15th Park", "district": "Zhubei", "address": "Guosheng St. / Guoguang St. Intersection (West)"}}}, {"id": "91bc83f845edf4e0605d8231df5f7213", "name": "\u65b0\u74e6\u5c4b\u5ba2\u5bb6\u6587\u5316\u4fdd\u5b58\u5340", "latitude": 24.81114, "longitude": 121.02743, "timestamp": "2025-04-17T03:06:51.715988Z", "free_bikes": 12, "empty_slots": 5, "extra": {"uid": "500501024", "district": "\u7af9\u5317\u5e02", "address": "\u6587\u8208\u8def\u4e00\u6bb5/\u5609\u8c50\u4e94\u8def\u4e00\u6bb5\u53e3(\u897f\u5317\u5074)", "slots": 19, "normal_bikes": 12, "ebikes": 0, "last_updated": "2025-04-17 08:50:23", "online": true, "youbike_version": 2, "en": {"name": "New Tile House Hakka Cultural District.", "district": "Zhubei", "address": "Sec. 1, Wenxing Rd. / Sec. 1, Jiafeng 5th Rd. Intersection (Northwest)"}}}, {"id": "920490f4fed1b46cdab770fd2407d5e2", "name": "\u505c\u516b\u505c\u8eca\u5834(\u8208\u9686\u516c\u5712)", "latitude": 24.81896, "longitude": 121.01316, "timestamp": "2025-04-17T03:06:51.716422Z", "free_bikes": 3, "empty_slots": 22, "extra": {"uid": "500501074", "district": "\u7af9\u5317\u5e02", "address": "\u5609\u5fb7\u8857/\u5609\u52e4\u5357\u8def\u53e3(\u5357\u5074\u505c\u8eca\u5834)", "slots": 25, "normal_bikes": 3, "ebikes": 0, "last_updated": "2025-04-16 13:57:18", "online": true, "youbike_version": 2, "en": {"name": "Ting 8 Parking Lot (Sing Long Park)", "district": "Zhubei", "address": "Jiade St. / Jiaqin S. Rd. Intersection (Parking Lot)"}}}, {"id": "92804facc7636a4ec8637fa86ca4c16c", "name": "\u6e56\u53e3\u9ad8\u4e2d", "latitude": 24.89124, "longitude": 121.05102, "timestamp": "2025-04-17T03:06:51.716904Z", "free_bikes": 10, "empty_slots": 22, "extra": {"uid": "500503006", "district": "\u6e56\u53e3\u9109", "address": "\u4e2d\u6b63\u8def\u4e8c\u6bb5235\u865f\u524d", "slots": 33, "normal_bikes": 6, "ebikes": 4, "last_updated": "2025-04-17 07:00:25", "online": true, "youbike_version": 2, "en": {"name": "Hukou Senior High School", "district": "Hukou", "address": "No. 235, Sec. 2, Zhongzheng Rd."}}}, {"id": "97bf329cf3cfc48a28085f17424c4228", "name": "\u65b0\u7af9\u7e23\u6587\u5316\u5c40", "latitude": 24.83069, "longitude": 121.013, "timestamp": "2025-04-17T03:06:51.716014Z", "free_bikes": 2, "empty_slots": 27, "extra": {"uid": "500501027", "district": "\u7af9\u5317\u5e02", "address": "\u5149\u660e\u4e00\u8def/\u6587\u797f\u8857\u53e3(\u6771\u5357\u5074)", "slots": 32, "normal_bikes": 2, "ebikes": 0, "last_updated": "2025-04-17 05:00:23", "online": true, "youbike_version": 2, "en": {"name": "Cultural Affairs Bureau of Hsinchu County", "district": "Zhubei", "address": "Guangming 1st Rd. / Wenlu St. Intersection (Southeast)"}}}, {"id": "980b671b4980d3f5b7a92ba681d2c2fa", "name": "\u6587\u6797\u516c\u5712", "latitude": 24.72988, "longitude": 121.08917, "timestamp": "2025-04-17T03:06:51.716848Z", "free_bikes": 8, "empty_slots": 4, "extra": {"uid": "500502017", "district": "\u7af9\u6771\u93ae", "address": "\u6587\u6797\u8def/\u5927\u6797\u8def\u53e3(\u6771\u5357\u5074)", "slots": 12, "normal_bikes": 5, "ebikes": 3, "last_updated": "2025-04-17 10:02:17", "online": true, "youbike_version": 2, "en": {"name": "Wenlin Park", "district": "Zhudong", "address": "Wenlin Rd. / Dalin Rd. Intersection (Southeast)"}}}, {"id": "99fc8368e543576b43e6b066eb5896c8", "name": "\u798f\u8208\u6771\u8def\u5609\u8208\u8def\u53e3", "latitude": 24.81574, "longitude": 121.02721, "timestamp": "2025-04-17T03:06:51.715910Z", "free_bikes": 18, "empty_slots": 1, "extra": {"uid": "500501015", "district": "\u7af9\u5317\u5e02", "address": "\u798f\u8208\u6771\u8def\u4e8c\u6bb566\u865f(\u5c0d\u5074)", "slots": 20, "normal_bikes": 17, "ebikes": 1, "last_updated": "2025-04-17 06:48:17", "online": true, "youbike_version": 2, "en": {"name": "Fuxing E. Rd. / Jiaxing Rd.", "district": "Zhubei", "address": "No. 66, Sec. 2, Fuxing E. Rd. (Opposite)"}}}, {"id": "9a764e85da9577af16f2b8e7c128cd34", "name": "\u6587\u5fe0\u661f\u7403\u516c\u5712", "latitude": 24.83085, "longitude": 121.02063, "timestamp": "2025-04-17T03:06:51.716690Z", "free_bikes": 14, "empty_slots": 10, "extra": {"uid": "500501105", "district": "\u7af9\u5317\u5e02", "address": "\u6587\u5fe0\u8def55\u865f", "slots": 25, "normal_bikes": 14, "ebikes": 0, "last_updated": "2025-04-17 08:30:25", "online": true, "youbike_version": 2, "en": {"name": "Wenzhong Planet Park", "district": "Zhubei", "address": "No. 55 Wenzhong Road"}}}, {"id": "9ae3c2e3887d94df6aff66172d37834b", "name": "\u6e56\u53e3\u9109\u516c\u6240", "latitude": 24.90111, "longitude": 121.04788, "timestamp": "2025-04-17T03:06:51.716872Z", "free_bikes": 1, "empty_slots": 11, "extra": {"uid": "500503002", "district": "\u6e56\u53e3\u9109", "address": "\u4e2d\u592e\u88571\u865f", "slots": 12, "normal_bikes": 1, "ebikes": 0, "last_updated": "2025-04-17 10:20:23", "online": true, "youbike_version": 2, "en": {"name": "Hukou Township Office", "district": "Hukou", "address": "No. 1, Zhongyang St."}}}, {"id": "9e1b2d133f7a7ab696ce96e3b7b17225", "name": "\u6587\u5c0f\u5341", "latitude": 24.84121, "longitude": 120.99405, "timestamp": "2025-04-17T03:06:51.716006Z", "free_bikes": 0, "empty_slots": 17, "extra": {"uid": "500501026", "district": "\u7af9\u5317\u5e02", "address": "\u74b0\u5317\u8def\u4e94\u6bb555\u865f\u524d", "slots": 17, "normal_bikes": 0, "ebikes": 0, "last_updated": "2025-04-17 10:57:18", "online": true, "youbike_version": 2, "en": {"name": "Wen Shi Xiao", "district": "Zhubei", "address": "No.55, Sec. 5, Huanbei Rd."}}}, {"id": "9ffbb53013b059b98ec75c240a04e1bc", "name": "\u9ad8\u9435\u5152\u4e5d\u516c\u5712", "latitude": 24.80425, "longitude": 121.04079, "timestamp": "2025-04-17T03:06:51.716682Z", "free_bikes": 3, "empty_slots": 22, "extra": {"uid": "500501104", "district": "\u7af9\u5317\u5e02", "address": "\u9698\u53e3\u4e8c\u8def239\u865f", "slots": 25, "normal_bikes": 3, "ebikes": 0, "last_updated": "2025-04-17 06:50:26", "online": true, "youbike_version": 2, "en": {"name": "High Speed \u200b\u200bRail Erjiu Park", "district": "Zhubei", "address": "No. 239, Aikou 2nd Road"}}}, {"id": "a037ea4697814bb10bdac865982cb159", "name": "\u7af9\u5317\u9060\u6771\u767e\u8ca8", "latitude": 24.82168, "longitude": 121.02361, "timestamp": "2025-04-17T03:06:51.715872Z", "free_bikes": 2, "empty_slots": 47, "extra": {"uid": "500501011", "district": "\u7af9\u5317\u5e02", "address": "\u5149\u660e\u516d\u8def\u6771\u4e00\u6bb5/\u838a\u656c\u4e8c\u8857\u53e3(\u897f\u5317\u5074)", "slots": 50, "normal_bikes": 1, "ebikes": 1, "last_updated": "2025-04-17 07:50:23", "online": true, "youbike_version": 2, "en": {"name": "Far Eastern Department Stores (Zhubei)", "district": "Zhubei", "address": "Dong Sec. 1, Guangming 6th Rd. / Zhuangjing 2th St. Intersection (Northwest)"}}}, {"id": "a4f93160aa4fe80d96814be5d918cb5e", "name": "\u9752\u5c71\u5bae", "latitude": 24.8376, "longitude": 120.97551, "timestamp": "2025-04-17T03:06:51.716282Z", "free_bikes": 2, "empty_slots": 13, "extra": {"uid": "500501057", "district": "\u7af9\u5317\u5e02", "address": "\u65b0\u5bee\u8857110-1\u865f", "slots": 15, "normal_bikes": 2, "ebikes": 0, "last_updated": "2025-04-16 09:10:23", "online": true, "youbike_version": 2, "en": {"name": "Qingshan Temple", "district": "Zhubei", "address": "No. 110-1, Xinliao St."}}}, {"id": "a649a95c45710c1ccf59849fab6d4283", "name": "\u4ef0\u5fb7\u9ad8\u4e2d", "latitude": 24.88034, "longitude": 121.00681, "timestamp": "2025-04-17T03:06:51.717043Z", "free_bikes": 12, "empty_slots": 6, "extra": {"uid": "500504003", "district": "\u65b0\u8c50\u9109", "address": "\u65b0\u8c50\u9109133\u865f\u524d(\u5bb6\u9577\u63a5\u9001\u5340)", "slots": 18, "normal_bikes": 5, "ebikes": 7, "last_updated": "2025-04-17 10:50:24", "online": true, "youbike_version": 2, "en": {"name": "Yeang-Der Senior High School", "district": "Xinfeng", "address": "No. 133, Xinfeng Township (Parents Pick-up Area)"}}}, {"id": "a7d29fd8c9b12f0cef45a5030f179aca", "name": "\u81fa\u9435\u5317\u6e56\u8eca\u7ad9", "latitude": 24.92177, "longitude": 121.05573, "timestamp": "2025-04-17T03:06:51.716958Z", "free_bikes": 5, "empty_slots": 14, "extra": {"uid": "500503012", "district": "\u6e56\u53e3\u9109", "address": "\u5317\u6e56\u8def1\u865f", "slots": 20, "normal_bikes": 4, "ebikes": 1, "last_updated": "2025-04-17 10:13:18", "online": true, "youbike_version": 2, "en": {"name": "Taiwan Railway Beihu Station", "district": "Hukou", "address": "No. 1, Beihu Rd."}}}, {"id": "a7fd29f5981930faab6f54a12225758d", "name": "\u5609\u8c50\u5317\u8def\u5149\u660e\u516d\u8def\u6771\u4e8c\u6bb5\u53e3", "latitude": 24.81304, "longitude": 121.03561, "timestamp": "2025-04-17T03:06:51.716570Z", "free_bikes": 1, "empty_slots": 19, "extra": {"uid": "500501091", "district": "\u7af9\u5317\u5e02", "address": "\u5609\u8c50\u5317\u8def/\u5149\u660e\u516d\u8def\u6771\u4e8c\u6bb5\u53e3(\u5317\u5074)", "slots": 20, "normal_bikes": 0, "ebikes": 1, "last_updated": "2025-04-17 09:02:19", "online": true, "youbike_version": 2, "en": {"name": "Jiafeng N. Rd. / Dong Sec. 2, Guangming 6th Rd.", "district": "Zhubei", "address": "Jiafeng N. Rd. / Dong Sec. 2, Guangming 6th Rd. Intersection (North)"}}}, {"id": "a9b7fed39aa660807d0c4a84e736b749", "name": "\u7af9\u6771\u9ad8\u4e2d", "latitude": 24.73327, "longitude": 121.08814, "timestamp": "2025-04-17T03:06:51.716822Z", "free_bikes": 16, "empty_slots": 9, "extra": {"uid": "500502014", "district": "\u7af9\u6771\u93ae", "address": "\u5927\u6797\u8def2\u865f", "slots": 25, "normal_bikes": 15, "ebikes": 1, "last_updated": "2025-04-17 07:20:24", "online": true, "youbike_version": 2, "en": {"name": "Chutung Senior High School", "district": "Zhudong", "address": "No. 2, Dalin Rd."}}}, {"id": "abfbcd1bcb6ac0c3048baade7cca2374", "name": "\u53f0\u5143\u6771\u5927\u9580\u7ad9", "latitude": 24.84006, "longitude": 121.02084, "timestamp": "2025-04-17T03:06:51.716247Z", "free_bikes": 63, "empty_slots": 17, "extra": {"uid": "500501053", "district": "\u7af9\u5317\u5e02", "address": "\u74b0\u5317\u8def\u4e00\u6bb5 /\u60df\u99a8\u8857\u53e3(\u5357\u5074)", "slots": 83, "normal_bikes": 50, "ebikes": 13, "last_updated": "2025-04-17 10:30:23", "online": true, "youbike_version": 2, "en": {"name": "Tai Yuen East Gate Station", "district": "Zhubei", "address": "Sec. 1, Huanbei Rd. / Weixin St. Intersection (South)"}}}, {"id": "ac965d084fa10c895dc35988b9246666", "name": "\u5152\u4e8c\u5341\u4e94\u516c\u5712", "latitude": 24.82375, "longitude": 121.03338, "timestamp": "2025-04-17T03:06:51.716032Z", "free_bikes": 12, "empty_slots": 7, "extra": {"uid": "500501029", "district": "\u7af9\u5317\u5e02", "address": "\u5341\u8208\u4e00\u8857/\u5609\u8208\u8def\u53e3(\u5317\u5074)", "slots": 19, "normal_bikes": 6, "ebikes": 6, "last_updated": "2025-04-17 08:30:23", "online": true, "youbike_version": 2, "en": {"name": "Children's 25th Park", "district": "Zhubei", "address": "Shixing 3rd St. / Jiaxing Rd. Intersection (North)"}}}, {"id": "ad6628d8824c9c102d5fb5678233ecf5", "name": "\u81fa\u9435\u516d\u5bb6\u8eca\u7ad9", "latitude": 24.80777, "longitude": 121.03895, "timestamp": "2025-04-17T03:06:51.715823Z", "free_bikes": 27, "empty_slots": 25, "extra": {"uid": "500501006", "district": "\u7af9\u5317\u5e02", "address": "\u5fa9\u8208\u4e09\u8def\u4e8c\u6bb5229\u865f\u524d", "slots": 53, "normal_bikes": 25, "ebikes": 2, "last_updated": "2025-04-17 10:30:23", "online": true, "youbike_version": 2, "en": {"name": "Taiwan Railway Lioujia Station", "district": "Zhubei", "address": "No. 229, Sec. 2, Fuxing 3rd Rd."}}}, {"id": "ae6005e2aea8f97f0418df6aa7fc9302", "name": "\u8774\u8776\u516c\u5712", "latitude": 24.83644, "longitude": 120.99874, "timestamp": "2025-04-17T03:06:51.715996Z", "free_bikes": 9, "empty_slots": 6, "extra": {"uid": "500501025", "district": "\u7af9\u5317\u5e02", "address": "\u83ef\u8208\u4e94\u8857/\u83ef\u8208\u8857\u53e3(\u897f\u5317\u5074)", "slots": 15, "normal_bikes": 8, "ebikes": 1, "last_updated": "2025-04-17 06:30:24", "online": true, "youbike_version": 2, "en": {"name": "Butterfly Park", "district": "Zhubei", "address": "Huaxing 5th St. / Huaxing St. Intersection (Northwest)"}}}, {"id": "aea2d0e21ad7fff144becc1633c0c8d8", "name": "\u81fa\u9435\u65b0\u8c50\u8eca\u7ad9(\u524d\u7ad9)", "latitude": 24.86968, "longitude": 120.99644, "timestamp": "2025-04-17T03:06:51.717052Z", "free_bikes": 3, "empty_slots": 46, "extra": {"uid": "500504004", "district": "\u65b0\u8c50\u9109", "address": "\u65b0\u8208\u8def202\u865f", "slots": 49, "normal_bikes": 0, "ebikes": 3, "last_updated": "2025-04-17 10:04:18", "online": true, "youbike_version": 2, "en": {"name": "Taiwan Railway Xinfeng Station (Front Exit)", "district": "Xinfeng", "address": "No. 202, Xinxing Rd."}}}, {"id": "b086ed6b59edf3a5f6d52b20582ccd45", "name": "\u7af9\u5317\u5e02\u7acb\u5716\u66f8\u9928", "latitude": 24.83537, "longitude": 121.00851, "timestamp": "2025-04-17T03:06:51.716089Z", "free_bikes": 3, "empty_slots": 12, "extra": {"uid": "500501035", "district": "\u7af9\u5317\u5e02", "address": "\u4e09\u6c11\u8def/\u798f\u5fb7\u88578\u5df7\u53e3(\u6771\u5074)", "slots": 15, "normal_bikes": 3, "ebikes": 0, "last_updated": "2025-04-17 10:02:17", "online": true, "youbike_version": 2, "en": {"name": "Zhubei Public Library", "district": "Zhubei", "address": "Sanmin Rd. / Ln. 8, Fude St. Intersection (East)"}}}, {"id": "b10fbe8a0d6e0ecc65ecf8739e6e6ca6", "name": "AI\u667a\u6167\u5712\u5340\u516c\u5712", "latitude": 24.83048, "longitude": 121.02292, "timestamp": "2025-04-17T03:06:51.716466Z", "free_bikes": 5, "empty_slots": 20, "extra": {"uid": "500501079", "district": "\u7af9\u5317\u5e02", "address": "\u667a\u6167\u4e8c\u8def/\u667a\u6167\u4e00\u8def\u53e3(\u5317\u5074)", "slots": 25, "normal_bikes": 5, "ebikes": 0, "last_updated": "2025-04-17 07:40:27", "online": true, "youbike_version": 2, "en": {"name": "Artificial Intelligence Industrial Park", "district": "Zhubei", "address": "Zhihui 2nd Rd. / Zhihui 1st Rd. Intersection (North)"}}}, {"id": "b2aff8647d1c49299293021af44bbb93", "name": "\u6c34\u5733\u68ee\u6797\u516c\u5712", "latitude": 24.81094, "longitude": 121.03437, "timestamp": "2025-04-17T03:06:51.716136Z", "free_bikes": 0, "empty_slots": 0, "extra": {"uid": "500501040", "district": "\u7af9\u5317\u5e02", "address": "\u5609\u8c50\u5357\u8def\u4e00\u6bb5/\u5fa9\u8208\u4e8c\u8def\u53e3(\u5357\u5074)", "slots": 30, "normal_bikes": 0, "ebikes": 0, "last_updated": "2024-11-09 02:09:25", "online": false, "youbike_version": 2, "en": {"name": "Shui Zun Forest Park", "district": "Zhubei", "address": "Sec. 1, Jiafeng S. Rd. / Fuxing 2nd Rd. Intersection (South)"}}}, {"id": "b31f01b29fc7aee81bc3c3c6f1faba05", "name": "\u65b0\u7af9\u7e23\u653f\u5e9c", "latitude": 24.82594, "longitude": 121.01237, "timestamp": "2025-04-17T03:06:51.715565Z", "free_bikes": 11, "empty_slots": 8, "extra": {"uid": "500501001", "district": "\u7af9\u5317\u5e02", "address": "\u5149\u660e\u516d\u8def/\u7e23\u653f\u516d\u8def\u53e3(\u5317\u5074)", "slots": 20, "normal_bikes": 11, "ebikes": 0, "last_updated": "2025-04-17 09:34:18", "online": true, "youbike_version": 2, "en": {"name": "Hsinchu County Government", "district": "Zhubei", "address": "Guangming 6th Rd. / Xianzheng 6th Rd. Intersection (North)"}}}, {"id": "b32b13efc6e12a7d38e8cc638f5f697c", "name": "\u65b0\u5e84\u516c\u5712", "latitude": 24.84102, "longitude": 120.95411, "timestamp": "2025-04-17T03:06:51.716368Z", "free_bikes": 10, "empty_slots": 5, "extra": {"uid": "500501067", "district": "\u7af9\u5317\u5e02", "address": "\u4e2d\u6b63\u897f\u8def2075\u5df72\u865f(\u65c1\u516c\u5712)", "slots": 15, "normal_bikes": 8, "ebikes": 2, "last_updated": "2025-04-12 07:10:27", "online": true, "youbike_version": 2, "en": {"name": "Xinzhuang Park", "district": "Zhubei", "address": "No. 2, Ln. 2075, Zhongzheng W. Rd. (Neighborhood park)"}}}, {"id": "b3389d027ea7e5340c3d8085033159a0", "name": "\u81f3\u5584\u516c\u5712", "latitude": 24.71979, "longitude": 121.09571, "timestamp": "2025-04-17T03:06:51.716839Z", "free_bikes": 5, "empty_slots": 6, "extra": {"uid": "500502016", "district": "\u7af9\u6771\u93ae", "address": "\u548c\u6c5f\u88579\u865f(\u897f\u5074)", "slots": 12, "normal_bikes": 4, "ebikes": 1, "last_updated": "2025-04-17 06:20:25", "online": true, "youbike_version": 2, "en": {"name": "Zhishan Park", "district": "Zhudong", "address": "No. 9, Hejiang St. (West)"}}}, {"id": "b65c12a1669e8768da9dafa262ed4b47", "name": "\u6587\u4fe1\u722c\u87f2\u5169\u68f2\u516c\u5712", "latitude": 24.83231, "longitude": 121.00963, "timestamp": "2025-04-17T03:06:51.716108Z", "free_bikes": 2, "empty_slots": 13, "extra": {"uid": "500501037", "district": "\u7af9\u5317\u5e02", "address": "\u6587\u4fe1\u8def/\u5149\u660e\u4e00\u8def\u53e3(\u897f\u5317\u5074)", "slots": 15, "normal_bikes": 2, "ebikes": 0, "last_updated": "2025-04-17 08:10:23", "online": true, "youbike_version": 2, "en": {"name": "Wen Xing Reptile Amphibious Park", "district": "Zhubei", "address": "Wenxin Rd. / Guangming 1st Rd. Intersection (Northwest)"}}}, {"id": "b9605fbf79d0d5ab02eb82d3f48fb903", "name": "\u6587\u5c71\u8def\u798f\u797f\u4e09\u8857\u53e3", "latitude": 24.83328, "longitude": 121.02893, "timestamp": "2025-04-17T03:06:51.717223Z", "free_bikes": 17, "empty_slots": 8, "extra": {"uid": "500505009", "district": "\u65b0\u57d4\u93ae", "address": "\u6587\u5c71\u8def\u7281\u982d\u5c71\u6bb5865\u865f(\u6771\u5317\u5074)", "slots": 25, "normal_bikes": 14, "ebikes": 3, "last_updated": "2025-04-17 07:20:25", "online": true, "youbike_version": 2, "en": {"name": "Wenshan Rd/Fulu Third St.", "district": "Xinpu", "address": "No. 865, Sec. Litoushan, Wenshan Rd.(Northeast)"}}}, {"id": "ba3af679d9c98c824203d0df925294c0", "name": "\u661f\u969b\u7403\u5834", "latitude": 24.82604, "longitude": 121.00095, "timestamp": "2025-04-17T03:06:51.716656Z", "free_bikes": 9, "empty_slots": 15, "extra": {"uid": "500501101", "district": "\u7af9\u5317\u5e02", "address": "\u535a\u611b\u5357\u8def9\u865f(\u897f\u5357\u5074)", "slots": 25, "normal_bikes": 8, "ebikes": 1, "last_updated": "2025-04-17 08:40:24", "online": true, "youbike_version": 2, "en": {"name": "Interstellar Basketball Court", "district": "Zhubei", "address": "No. 9 Boai South Road (southwest side)"}}}, {"id": "ba9b0610ab80398a388668c99f70d990", "name": "\u7af9\u5317\u9ad8\u4e2d", "latitude": 24.83687, "longitude": 121.00444, "timestamp": "2025-04-17T03:06:51.715852Z", "free_bikes": 13, "empty_slots": 8, "extra": {"uid": "500501009", "district": "\u7af9\u5317\u5e02", "address": "\u4e2d\u592e\u8def3\u865f", "slots": 42, "normal_bikes": 9, "ebikes": 4, "last_updated": "2025-04-17 10:30:23", "online": true, "youbike_version": 2, "en": {"name": "Zhubei Senior High School", "district": "Zhubei", "address": "No. 3, Zhongyang Rd."}}}, {"id": "bbb6012c4cf6962e5c599c8b4e501a6b", "name": "\u6210\u7027\u516c\u4e94\u516c\u5712", "latitude": 24.83642, "longitude": 121.0254, "timestamp": "2025-04-17T03:06:51.716155Z", "free_bikes": 6, "empty_slots": 9, "extra": {"uid": "500501042", "district": "\u7af9\u5317\u5e02", "address": "\u4e2d\u5c71\u4e8c\u8857/\u6c34\u7027\u4e09\u8857\u53e3(\u6771\u5074)", "slots": 15, "normal_bikes": 5, "ebikes": 1, "last_updated": "2025-04-17 06:27:18", "online": true, "youbike_version": 2, "en": {"name": "Chenglong Gong5 Park", "district": "Zhubei", "address": "Zhongshan 2nd St. / Shuilong 3rd St. Intersection (East)"}}}, {"id": "bda74d3c3c93d5db7730aea1413851c0", "name": "\u81fa\u9435\u65b0\u8c50\u8eca\u7ad9(\u5f8c\u7ad9)", "latitude": 24.86924, "longitude": 120.9969, "timestamp": "2025-04-17T03:06:51.716980Z", "free_bikes": 5, "empty_slots": 15, "extra": {"uid": "500503014", "district": "\u6e56\u53e3\u9109", "address": "\u65b0\u8208\u8def202\u865f(\u5f8c\u7ad9\u51fa\u5165\u53e3\u6771\u5317\u5074)", "slots": 20, "normal_bikes": 3, "ebikes": 2, "last_updated": "2025-04-17 09:10:24", "online": true, "youbike_version": 2, "en": {"name": "Taiwan Railway Xinfeng Station (Rear Exit)", "district": "Hukou", "address": "No. 202, Xinxing Rd. (Rear Exit) (Northeast)"}}}, {"id": "c026aaf76b155b126031a122022e445d", "name": "\u7167\u9580\u91cc\u96c6\u6703\u6240", "latitude": 24.8464, "longitude": 121.11567, "timestamp": "2025-04-17T03:06:51.717198Z", "free_bikes": 7, "empty_slots": 8, "extra": {"uid": "500505006", "district": "\u65b0\u57d4\u93ae", "address": "\u65b0\u57d4\u93ae9\u913020-20\u865f(\u6771\u5357\u5074)", "slots": 15, "normal_bikes": 3, "ebikes": 4, "last_updated": "2025-04-08 19:24:18", "online": true, "youbike_version": 2, "en": {"name": "Zhaomenguomin Community Center", "district": "Xinpu", "address": "305, Hsinchu County, Xinpu Township"}}}, {"id": "c0b7aee01bf201d86548c76111c02aff", "name": "\u7af9\u4ec1\u516c\u5712", "latitude": 24.83604, "longitude": 121.01583, "timestamp": "2025-04-17T03:06:51.715891Z", "free_bikes": 10, "empty_slots": 11, "extra": {"uid": "500501013", "district": "\u7af9\u5317\u5e02", "address": "\u6587\u5316\u8857/\u6587\u5316\u885778\u5df7\u53e3(\u897f\u5074)", "slots": 23, "normal_bikes": 10, "ebikes": 0, "last_updated": "2025-04-17 06:40:24", "online": true, "youbike_version": 2, "en": {"name": "Zhuren Park", "district": "Zhubei", "address": "Wenhua St. / Ln. 78, Wenhua St. Intersection (West)"}}}, {"id": "c551b0aa91497019377a8d619391593e", "name": "\u5609\u653f\u4e8c\u8857\u505c\u8eca\u5834", "latitude": 24.80843, "longitude": 121.03004, "timestamp": "2025-04-17T03:06:51.715971Z", "free_bikes": 4, "empty_slots": 16, "extra": {"uid": "500501022", "district": "\u7af9\u5317\u5e02", "address": "\u516d\u5bb6\u4e00\u8def\u4e00\u6bb5/\u5609\u653f\u4e8c\u8857\u53e3(\u6771\u5357\u5074)", "slots": 20, "normal_bikes": 4, "ebikes": 0, "last_updated": "2025-04-17 09:14:17", "online": true, "youbike_version": 2, "en": {"name": "Jiazheng 2nd St. Parking Lot", "district": "Zhubei", "address": "Sec. 1, Liujia 1st Rd. / Jiazheng 2nd St. Intersection (Southeast)"}}}, {"id": "c555236e6214c0071a17131ddc50b932", "name": "\u4e2d\u8208\u516c\u5712", "latitude": 24.87642, "longitude": 120.99673, "timestamp": "2025-04-17T03:06:51.717099Z", "free_bikes": 1, "empty_slots": 11, "extra": {"uid": "500504009", "district": "\u65b0\u8c50\u9109", "address": "\u5fe0\u5b5d\u8def/\u5b5d\u4e00\u8857\u53e3(\u897f\u5074)", "slots": 12, "normal_bikes": 1, "ebikes": 0, "last_updated": "2025-04-16 21:21:17", "online": true, "youbike_version": 2, "en": {"name": "Zhongxing Park", "district": "Xinfeng", "address": "Zhongxiao Rd. / Xiao 1st St. Intersection (West)"}}}, {"id": "c6ac9e4595769a777507136d0977780e", "name": "\u65b0\u7af9\u7e23\u9ad4\u80b2\u5834", "latitude": 24.81913, "longitude": 121.01859, "timestamp": "2025-04-17T03:06:51.715918Z", "free_bikes": 1, "empty_slots": 28, "extra": {"uid": "500501016", "district": "\u7af9\u5317\u5e02", "address": "\u81ea\u5f37\u4e09\u8def/\u798f\u8208\u6771\u8def\u4e00\u6bb5\u53e3(\u897f\u5357\u5074)", "slots": 30, "normal_bikes": 1, "ebikes": 0, "last_updated": "2025-04-17 09:20:24", "online": true, "youbike_version": 2, "en": {"name": "Hsinchu County Stadium", "district": "Zhubei", "address": "Ziqiang 3rd Rd. / Sec. 1, Fuxing E. Rd. Intersection (Southwest)"}}}, {"id": "cba3ee38d5830a9491128e19d8b84bd5", "name": "\u6e56\u53e3\u8001\u8857", "latitude": 24.87704, "longitude": 121.05883, "timestamp": "2025-04-17T03:06:51.716912Z", "free_bikes": 15, "empty_slots": 4, "extra": {"uid": "500503007", "district": "\u6e56\u53e3\u9109", "address": "\u6e56\u53e3\u8001\u8857278\u865f(\u6771\u5074)", "slots": 20, "normal_bikes": 9, "ebikes": 6, "last_updated": "2025-04-16 16:20:24", "online": true, "youbike_version": 2, "en": {"name": "Hukou Old Street", "district": "Hukou", "address": "No. 278, Hukoulao St. (East)"}}}, {"id": "cdcd30bb555289ec9a233b284ed4d429", "name": "\u81ea\u5f37\u7bc0\u6c23\u516c\u5712", "latitude": 24.81677, "longitude": 121.02285, "timestamp": "2025-04-17T03:06:51.716672Z", "free_bikes": 8, "empty_slots": 12, "extra": {"uid": "500501103", "district": "\u7af9\u5317\u5e02", "address": "\u6210\u529f\u4e03\u8857185\u865f(\u897f\u5074)", "slots": 20, "normal_bikes": 8, "ebikes": 0, "last_updated": "2025-04-17 08:20:25", "online": true, "youbike_version": 2, "en": {"name": "Ziqiang Solar Terms Park", "district": "Zhubei", "address": "No. 185, Chenggong 7th Street (west side)"}}}, {"id": "d065945caf2c72d4a2d017e58f2f0591", "name": "\u6210\u529f\u570b\u4e2d", "latitude": 24.81872, "longitude": 121.01597, "timestamp": "2025-04-17T03:06:51.716440Z", "free_bikes": 5, "empty_slots": 15, "extra": {"uid": "500501076", "district": "\u7af9\u5317\u5e02", "address": "\u6210\u529f\u516b\u8def40\u865f(\u5c0d\u5074)", "slots": 20, "normal_bikes": 4, "ebikes": 1, "last_updated": "2025-04-17 10:20:23", "online": true, "youbike_version": 2, "en": {"name": "Cheng-Gong Junior High School", "district": "Zhubei", "address": "No. 40, Chenggong 8th Rd. (Opposite)"}}}, {"id": "d0855d0a7dadcb58f98dae951db5fc63", "name": "\u6a39\u675e\u6797\u6587\u5316\u9928", "latitude": 24.73561, "longitude": 121.09517, "timestamp": "2025-04-17T03:06:51.716798Z", "free_bikes": 0, "empty_slots": 12, "extra": {"uid": "500502011", "district": "\u7af9\u6771\u93ae", "address": "\u65b0\u751f\u8def377\u865f", "slots": 12, "normal_bikes": 0, "ebikes": 0, "last_updated": "2025-04-17 10:28:17", "online": true, "youbike_version": 2, "en": {"name": "Shuchilin Cultural Hall", "district": "Zhudong", "address": "No. 377, Xinsheng Rd."}}}, {"id": "d1206173650e84c77e6c01b253e4d2ca", "name": "\u515224\u516c\u5712", "latitude": 24.82822, "longitude": 121.03005, "timestamp": "2025-04-17T03:06:51.716494Z", "free_bikes": 6, "empty_slots": 14, "extra": {"uid": "500501082", "district": "\u7af9\u5317\u5e02", "address": "\u52dd\u5229\u5341\u4e94\u8857188\u865f\u524d", "slots": 20, "normal_bikes": 4, "ebikes": 2, "last_updated": "2025-04-16 14:50:26", "online": true, "youbike_version": 2, "en": {"name": "Children's 24th Park", "district": "Zhubei", "address": "No. 188, Shengli 15th St."}}}, {"id": "d1d8da2552f9a3fe38e908f0854e91be", "name": "\u570b\u7acb\u65b0\u7af9\u7279\u6b8a\u6559\u80b2\u5b78\u6821", "latitude": 24.81504, "longitude": 121.0329, "timestamp": "2025-04-17T03:06:51.716554Z", "free_bikes": 9, "empty_slots": 11, "extra": {"uid": "500501089", "district": "\u7af9\u5317\u5e02", "address": "\u5149\u660e\u516d\u8def\u6771\u4e8c\u6bb5201\u865f", "slots": 20, "normal_bikes": 8, "ebikes": 1, "last_updated": "2025-04-17 07:50:24", "online": true, "youbike_version": 2, "en": {"name": "National Hsinchu Special School", "district": "Zhubei", "address": "No. 201, Dong Sec. 2, Guangming 6th Rd."}}}, {"id": "d311f2efb6dec56956d05423cc01600a", "name": "\u5152\u56db\u516c\u5712", "latitude": 24.80925, "longitude": 121.02546, "timestamp": "2025-04-17T03:06:51.715953Z", "free_bikes": 5, "empty_slots": 15, "extra": {"uid": "500501020", "district": "\u7af9\u5317\u5e02", "address": "\u516d\u5bb6\u4e94\u8def\u4e00\u6bb5/\u5609\u8c50\u4e94\u8def\u4e8c\u6bb5\u53e3(\u897f\u5074)", "slots": 20, "normal_bikes": 5, "ebikes": 0, "last_updated": "2025-04-17 07:53:18", "online": true, "youbike_version": 2, "en": {"name": "Children's 4th Park", "district": "Zhubei", "address": "Sec. 1, Liujia 5th Rd. / Sec. 2, Jiafeng 5th Rd. Intersection (West)"}}}, {"id": "d65de8bd23f1cd583687978ecd6beddf", "name": "\u5152\u516b\u516c\u5712", "latitude": 24.84141, "longitude": 121.00274, "timestamp": "2025-04-17T03:06:51.716274Z", "free_bikes": 6, "empty_slots": 9, "extra": {"uid": "500501056", "district": "\u7af9\u5317\u5e02", "address": "\u65b0\u6c11\u885757\u5df7/\u65b0\u6c11\u8857\u53e3(\u5357\u5074)", "slots": 15, "normal_bikes": 6, "ebikes": 0, "last_updated": "2025-04-17 06:42:20", "online": true, "youbike_version": 2, "en": {"name": "Children's 8th Park", "district": "Zhubei", "address": "Ln. 57, Xinmin St. / Xinmin St. Intersection (South)"}}}, {"id": "d78896a76a33bbf3196f04284502c149", "name": "\u798f\u8208\u516c\u5712", "latitude": 24.82253, "longitude": 121.01054, "timestamp": "2025-04-17T03:06:51.716174Z", "free_bikes": 8, "empty_slots": 12, "extra": {"uid": "500501044", "district": "\u7af9\u5317\u5e02", "address": "\u798f\u8208\u8def/\u7e23\u653f\u516d\u8def\u53e3(\u5357\u5074)", "slots": 20, "normal_bikes": 8, "ebikes": 0, "last_updated": "2025-04-17 10:06:17", "online": true, "youbike_version": 2, "en": {"name": "Fuxing Park", "district": "Zhubei", "address": "Fuxing Rd. / Xianzheng 6th Rd. Intersection (South)"}}}, {"id": "d78b611dea232b54d74b7094b519457e", "name": "\u7af9\u5317\u570b\u6c11\u904b\u52d5\u4e2d\u5fc3(\u7e23\u6cf3\u9928)", "latitude": 24.82024, "longitude": 121.02175, "timestamp": "2025-04-17T03:06:51.716449Z", "free_bikes": 2, "empty_slots": 22, "extra": {"uid": "500501077", "district": "\u7af9\u5317\u5e02", "address": "\u838a\u656c\u5357\u8def18\u865f", "slots": 25, "normal_bikes": 0, "ebikes": 2, "last_updated": "2025-04-17 09:02:19", "online": true, "youbike_version": 2, "en": {"name": "Zhubei Civil Sports Center (Hsinchu County Natatorium)", "district": "Zhubei", "address": "No. 18, Zhuangjing S. Rd."}}}, {"id": "da956fe98537803f0471c0baeb6f8312", "name": "\u5c71\u5d0e\u570b\u5c0f", "latitude": 24.87222, "longitude": 120.99724, "timestamp": "2025-04-17T03:06:51.717119Z", "free_bikes": 1, "empty_slots": 10, "extra": {"uid": "500504011", "district": "\u65b0\u8c50\u9109", "address": "\u5b78\u5e9c\u8857/\u798f\u5fb7\u8857\u53e3(\u897f\u5074)", "slots": 11, "normal_bikes": 1, "ebikes": 0, "last_updated": "2025-04-16 22:30:23", "online": true, "youbike_version": 2, "en": {"name": "Shan Chi Elementary School", "district": "Xinfeng", "address": "Xuefu St. / Fude St. Intersection (West)"}}}, {"id": "df0156e7e691eff164c9e61e43127b27", "name": "\u51526\u516c\u5712", "latitude": 24.80672, "longitude": 121.03317, "timestamp": "2025-04-17T03:06:51.716511Z", "free_bikes": 6, "empty_slots": 14, "extra": {"uid": "500501084", "district": "\u7af9\u5317\u5e02", "address": "\u516d\u5bb6\u4e00\u8def\u4e8c\u6bb5/\u5609\u653f\u516b\u8857\u53e3(\u897f\u5074)", "slots": 20, "normal_bikes": 6, "ebikes": 0, "last_updated": "2025-04-17 09:50:27", "online": true, "youbike_version": 2, "en": {"name": "Children's 6th Park", "district": "Zhubei", "address": "Sec. 2, Liujia 1st Rd. / Jiazheng 8th St. Intersection (West)"}}}, {"id": "e10a7fa30264bb3235d15f829494d294", "name": "\u516c\u4e09\u516c\u5712(\u9698\u53e3\u4e8c\u8def)", "latitude": 24.80443, "longitude": 121.03542, "timestamp": "2025-04-17T03:06:51.716520Z", "free_bikes": 1, "empty_slots": 17, "extra": {"uid": "500501085", "district": "\u7af9\u5317\u5e02", "address": "\u9698\u53e3\u4e8c\u8def/\u9ad8\u9435\u4e8c\u8def158\u5df7\u53e3(\u5357\u5074)", "slots": 18, "normal_bikes": 0, "ebikes": 1, "last_updated": "2025-04-17 10:43:18", "online": true, "youbike_version": 2, "en": {"name": "Gong 3 Park (Aikou 2nd Rd.)", "district": "Zhubei", "address": "Aikou 2nd Rd. / Ln. 158, Gaotie 2nd Rd. Intersection (South)"}}}, {"id": "e1974cdaed738b6b709e78a3d16f1be0", "name": "\u5ba2\u904b\u4e0b\u516c\u9928\u7ad9", "latitude": 24.72273, "longitude": 121.09597, "timestamp": "2025-04-17T03:06:51.716830Z", "free_bikes": 8, "empty_slots": 4, "extra": {"uid": "500502015", "district": "\u7af9\u6771\u93ae", "address": "\u6771\u5be7\u8def\u4e00\u6bb51\u865f(\u5317\u5074)", "slots": 12, "normal_bikes": 5, "ebikes": 3, "last_updated": "2025-04-17 06:20:25", "online": true, "youbike_version": 2, "en": {"name": "Bus Xiagongguan Station", "district": "Zhudong", "address": "No. 1, Sec. 1, Dongning Rd. (North)"}}}, {"id": "e296146cfe342fdf15a282dfd6d89e6f", "name": "\u515217\u516c\u5712", "latitude": 24.83432, "longitude": 121.00071, "timestamp": "2025-04-17T03:06:51.716324Z", "free_bikes": 7, "empty_slots": 8, "extra": {"uid": "500501062", "district": "\u7af9\u5317\u5e02", "address": "\u793e\u5d19\u4e8c\u8857/\u793e\u5d19\u8857\u53e3 (\u6771\u5317\u5074)", "slots": 15, "normal_bikes": 5, "ebikes": 2, "last_updated": "2025-04-17 05:01:17", "online": true, "youbike_version": 2, "en": {"name": "Children's 17th Park", "district": "Zhubei", "address": "Shelun 2nd St. / Shelun St. Intersection (Northeast)"}}}, {"id": "e394d062392b290083f8e45f76f1b2f5", "name": "\u5317\u8208\u8def\u4e09\u6bb5\u6c34\u8cc7\u8def\u53e3", "latitude": 24.74689, "longitude": 121.0842, "timestamp": "2025-04-17T03:06:51.716740Z", "free_bikes": 6, "empty_slots": 14, "extra": {"uid": "500502005", "district": "\u7af9\u6771\u93ae", "address": "\u5317\u8208\u8def\u4e09\u6bb5218\u5df76\u865f(\u5c0d\u5074)", "slots": 20, "normal_bikes": 4, "ebikes": 2, "last_updated": "2025-04-17 10:20:23", "online": true, "youbike_version": 2, "en": {"name": "Section 3, Beixing and Shuizi Rd.", "district": "Zhudong", "address": "No. 6, Lane 218, Section 3, Beixing Road (opposite side)"}}}, {"id": "e4147a708aa664923f5e12e912b94161", "name": "\u9ebb\u5712\u570b\u5c0f", "latitude": 24.84692, "longitude": 120.97698, "timestamp": "2025-04-17T03:06:51.716265Z", "free_bikes": 6, "empty_slots": 8, "extra": {"uid": "500501055", "district": "\u7af9\u5317\u5e02", "address": "\u9577\u5712\u4e00\u8857227\u865f", "slots": 15, "normal_bikes": 4, "ebikes": 2, "last_updated": "2025-04-13 13:00:24", "online": true, "youbike_version": 2, "en": {"name": "Ma-Yuan Elementary School", "district": "Zhubei", "address": "No. 227, Changyuan 1st St."}}}, {"id": "e9d4ad0ba560d45ca4228b8b8f162812", "name": "\u81fa\u9435\u7af9\u5317\u8eca\u7ad9(\u5f8c\u7ad9)", "latitude": 24.83969, "longitude": 121.00934, "timestamp": "2025-04-17T03:06:51.715802Z", "free_bikes": 13, "empty_slots": 62, "extra": {"uid": "500501004", "district": "\u7af9\u5317\u5e02", "address": "\u65b0\u6cf0\u8def37\u865f(\u6771\u5357\u5074)", "slots": 75, "normal_bikes": 13, "ebikes": 0, "last_updated": "2025-04-17 09:50:26", "online": true, "youbike_version": 2, "en": {"name": "Taiwan Railway Zhubei Station (Rear Exit)", "district": "Zhubei", "address": "No. 37, Xintai Rd. (Southeast)"}}}, {"id": "eb077c36467cd8c03df569dcd2606da4", "name": "\u81fa\u9435\u6e56\u53e3\u8eca\u7ad9(\u524d\u7ad9)", "latitude": 24.90279, "longitude": 121.04415, "timestamp": "2025-04-17T03:06:51.716998Z", "free_bikes": 2, "empty_slots": 32, "extra": {"uid": "500503016", "district": "\u6e56\u53e3\u9109", "address": "\u4e2d\u5c71\u8def\u4e8c\u6bb5121 \u865f", "slots": 34, "normal_bikes": 0, "ebikes": 2, "last_updated": "2025-04-17 10:30:23", "online": true, "youbike_version": 2, "en": {"name": "Taiwan Railway Hukou Station (Front Exit)", "district": "Hukou", "address": "No. 121, Sec. 2, Zhongshan Rd."}}}, {"id": "ec85f6d27379ad3c033a1e820ab4d83e", "name": "\u6c34\u6708\u516c\u5712", "latitude": 24.85572, "longitude": 120.94236, "timestamp": "2025-04-17T03:06:51.716396Z", "free_bikes": 9, "empty_slots": 6, "extra": {"uid": "500501071", "district": "\u7af9\u5317\u5e02", "address": "\u6c34\u9632\u9053\u8def\u4e94\u6bb5(\u6c34\u6708\u516c\u5712\u505c\u8eca\u5834)", "slots": 15, "normal_bikes": 5, "ebikes": 4, "last_updated": "2025-04-14 15:20:27", "online": true, "youbike_version": 2, "en": {"name": "Shuiyue Park", "district": "Zhubei", "address": "Sec. 5, Shuifangdao Rd. (Shuiyue Park Parking Lot)"}}}, {"id": "ee9224f9d5d06d813c1b86bfe29bd671", "name": "\u4e2d\u570b\u91ab\u85e5\u5927\u5b78\u65b0\u7af9\u9644\u8a2d\u91ab\u9662", "latitude": 24.82553, "longitude": 121.00108, "timestamp": "2025-04-17T03:06:51.716059Z", "free_bikes": 15, "empty_slots": 1, "extra": {"uid": "500501032", "district": "\u7af9\u5317\u5e02", "address": "\u535a\u611b\u5357\u8def/\u8208\u9686\u8def\u4e00\u6bb5\u53e3(\u6771\u5317\u5074)", "slots": 17, "normal_bikes": 14, "ebikes": 1, "last_updated": "2025-04-17 10:38:18", "online": true, "youbike_version": 2, "en": {"name": "China Medical University Hsinchu Hospital", "district": "Zhubei", "address": "Bo'ai S. Rd. / Sec. 1, Xinglong Rd. Intersection (Northeast)"}}}, {"id": "eed297c65514f24ea2d97546bf3feb37", "name": "\u967d\u660e\u4ea4\u901a\u5927\u5b78(\u516d\u5bb6\u6821\u5340)", "latitude": 24.81287, "longitude": 121.02331, "timestamp": "2025-04-17T03:06:51.716613Z", "free_bikes": 6, "empty_slots": 13, "extra": {"uid": "500501096", "district": "\u7af9\u5317\u5e02", "address": "\u6587\u8208\u8def/\u81ea\u5f37\u5357\u8def\u53e3(\u5357\u5074)", "slots": 20, "normal_bikes": 5, "ebikes": 1, "last_updated": "2025-04-17 10:10:24", "online": true, "youbike_version": 2, "en": {"name": "NYCU (Liujia Campus)", "district": "Zhubei", "address": "Wenxing Rd. / Ziqiang S. Rd. Intersection (South)"}}}, {"id": "f2319540541cf1cdd02181f0e59da8e1", "name": "\u505c\u5341\u516d\u6597\u5d19\u505c\u8eca\u5834", "latitude": 24.82526, "longitude": 121.00479, "timestamp": "2025-04-17T03:06:51.716664Z", "free_bikes": 8, "empty_slots": 22, "extra": {"uid": "500501102", "district": "\u7af9\u5317\u5e02", "address": "\u798f\u8208\u4e00\u8def6\u865f(\u6771\u5357\u5074)", "slots": 30, "normal_bikes": 7, "ebikes": 1, "last_updated": "2025-04-17 10:50:25", "online": true, "youbike_version": 2, "en": {"name": "Stop 16 Doulun parking lot", "district": "Zhubei", "address": "No. 6, Fuxing 1st Road (southeast side)"}}}, {"id": "f2b5bf0fea68d78b56f297d8c53953c2", "name": "\u5167\u601d\u9ad8\u5de5", "latitude": 24.82885, "longitude": 121.08211, "timestamp": "2025-04-17T03:06:51.717154Z", "free_bikes": 3, "empty_slots": 17, "extra": {"uid": "500505001", "district": "\u65b0\u57d4\u93ae", "address": "\u694a\u65b0\u8def\u4e00\u6bb540\u865f(\u897f\u5317\u5074)", "slots": 20, "normal_bikes": 1, "ebikes": 2, "last_updated": "2025-04-17 07:30:25", "online": true, "youbike_version": 2, "en": {"name": "St. Aloysius Technical School", "district": "Xinpu", "address": "No. 40, Sec. 1, Yangxin Rd."}}}, {"id": "f2f230e518d945049038a299a9203d75", "name": "\u516c\u4e09\u516c\u5712", "latitude": 24.80309, "longitude": 121.03649, "timestamp": "2025-04-17T03:06:51.716192Z", "free_bikes": 1, "empty_slots": 24, "extra": {"uid": "500501046", "district": "\u7af9\u5317\u5e02", "address": "\u9698\u53e3\u4e09\u885778\u865f", "slots": 25, "normal_bikes": 0, "ebikes": 1, "last_updated": "2025-04-17 10:00:22", "online": true, "youbike_version": 2, "en": {"name": "Gong 3 Park", "district": "Zhubei", "address": "No. 78, Aikou 3rd St"}}}, {"id": "f34289c83b8cbba8c6aaaf881a377565", "name": "\u5ee3\u4e94\u516c\u5712", "latitude": 24.82866, "longitude": 121.00324, "timestamp": "2025-04-17T03:06:51.716414Z", "free_bikes": 5, "empty_slots": 12, "extra": {"uid": "500501073", "district": "\u7af9\u5317\u5e02", "address": "\u5149\u660e\u4e5d\u8def/\u535a\u611b\u8857\u53e3(\u6771\u5357\u5074)", "slots": 18, "normal_bikes": 3, "ebikes": 2, "last_updated": "2025-04-17 07:30:25", "online": true, "youbike_version": 2, "en": {"name": "Guang 5 Park", "district": "Zhubei", "address": "Chenggong 9th St. / Bo'ai St. Intersection (Southeast)"}}}, {"id": "f4215774e786855440a68e4dd6017560", "name": "\u65b0\u57d4\u570b\u4e2d", "latitude": 24.82783, "longitude": 121.07114, "timestamp": "2025-04-17T03:06:51.717172Z", "free_bikes": 2, "empty_slots": 17, "extra": {"uid": "500505003", "district": "\u65b0\u57d4\u93ae", "address": "\u4e2d\u6b63\u8def792\u865f", "slots": 20, "normal_bikes": 2, "ebikes": 0, "last_updated": "2025-04-17 07:30:25", "online": true, "youbike_version": 2, "en": {"name": "Xinpu Junior High School", "district": "Xinpu", "address": "No. 792, Zhongzheng Rd."}}}, {"id": "f8ddff7c7deec3472b5dfea9690823c5", "name": "\u576a\u9802\u4e8c\u516c\u5712", "latitude": 24.86475, "longitude": 120.9849, "timestamp": "2025-04-17T03:06:51.717145Z", "free_bikes": 4, "empty_slots": 5, "extra": {"uid": "500504014", "district": "\u65b0\u8c50\u9109", "address": "\u677e\u67cf\u8857/\u677e\u67cf\u8857179\u5df7\u53e3(\u897f\u5074)", "slots": 9, "normal_bikes": 4, "ebikes": 0, "last_updated": "2025-04-17 11:02:17", "online": true, "youbike_version": 2, "en": {"name": "Pingding 2 Park", "district": "Xinfeng", "address": "Songbo St. / Aly. 179, Songbo St. Intersection (West)"}}}, {"id": "f97ce32de74074b59f2ca082c995c1b9", "name": "\u81fa\u9435\u7af9\u6771\u8eca\u7ad9", "latitude": 24.738, "longitude": 121.09437, "timestamp": "2025-04-17T03:06:51.716781Z", "free_bikes": 1, "empty_slots": 39, "extra": {"uid": "500502009", "district": "\u7af9\u6771\u93ae", "address": "\u6771\u6797\u8def196\u865f", "slots": 40, "normal_bikes": 1, "ebikes": 0, "last_updated": "2025-04-17 10:38:18", "online": true, "youbike_version": 2, "en": {"name": "Taiwan Railway Zhudong Station", "district": "Zhudong", "address": "No. 196, Donglin Rd."}}}, {"id": "fbb4cff5c9e5402111df778abef1cfec", "name": "\u6771\u8208\u570b\u4e2d", "latitude": 24.81143, "longitude": 121.03018, "timestamp": "2025-04-17T03:06:51.715901Z", "free_bikes": 4, "empty_slots": 31, "extra": {"uid": "500501014", "district": "\u7af9\u5317\u5e02", "address": "\u5609\u8c50\u516d\u8def\u4e00\u6bb5101\u865f", "slots": 35, "normal_bikes": 3, "ebikes": 1, "last_updated": "2025-04-17 10:10:23", "online": true, "youbike_version": 2, "en": {"name": "Dong Sing Junior High School", "district": "Zhubei", "address": "No. 101, Sec. 1, Jiafeng 6th Rd."}}}, {"id": "fcb39747ff1e48483fb0376c297184cb", "name": "\u660e\u65b0\u79d1\u5927\u9ad4\u5b89\u6a13", "latitude": 24.8649, "longitude": 120.98772, "timestamp": "2025-04-17T03:06:51.717128Z", "free_bikes": 10, "empty_slots": 20, "extra": {"uid": "500504012", "district": "\u65b0\u8c50\u9109", "address": "\u660e\u65b0\u8857158\u865f(\u897f\u5074)", "slots": 30, "normal_bikes": 10, "ebikes": 0, "last_updated": "2025-04-17 09:30:24", "online": true, "youbike_version": 2, "en": {"name": "MUST (Ti-An Building)", "district": "Xinfeng", "address": "No. 158, Mingxin St. (West)"}}}]}