{"id": "youbike-hsinchu-city", "name": "YouBike", "location": {"latitude": 24.8018, "longitude": 120.9714, "city": "\u65b0\u7af9\u5e02 Hsinchu City", "country": "TW"}, "href": "/v2/networks/youbike-hsinchu-city", "company": ["YouBike Co., Ltd."], "system": "YouBike", "stations": [{"id": "01cba14cb08213df3d11d1a14b288e27", "name": "\u8f9b\u5fd7\u5e73\u6821\u9577\u6545\u5c45", "latitude": 24.80432, "longitude": 120.97366, "timestamp": "2025-04-17T03:06:55.050939Z", "free_bikes": 18, "empty_slots": 7, "extra": {"uid": "500401013", "district": "\u6771\u5340", "address": "\u6771\u9580\u885732\u865f(\u6c7d\u8eca\u505c\u8eca\u5834)", "slots": 25, "normal_bikes": 17, "ebikes": 1, "last_updated": "2025-04-17 10:13:18", "online": true, "youbike_version": 2, "en": {"name": "Former Residence of Principal Xin Zhiping", "district": "East Dist", "address": "No.32, Dongmen St."}}}, {"id": "01fae1dc4c7f9e355a1f9317ff8ec94f", "name": "\u967d\u660e\u4ea4\u901a\u5927\u5b78(\u9010\u98a8\u5ee3\u5834)", "latitude": 24.78473, "longitude": 120.99994, "timestamp": "2025-04-17T03:06:55.050880Z", "free_bikes": 9, "empty_slots": 31, "extra": {"uid": "500401006", "district": "\u6771\u5340", "address": "\u5927\u5b78\u8def1001\u865f(\u5973\u4e8c\u5bbf\u524d\u5ee3\u5834)", "slots": 40, "normal_bikes": 2, "ebikes": 7, "last_updated": "2025-04-17 08:30:23", "online": true, "youbike_version": 2, "en": {"name": "NYCU(ZhuFeng Plaza)", "district": "East Dist", "address": "No.1001, Daxue Rd."}}}, {"id": "02a0fbd2e9d71aa4fdd68bdcaaf140b1", "name": "\u5149\u5fa9\u95dc\u65b0\u8def\u53e3", "latitude": 24.78488, "longitude": 121.01833, "timestamp": "2025-04-17T03:06:55.050947Z", "free_bikes": 2, "empty_slots": 23, "extra": {"uid": "500401014", "district": "\u6771\u5340", "address": "\u95dc\u65b0\u8def21\u865f(\u5927\u6a13\u524d\u4eba\u884c\u9053)", "slots": 25, "normal_bikes": 2, "ebikes": 0, "last_updated": "2025-04-17 08:50:23", "online": true, "youbike_version": 2, "en": {"name": "Guangfu & Guanxin Rd. Intersection", "district": "East Dist", "address": "No.21, Guanxin Rd."}}}, {"id": "034a20005a08b3c2104291d5f20407a9", "name": "\u8299\u6d1b\u9e97\u5927\u98ef\u5e97(\u65b0\u7af9\u5973\u4e2d)", "latitude": 24.80676, "longitude": 120.97522, "timestamp": "2025-04-17T03:06:55.051259Z", "free_bikes": 7, "empty_slots": 17, "extra": {"uid": "500401057", "district": "\u6771\u5340", "address": "\u6c11\u65cf\u8def69\u865f(\u897f\u5074)", "slots": 25, "normal_bikes": 5, "ebikes": 2, "last_updated": "2025-04-17 10:13:18", "online": true, "youbike_version": 2, "en": {"name": "FleurLis Hotel(National Hsinchu Girls' Senior High School)", "district": "East Dist", "address": "No. 69, Minzu Rd.(west)"}}}, {"id": "0918b8f071d46f7cfa964995dfd1bf89", "name": "\u65b0\u79d1\u570b\u6c11\u904b\u52d5\u4e2d\u5fc3(\u65b0\u79d1\u570b\u4e2d)", "latitude": 24.77937, "longitude": 121.02453, "timestamp": "2025-04-17T03:06:55.051183Z", "free_bikes": 0, "empty_slots": 0, "extra": {"uid": "500401043", "district": "\u6771\u5340", "address": "\u5149\u5fa9\u8def\u4e00\u6bb589\u5df790\u865f\u65c1", "slots": 15, "normal_bikes": 0, "ebikes": 0, "last_updated": "2025-02-03 00:02:18", "online": false, "youbike_version": 2, "en": {"name": "Hsinchu Hsinke Sports Center (Hsin Ke Junior High School)", "district": "East Dist", "address": "No.90, Ln. 89, Sec. 1, Guangfu Rd."}}}, {"id": "0d0ad6bdbb813af0dd8766fbac9ee550", "name": "\u4e00\u54c1\u516c\u5712", "latitude": 24.80361, "longitude": 120.98422, "timestamp": "2025-04-17T03:06:55.051143Z", "free_bikes": 4, "empty_slots": 11, "extra": {"uid": "500401036", "district": "\u6771\u5340", "address": "\u516b\u5fb7\u8def158\u865f(\u5c0d\u5074\u4eba\u884c\u9053)", "slots": 15, "normal_bikes": 4, "ebikes": 0, "last_updated": "2025-04-17 06:39:20", "online": true, "youbike_version": 2, "en": {"name": "Yipin City Park", "district": "East Dist", "address": "No.158, Bade Rd.(opposite)"}}}, {"id": "0de6bafbf615fe7c581e24380acb22e5", "name": "\u967d\u660e\u4ea4\u901a\u5927\u5b78(\u7814\u4e09\u820d)", "latitude": 24.7843, "longitude": 120.99642, "timestamp": "2025-04-17T03:06:55.051112Z", "free_bikes": 14, "empty_slots": 22, "extra": {"uid": "500401032", "district": "\u6771\u5340", "address": "\u4ea4\u901a\u5927\u5b78\u7d9c\u5408\u4e00\u9928(\u5357\u5074\u51fa\u5165\u53e3)", "slots": 40, "normal_bikes": 11, "ebikes": 3, "last_updated": "2025-04-17 10:04:18", "online": true, "youbike_version": 2, "en": {"name": "NYCU(Graduate Student Dormitory)", "district": "East Dist", "address": "Jiaotong University Complex Hall(South)"}}}, {"id": "11155bf9ce83744c4a4129a2788fac73", "name": "\u5152\u7ae5\u63a2\u7d22\u9928", "latitude": 24.80516, "longitude": 120.99283, "timestamp": "2025-04-17T03:06:55.051171Z", "free_bikes": 9, "empty_slots": 9, "extra": {"uid": "500401041", "district": "\u6771\u5340", "address": "\u516c\u9053\u4e94\u8def\u4e8c\u6bb5469\u865f\u524d", "slots": 18, "normal_bikes": 8, "ebikes": 1, "last_updated": "2025-04-17 10:02:17", "online": true, "youbike_version": 2, "en": {"name": "Children's Exploration Hall", "district": "East Dist", "address": "No.469, Sec. 2, Gongdao 5th Rd."}}}, {"id": "11a72ed1e3c881731358f24b0a273595", "name": "\u6e05\u83ef\u5927\u5b78(\u5317\u6821\u9580)", "latitude": 24.79684, "longitude": 120.99669, "timestamp": "2025-04-17T03:06:55.050897Z", "free_bikes": 5, "empty_slots": 75, "extra": {"uid": "500401008", "district": "\u6771\u5340", "address": "\u5149\u5fa9\u8def\u4e8c\u6bb5101\u865f(\u9762\u6821\u9580\u53f3\u5074\u4eba\u884c\u9053)", "slots": 80, "normal_bikes": 4, "ebikes": 1, "last_updated": "2025-04-17 10:04:18", "online": true, "youbike_version": 2, "en": {"name": "NTHU (North Gate)", "district": "East Dist", "address": "NTHU(North School Gate)"}}}, {"id": "20eca510c12e8a539ce4e98ff0fd48ec", "name": "\u6148\u6fdf\u57d4\u9802\u4e00\u8def\u53e3", "latitude": 24.79194, "longitude": 121.01467, "timestamp": "2025-04-17T03:06:55.051224Z", "free_bikes": 12, "empty_slots": 7, "extra": {"uid": "500401051", "district": "\u6771\u5340", "address": "\u6148\u6fdf\u8def/\u57d4\u9802\u4e00\u8def\u53e3(\u897f\u5074)", "slots": 20, "normal_bikes": 12, "ebikes": 0, "last_updated": "2025-04-17 10:30:23", "online": true, "youbike_version": 2, "en": {"name": "Ciji & Puding 1st Rd. Intersection", "district": "East Dist", "address": "Ciji Road/Puding 1st Rd. Intersection (West)"}}}, {"id": "21f8125499c2df48c2ec2c5e62d525b0", "name": "\u65b0\u7af9\u9ad8\u4e2d", "latitude": 24.79513, "longitude": 120.97988, "timestamp": "2025-04-17T03:06:55.051131Z", "free_bikes": 37, "empty_slots": 4, "extra": {"uid": "500401034", "district": "\u6771\u5340", "address": "\u5b78\u5e9c\u8def147\u865f(\u5c0d\u5074\u4eba\u884c\u9053)", "slots": 42, "normal_bikes": 20, "ebikes": 17, "last_updated": "2025-04-17 10:52:17", "online": true, "youbike_version": 2, "en": {"name": "National Hsinchu Senior High School", "district": "East Dist", "address": "No.147, Xuefu Rd.(opposite)"}}}, {"id": "223499de6f9279261d8c3335b5325d7c", "name": "\u65b0\u7af9\u706b\u8eca\u7ad9(\u524d\u7ad9\u4e8c)", "latitude": 24.80189, "longitude": 120.97099, "timestamp": "2025-04-17T03:06:55.051288Z", "free_bikes": 2, "empty_slots": 14, "extra": {"uid": "500401063", "district": "\u6771\u5340", "address": "\u6797\u68ee\u8def/\u4e2d\u83ef\u8def\u4e8c\u6bb5\u53e3(\u5317\u5074)", "slots": 17, "normal_bikes": 1, "ebikes": 1, "last_updated": "2025-04-17 11:06:17", "online": true, "youbike_version": 2, "en": {"name": "Hsinchu Railway Station (Front#2)", "district": "East Dist", "address": "Linsen Rd. & Sec. 2, Zhonghua Rd. Intersection (North)"}}}, {"id": "232c074062ced0ea5acede07a3ddc800", "name": "\u6e73\u96c5\u516c\u5712", "latitude": 24.82037, "longitude": 120.96796, "timestamp": "2025-04-17T03:06:55.051347Z", "free_bikes": 19, "empty_slots": 21, "extra": {"uid": "500402004", "district": "\u5317\u5340", "address": "\u6b66\u9675\u8def157\u865f(\u5c0d\u5074\u4eba\u884c\u9053)", "slots": 40, "normal_bikes": 19, "ebikes": 0, "last_updated": "2025-04-17 07:40:25", "online": true, "youbike_version": 2, "en": {"name": "Nanya Park", "district": "North Dist", "address": "No.157, Wuling Rd.(opposite)"}}}, {"id": "270735eb93786d8fea953bc968261579", "name": "\u65b0\u7af9\u52d5\u7269\u5712", "latitude": 24.80018, "longitude": 120.98126, "timestamp": "2025-04-17T03:06:55.051061Z", "free_bikes": 13, "empty_slots": 14, "extra": {"uid": "500401031", "district": "\u6771\u5340", "address": "\u98df\u54c1\u8def62\u865f\u65c1", "slots": 30, "normal_bikes": 13, "ebikes": 0, "last_updated": "2025-04-17 09:20:24", "online": true, "youbike_version": 2, "en": {"name": "Hsinchu Zoo", "district": "East Dist", "address": "No.62, Shipin Rd."}}}, {"id": "28e1e2dd6c65dc490831dd2e8e8e1cb4", "name": "\u65b0\u7af9\u516c\u5712(\u516c\u5712\u8def)", "latitude": 24.80258, "longitude": 120.97872, "timestamp": "2025-04-17T03:06:55.050972Z", "free_bikes": 10, "empty_slots": 10, "extra": {"uid": "500401017", "district": "\u6771\u5340", "address": "\u516c\u5712\u8def300\u865f(\u65c1\u4eba\u884c\u9053)", "slots": 20, "normal_bikes": 10, "ebikes": 0, "last_updated": "2025-04-17 09:30:24", "online": true, "youbike_version": 2, "en": {"name": "Hsinchu Park(Gongyuan Rd.)", "district": "East Dist", "address": "No.300, Gongyuan Rd."}}}, {"id": "2b7ec396ccd73da5e769cbf01ad25e57", "name": "\u5317\u65b0\u7af9\u706b\u8eca\u7ad9(\u65b0\u7af9\u9ad8\u5de5)", "latitude": 24.80963, "longitude": 120.98351, "timestamp": "2025-04-17T03:06:55.050816Z", "free_bikes": 3, "empty_slots": 29, "extra": {"uid": "500401001", "district": "\u6771\u5340", "address": "\u4e2d\u83ef\u8def\u4e8c\u6bb52-1\u865f\u524d\u4eba\u884c\u9053", "slots": 38, "normal_bikes": 3, "ebikes": 0, "last_updated": "2025-04-17 10:50:24", "online": true, "youbike_version": 2, "en": {"name": "North Hsinchu Station (National Hsinchu Industrial High School)", "district": "East Dist", "address": "No.2-1, Sec. 2, Zhonghua Rd."}}}, {"id": "2b8f768ed259444d740b636c31227401", "name": "\u95dc\u57d4\u570b\u5c0f\u7ad9(\u6148\u6fdf\u8def)", "latitude": 24.78982, "longitude": 121.01347, "timestamp": "2025-04-17T03:06:55.051201Z", "free_bikes": 2, "empty_slots": 21, "extra": {"uid": "500401047", "district": "\u6771\u5340", "address": "\u6148\u6fdf\u8def2\u865f(\u5317\u5074)", "slots": 25, "normal_bikes": 1, "ebikes": 1, "last_updated": "2025-04-17 09:34:18", "online": true, "youbike_version": 2, "en": {"name": "Guan Pu Elementary School Station (Ciji Rd.)", "district": "East Dist", "address": "No. 2, Ciji Rd. (North)"}}}, {"id": "2b95caba38c514ee68c56f6c75644fac", "name": "\u7da0\u5149\u516c\u5712", "latitude": 24.81246, "longitude": 120.98503, "timestamp": "2025-04-17T03:06:55.050990Z", "free_bikes": 1, "empty_slots": 14, "extra": {"uid": "500401019", "district": "\u6771\u5340", "address": "\u9435\u9053\u8def\u4e00\u6bb528\u5df781\u865f\u65c1", "slots": 15, "normal_bikes": 1, "ebikes": 0, "last_updated": "2025-04-17 10:33:17", "online": true, "youbike_version": 2, "en": {"name": "Luguang Park", "district": "East Dist", "address": "No.79, Ln. 28, Sec. 1, Tiedao Rd."}}}, {"id": "2c5bcf7c1392857750129dc49028b6dd", "name": "\u4e16\u754c\u9ad8\u4e2d(\u4ecb\u58fd\u8def)", "latitude": 24.78121, "longitude": 121.02037, "timestamp": "2025-04-17T03:06:55.051165Z", "free_bikes": 9, "empty_slots": 8, "extra": {"uid": "500401040", "district": "\u6771\u5340", "address": "\u4ecb\u58fd\u8def16\u865f\u65c1", "slots": 18, "normal_bikes": 9, "ebikes": 0, "last_updated": "2025-04-17 09:50:26", "online": true, "youbike_version": 2, "en": {"name": "World Senior High School (Jieshou Rd.)", "district": "East Dist", "address": "No.16, Jieshou Rd."}}}, {"id": "2e1cad0fb1e808bfccb969c42ba231cc", "name": "\u65b0\u7af9\u5e02\u6587\u5316\u5c40", "latitude": 24.81264, "longitude": 120.96827, "timestamp": "2025-04-17T03:06:55.051370Z", "free_bikes": 4, "empty_slots": 10, "extra": {"uid": "500402008", "district": "\u5317\u5340", "address": "\u6771\u5927\u8def\u4e8c\u6bb5/\u6f14\u85dd\u8def\u53e3(\u6771\u5074)", "slots": 15, "normal_bikes": 2, "ebikes": 2, "last_updated": "2025-04-17 08:50:23", "online": true, "youbike_version": 2, "en": {"name": "Cultural Affairs Bureau,Hsinchu City", "district": "North Dist", "address": "Sec. 2, Dongda Rd. & Yanyi Rd. Intersection (East)"}}}, {"id": "2e8ec0b1f1149b0f545b42c9c3c7a794", "name": "\u5ef6\u5e73\u7af9\u5149\u8def\u53e3", "latitude": 24.80516, "longitude": 120.95095, "timestamp": "2025-04-17T03:06:55.051471Z", "free_bikes": 1, "empty_slots": 11, "extra": {"uid": "500402023", "district": "\u5317\u5340", "address": "\u7af9\u5149\u8def/\u5ef6\u5e73\u8def\u4e00\u6bb5\u53e3(\u897f\u5074)", "slots": 12, "normal_bikes": 1, "ebikes": 0, "last_updated": "2025-04-17 10:24:18", "online": true, "youbike_version": 2, "en": {"name": "Yanping & Zhuguang Rd. Intersection", "district": "North Dist", "address": "Zhuguang Rd.& Sec. 1, Yanping Rd.Intersection\uff08West\uff09"}}}, {"id": "317534109a96eb95e5e9dc0f7c167bf4", "name": "\u5e78\u798f\u57ce\u90a6", "latitude": 24.80835, "longitude": 120.98668, "timestamp": "2025-04-17T03:06:55.051124Z", "free_bikes": 3, "empty_slots": 17, "extra": {"uid": "500401033", "district": "\u6771\u5340", "address": "\u6771\u65b0\u8def86\u865f(\u897f\u5317\u5074)", "slots": 20, "normal_bikes": 3, "ebikes": 0, "last_updated": "2025-04-17 09:20:24", "online": true, "youbike_version": 2, "en": {"name": "Happiness Program", "district": "East Dist", "address": "No.86, Dongxin Rd.(Northwest)"}}}, {"id": "31df45b6ecbf87f53c7ece8ab86cab47", "name": "\u6e05\u83ef\u5927\u5b78(\u5357\u5927\u6821\u5340)", "latitude": 24.79429, "longitude": 120.96453, "timestamp": "2025-04-17T03:06:55.051055Z", "free_bikes": 37, "empty_slots": 23, "extra": {"uid": "500401030", "district": "\u6771\u5340", "address": "\u5357\u5927\u8def560\u865f(\u5c0d\u9762\u4eba\u884c\u9053)", "slots": 60, "normal_bikes": 37, "ebikes": 0, "last_updated": "2025-04-17 08:30:23", "online": true, "youbike_version": 2, "en": {"name": "NTHU (Nan-Da Campus)", "district": "East Dist", "address": "No.560, Nanda Rd.(opposite)"}}}, {"id": "3b7f7afbeb65cb08baa02f4a529c13f9", "name": "\u6a39\u6797\u982d\u516c\u5712", "latitude": 24.82142, "longitude": 120.96025, "timestamp": "2025-04-17T03:06:55.051353Z", "free_bikes": 9, "empty_slots": 6, "extra": {"uid": "500402005", "district": "\u5317\u5340", "address": "\u6771\u5927\u8def\u4e8c\u6bb5511\u865f(\u5c0d\u9762\u6c7d\u8eca\u505c\u8eca\u5834)", "slots": 15, "normal_bikes": 4, "ebikes": 5, "last_updated": "2025-04-17 07:00:25", "online": true, "youbike_version": 2, "en": {"name": "Shulintou Park", "district": "North Dist", "address": "No.537, Sec. 2, Dongda Rd.(opposite)"}}}, {"id": "3c02d1897f3863d58f4ef86036bcec89", "name": "\u65b0\u7af9\u99ac\u5055\u7d00\u5ff5\u91ab\u9662", "latitude": 24.79972, "longitude": 120.99163, "timestamp": "2025-04-17T03:06:55.050906Z", "free_bikes": 5, "empty_slots": 15, "extra": {"uid": "500401009", "district": "\u6771\u5340", "address": "\u5149\u5fa9\u8def\u4e8c\u6bb5/\u65b0\u6e90\u8857\u53e3(\u6771\u5074)", "slots": 20, "normal_bikes": 5, "ebikes": 0, "last_updated": "2025-04-17 07:40:25", "online": true, "youbike_version": 2, "en": {"name": "Hsinchu MacKay Memorial Hospital", "district": "East Dist", "address": "Sec. 2, Guangfu Rd. & Xinyuan St. Intersection (East)"}}}, {"id": "3f0fc5654e7c0574d3259e8a1a8267a4", "name": "\u6148\u6fdf\u65b0\u7af9\u975c\u601d\u5802", "latitude": 24.78465, "longitude": 120.92026, "timestamp": "2025-04-17T03:06:55.051562Z", "free_bikes": 0, "empty_slots": 10, "extra": {"uid": "500403014", "district": "\u9999\u5c71\u5340", "address": "\u4e2d\u83ef\u8def\u4e94\u6bb5/\u4e2d\u83ef\u8def\u4e94\u6bb5208\u5df7\u53e3(\u897f\u5074)", "slots": 10, "normal_bikes": 0, "ebikes": 0, "last_updated": "2025-04-17 07:39:17", "online": true, "youbike_version": 2, "en": {"name": "Tzu Chi Hsinchu Jing Si Hall", "district": "Xiangshan Dist", "address": "Sec. 5, Zhonghua Rd. & Ln. 208, Sec. 5, Zhonghua Rd.Intersection(west)"}}}, {"id": "3f7c3b72e334f0daa1d22e4d9b1dd8a8", "name": "\u5317\u5927\u516c\u5712(\u5e9c\u5f8c\u8857)", "latitude": 24.809074, "longitude": 120.968248, "timestamp": "2025-04-17T03:06:55.051388Z", "free_bikes": 18, "empty_slots": 18, "extra": {"uid": "500402011", "district": "\u5317\u5340", "address": "\u5e9c\u5f8c\u8857\u6a5f\u8eca\u505c\u8eca\u5834(\u5317\u5927\u516c\u5712\u5c0d\u5074)", "slots": 36, "normal_bikes": 15, "ebikes": 3, "last_updated": "2025-04-17 09:40:23", "online": true, "youbike_version": 2, "en": {"name": "Beida Park (Fuhou Street)", "district": "North Dist", "address": "Fuhou Street Motorcycle Parking Lot (opposite Beida Park)"}}}, {"id": "416255d3b49561af73611afbdf1214cc", "name": "\u7af9\u84ee\u570b\u5c0f", "latitude": 24.79521, "longitude": 120.973, "timestamp": "2025-04-17T03:06:55.051137Z", "free_bikes": 0, "empty_slots": 0, "extra": {"uid": "500401035", "district": "\u6771\u5340", "address": "\u98df\u54c1\u8def301\u865f(\u5c0d\u5074\u4eba\u884c\u9053)", "slots": 16, "normal_bikes": 0, "ebikes": 0, "last_updated": "2024-11-09 02:09:25", "online": false, "youbike_version": 2, "en": {"name": "Zhulian Elementary School", "district": "East Dist", "address": "No.301, Shipin Rd.(opposite)"}}}, {"id": "47ad10b599e6cb3e5b4789193b63cc7b", "name": "\u65b0\u7af9\u68d2\u7403\u5834", "latitude": 24.80778, "longitude": 120.96086, "timestamp": "2025-04-17T03:06:55.051335Z", "free_bikes": 19, "empty_slots": 9, "extra": {"uid": "500402002", "district": "\u5317\u5340", "address": "\u6c11\u5bcc\u8857141\u865f\u5c0d\u9762\u4eba\u884c\u9053", "slots": 30, "normal_bikes": 19, "ebikes": 0, "last_updated": "2025-04-17 09:40:23", "online": true, "youbike_version": 2, "en": {"name": "Hsinchu Bseball field", "district": "North Dist", "address": "No. 1, Minfu St.(opposite)"}}}, {"id": "49639dd7058d5a7375145588f80737a5", "name": "\u5ef6\u5e73\u505c\u8eca\u5834", "latitude": 24.80379, "longitude": 120.95662, "timestamp": "2025-04-17T03:06:55.051376Z", "free_bikes": 5, "empty_slots": 20, "extra": {"uid": "500402009", "district": "\u5317\u5340", "address": "\u5ef6\u5e73\u8def\u4e00\u6bb5159\u5df722\u865f(\u5c0d\u9762\u6a5f\u8eca\u505c\u8eca\u683c)", "slots": 25, "normal_bikes": 5, "ebikes": 0, "last_updated": "2025-04-17 09:40:23", "online": true, "youbike_version": 2, "en": {"name": "Yanping Parking Lot", "district": "North Dist", "address": "No.22, Ln. 159, Sec. 1, Yanping Rd.(opposite)"}}}, {"id": "49fe02c5aa5b91c11c6cc4d59b5d9057", "name": "\u9577\u548c\u516c\u5712", "latitude": 24.80822, "longitude": 120.96436, "timestamp": "2025-04-17T03:06:55.051482Z", "free_bikes": 3, "empty_slots": 8, "extra": {"uid": "500402025", "district": "\u5317\u5340", "address": "\u611b\u6587\u885711\u5df711\u865f(\u5c0d\u5074)", "slots": 12, "normal_bikes": 2, "ebikes": 1, "last_updated": "2025-04-17 09:40:23", "online": true, "youbike_version": 2, "en": {"name": "Changhe Park", "district": "North Dist", "address": "No. 11, Aly. 11, Aiwen St.(opposite)"}}}, {"id": "4baea72494ce1b7cb93af8f7944d6639", "name": "\u65b0\u7af9\u5e02\u74b0\u5883\u4fdd\u8b77\u5c40(\u5357\u5bee\u6eab\u6c34\u6e38\u6cf3\u6c60)", "latitude": 24.8351, "longitude": 120.91986, "timestamp": "2025-04-17T03:06:55.051406Z", "free_bikes": 1, "empty_slots": 11, "extra": {"uid": "500402015", "district": "\u5317\u5340", "address": "\u6d77\u6ff1\u8def240-1\u865f", "slots": 12, "normal_bikes": 0, "ebikes": 1, "last_updated": "2025-04-14 16:36:17", "online": true, "youbike_version": 2, "en": {"name": "Environmental Protection Bureau of Hsinchu City", "district": "North Dist", "address": "No. 240, Haibin Rd."}}}, {"id": "4c2161ea4905279fd9b09ef5ef78dfff", "name": "\u660e\u6e56\u91cc\u793e\u5340\u516c\u5712", "latitude": 24.7685, "longitude": 120.97718, "timestamp": "2025-04-17T03:06:55.051282Z", "free_bikes": 6, "empty_slots": 11, "extra": {"uid": "500401062", "district": "\u6771\u5340", "address": "\u660e\u6e56\u8def1008\u5df7/\u660e\u6e56\u8def1008\u5df76\u5f04\u53e3(\u6771\u5074)", "slots": 18, "normal_bikes": 4, "ebikes": 2, "last_updated": "2025-04-16 06:18:18", "online": true, "youbike_version": 2, "en": {"name": "Minghu Vil Community Park", "district": "East Dist", "address": "Ln. 1008, Minghu Rd. & Aly. 6, Ln. 1008, Minghu Rd. Intersection (East)"}}}, {"id": "4cb9418f880a6ea056596614cf0c2c3f", "name": "\u5927\u5e84\u570b\u5c0f", "latitude": 24.78943, "longitude": 120.92778, "timestamp": "2025-04-17T03:06:55.051505Z", "free_bikes": 0, "empty_slots": 0, "extra": {"uid": "500403003", "district": "\u9999\u5c71\u5340", "address": "\u5927\u5e84\u8def46\u865f(\u5317\u5074)", "slots": 15, "normal_bikes": 0, "ebikes": 0, "last_updated": "2024-11-09 02:09:25", "online": false, "youbike_version": 2, "en": {"name": "Da Chuang Primary School", "district": "Xiangshan Dist", "address": "No.46, Dazhuang Rd. (North)"}}}, {"id": "4f596e89c433a47b6bf9e261dca3d688", "name": "\u4e2d\u6b63\u6210\u529f\u8def\u53e3", "latitude": 24.8161, "longitude": 120.95694, "timestamp": "2025-04-17T03:06:55.051465Z", "free_bikes": 1, "empty_slots": 10, "extra": {"uid": "500402022", "district": "\u5317\u5340", "address": "\u6210\u529f\u8def/\u6210\u529f\u8def13\u5df7\u53e3(\u897f\u5074)", "slots": 12, "normal_bikes": 1, "ebikes": 0, "last_updated": "2025-04-17 10:32:17", "online": true, "youbike_version": 2, "en": {"name": "Zhongzheng & Chenggong Rd. Intersection", "district": "North Dist", "address": "Chenggong Rd.& Ln. 13, Chenggong Rd. Intersection\uff08West\uff09"}}}, {"id": "5128d4e987af4b825772beacdafc66cb", "name": "\u5343\u7532\u706b\u8eca\u7ad9", "latitude": 24.80712, "longitude": 121.00206, "timestamp": "2025-04-17T03:06:55.051001Z", "free_bikes": 16, "empty_slots": 4, "extra": {"uid": "500401021", "district": "\u6771\u5340", "address": "\u5343\u7532\u8def138-5\u865f(\u5c0d\u9762\u4eba\u884c\u9053)", "slots": 20, "normal_bikes": 16, "ebikes": 0, "last_updated": "2025-04-16 18:20:24", "online": true, "youbike_version": 2, "en": {"name": "Qianjia Station", "district": "East Dist", "address": "No.138-5, Qianjia Rd.(opposite)"}}}, {"id": "55cfa50917058ac032bde2ff9504ecd9", "name": "\u5efa\u570b\u516c\u5712(\u57ce\u968d\u5edf)", "latitude": 24.80338, "longitude": 120.96668, "timestamp": "2025-04-17T03:06:55.050922Z", "free_bikes": 12, "empty_slots": 18, "extra": {"uid": "500401011", "district": "\u6771\u5340", "address": "\u897f\u9580\u88571\u865f(\u5c0d\u9762\u6c7d\u8eca\u505c\u8eca\u683c)", "slots": 30, "normal_bikes": 12, "ebikes": 0, "last_updated": "2025-04-17 10:30:23", "online": true, "youbike_version": 2, "en": {"name": "Jianguo Park(Hsinchu City God Temple)", "district": "East Dist", "address": "No.1, Ximen St.(opposite)"}}}, {"id": "5866cb57528395455c69e358323a5413", "name": "\u6771\u5927\u6b66\u9675\u8def\u53e3", "latitude": 24.81713, "longitude": 120.96398, "timestamp": "2025-04-17T03:06:55.051365Z", "free_bikes": 8, "empty_slots": 17, "extra": {"uid": "500402007", "district": "\u5317\u5340", "address": "\u6771\u5927\u8def\u4e8c\u6bb5261\u865f(\u65c1\u4eba\u884c\u9053)", "slots": 25, "normal_bikes": 8, "ebikes": 0, "last_updated": "2025-04-17 09:50:26", "online": true, "youbike_version": 2, "en": {"name": "Dongda & Wuling Rd. Intersection", "district": "North Dist", "address": "No.261, Sec. 2, Dongda Rd."}}}, {"id": "58cad61d5b308bde0a164e06c382b88b", "name": "\u7af9\u84ee\u5bfa", "latitude": 24.79828, "longitude": 120.97042, "timestamp": "2025-04-17T03:06:55.050995Z", "free_bikes": 15, "empty_slots": 10, "extra": {"uid": "500401020", "district": "\u6771\u5340", "address": "\u7af9\u84ee\u885772\u865f(\u5c0d\u9762\u4eba\u884c\u9053)", "slots": 25, "normal_bikes": 15, "ebikes": 0, "last_updated": "2025-04-17 08:40:23", "online": true, "youbike_version": 2, "en": {"name": "Zhulian Temple", "district": "East Dist", "address": "No.72, Zhulian St.(opposite)"}}}, {"id": "59448814218b236bdcd110615698de84", "name": "\u65b0\u838a\u516c\u5712", "latitude": 24.78743, "longitude": 121.01736, "timestamp": "2025-04-17T03:06:55.051007Z", "free_bikes": 1, "empty_slots": 17, "extra": {"uid": "500401022", "district": "\u6771\u5340", "address": "\u65b0\u838a\u8857212\u865f(\u65c1\u516c\u5712\u4eba\u884c\u9053)", "slots": 18, "normal_bikes": 1, "ebikes": 0, "last_updated": "2025-04-17 10:12:17", "online": true, "youbike_version": 2, "en": {"name": "Xinzhuang Park", "district": "East Dist", "address": "No.212, Xinzhuang St."}}}, {"id": "59a05a3d9c279d402ca47f48d68532b2", "name": "\u5929\u516c\u58c7", "latitude": 24.79943, "longitude": 120.95726, "timestamp": "2025-04-17T03:06:55.051329Z", "free_bikes": 7, "empty_slots": 11, "extra": {"uid": "500402001", "district": "\u5317\u5340", "address": "\u4e2d\u5c71\u8def450-1\u865f(\u5c0d\u5074\u897f\u96c5\u516c\u5712)", "slots": 18, "normal_bikes": 5, "ebikes": 2, "last_updated": "2025-04-17 11:05:17", "online": true, "youbike_version": 2, "en": {"name": "Tiangong Temple", "district": "North Dist", "address": "No.450-1, Zhongshan Rd."}}}, {"id": "5b2563e3438d9b803086862b79e567b1", "name": "\u5c07\u8ecd\u6751\u505c\u8eca\u5834", "latitude": 24.79419, "longitude": 121.00333, "timestamp": "2025-04-17T03:06:55.051265Z", "free_bikes": 1, "empty_slots": 18, "extra": {"uid": "500401058", "district": "\u6771\u5340", "address": "\u91d1\u57ce\u4e09\u8def/\u91d1\u57ce\u4e00\u8def\u53e3(\u5357\u5074)", "slots": 20, "normal_bikes": 1, "ebikes": 0, "last_updated": "2025-04-17 08:03:18", "online": true, "youbike_version": 2, "en": {"name": "General Village Parking Lot", "district": "East Dist", "address": "Jincheng 3rd Rd. & Jincheng 1st Rd. Intersection (South)"}}}, {"id": "5bea114478ae96b1947b4774c0a7e957", "name": "\u78d0\u77f3\u9ad8\u4e2d", "latitude": 24.80923, "longitude": 120.9566, "timestamp": "2025-04-17T03:06:55.051477Z", "free_bikes": 11, "empty_slots": 9, "extra": {"uid": "500402024", "district": "\u5317\u5340", "address": "\u78d0\u77f3\u8def/\u897f\u5927\u8def681\u5df7\u53e3(\u6771\u5074)", "slots": 20, "normal_bikes": 9, "ebikes": 2, "last_updated": "2025-04-17 09:21:17", "online": true, "youbike_version": 2, "en": {"name": "ST. Peter Senior High School", "district": "North Dist", "address": "Panshi Rd. & Ln. 681, Xida Rd. Intersection (East)"}}}, {"id": "5c33fbd70c492ff694744d85a241bf3c", "name": "\u5341\u516b\u5c16\u5c71(\u65b0\u7af9\u9ad8\u5546)", "latitude": 24.79703, "longitude": 120.98755, "timestamp": "2025-04-17T03:06:55.050845Z", "free_bikes": 12, "empty_slots": 28, "extra": {"uid": "500401003", "district": "\u6771\u5340", "address": "\u535a\u611b\u88575\u5df72\u865f\u5c0d\u9762\u505c\u8eca\u5834", "slots": 40, "normal_bikes": 7, "ebikes": 5, "last_updated": "2025-04-17 07:30:23", "online": true, "youbike_version": 2, "en": {"name": "Eighteen Peaks Mountain (National Hsinchu Commerial Vocational High School)", "district": "East Dist", "address": "No.2, Ln. 5, Bo'ai St.(opposite)"}}}, {"id": "5e6066748a6f28dae95feaf09d9b9ddd", "name": "\u6e2f\u5357\u6ff1\u6d77\u98a8\u666f\u5340", "latitude": 24.8225, "longitude": 120.91015, "timestamp": "2025-04-17T03:06:55.051529Z", "free_bikes": 10, "empty_slots": 6, "extra": {"uid": "500403007", "district": "\u9999\u5c71\u5340", "address": "\u6d77\u57d4\u8def600\u865f", "slots": 20, "normal_bikes": 10, "ebikes": 0, "last_updated": "2025-04-16 09:10:23", "online": true, "youbike_version": 2, "en": {"name": "Gangnan Coastal Scenic Area", "district": "Xiangshan Dist", "address": "No.600, Haipu 1st St."}}}, {"id": "63410034f3032ebec1b2f1ea384239e3", "name": "\u7d93\u570b\u81ea\u7531\u8def\u53e3", "latitude": 24.81405, "longitude": 120.97991, "timestamp": "2025-04-17T03:06:55.051270Z", "free_bikes": 9, "empty_slots": 1, "extra": {"uid": "500401059", "district": "\u6771\u5340", "address": "\u81ea\u7531\u8def/\u7d93\u570b\u8def\u4e00\u6bb5\u53e3(\u6771\u5357\u5074)", "slots": 10, "normal_bikes": 9, "ebikes": 0, "last_updated": "2025-04-17 10:04:18", "online": true, "youbike_version": 2, "en": {"name": "Jingguo & Ziyou Rd. Intersection", "district": "East Dist", "address": "Ziyou Rd. & Sec. 1, Jingguo Rd. Intersection (Southeast)"}}}, {"id": "64d8fccd3fa693a0b2da71d4aa2ecd69", "name": "\u570b\u8cd3\u5927\u98ef\u5e97", "latitude": 24.80613, "longitude": 120.978, "timestamp": "2025-04-17T03:06:55.051025Z", "free_bikes": 6, "empty_slots": 12, "extra": {"uid": "500401025", "district": "\u6771\u5340", "address": "\u4e2d\u83ef\u8def\u4e8c\u6bb5188\u865f(\u524d\u4eba\u884c\u9053)", "slots": 18, "normal_bikes": 6, "ebikes": 0, "last_updated": "2025-04-17 06:41:17", "online": true, "youbike_version": 2, "en": {"name": "Ambassador Hotel", "district": "East Dist", "address": "No.188, Sec. 2, Zhonghua Rd."}}}, {"id": "66f94cd51c7e3a72456a1795db5844c9", "name": "\u864e\u6797\u68d2\u7403\u5834", "latitude": 24.80512, "longitude": 120.94429, "timestamp": "2025-04-17T03:06:55.051359Z", "free_bikes": 9, "empty_slots": 6, "extra": {"uid": "500402006", "district": "\u5317\u5340", "address": "\u5ef6\u5e73\u8def\u4e00\u6bb5541\u865f(\u5c0d\u9762\u4eba\u884c\u9053)", "slots": 15, "normal_bikes": 1, "ebikes": 8, "last_updated": "2025-04-15 21:30:23", "online": true, "youbike_version": 2, "en": {"name": "Hulin baseball field", "district": "North Dist", "address": "No. 541, Yanping Rd.(opposite)"}}}, {"id": "67533fe92d2dfca07b3034dbac3b1a66", "name": "\u7d93\u6fdf\u90e8\u7d93\u8cbf\u4eba\u54e1\u57f9\u8a13\u6240", "latitude": 24.79231, "longitude": 121.00249, "timestamp": "2025-04-17T03:06:55.051207Z", "free_bikes": 1, "empty_slots": 14, "extra": {"uid": "500401048", "district": "\u6771\u5340", "address": "\u5149\u5fa9\u8def\u4e8c\u6bb5100\u865f(\u5c0d\u5074\u4eba\u884c\u9053)", "slots": 15, "normal_bikes": 1, "ebikes": 0, "last_updated": "2025-04-17 10:50:24", "online": true, "youbike_version": 2, "en": {"name": "Training Institute, Ministry of Economic Affairs", "district": "East Dist", "address": "No. 100, Section 2, Guangfu Rd. (opposite)"}}}, {"id": "68e9a74d365f43161859faa7cf5d39b5", "name": "\u65b0\u7af9\u795e\u793e\u907a\u5740(\u6210\u5fb7\u9ad8\u4e2d)", "latitude": 24.79283, "longitude": 120.95249, "timestamp": "2025-04-17T03:06:55.051488Z", "free_bikes": 9, "empty_slots": 40, "extra": {"uid": "500402026", "district": "\u5317\u5340", "address": "\u5d27\u5dba\u8def/\u5d27\u5dba\u8def120\u5df7\u53e3(\u897f\u5357\u5074)", "slots": 50, "normal_bikes": 3, "ebikes": 6, "last_updated": "2025-04-17 07:30:23", "online": true, "youbike_version": 2, "en": {"name": "Hsinchu Shrine Historical Site (Cheng De High School)", "district": "North Dist", "address": "Songling Rd.&Ln. 120, Songling Rd.Intersection(Southwest)"}}}, {"id": "721b4603e2aea3d60a54503ea216f106", "name": "\u660e\u5fd7\u66f8\u9662\u7acb\u9ad4\u505c\u8eca\u5834", "latitude": 24.80167, "longitude": 120.96576, "timestamp": "2025-04-17T03:06:55.050834Z", "free_bikes": 41, "empty_slots": 5, "extra": {"uid": "500401002", "district": "\u6771\u5340", "address": "\u897f\u5927\u8def317\u865f(\u505c\u8eca\u5834\u524d\u4eba\u884c\u9053)", "slots": 48, "normal_bikes": 37, "ebikes": 4, "last_updated": "2025-04-17 10:50:24", "online": true, "youbike_version": 2, "en": {"name": "Mingzhi College Parking Lot", "district": "East Dist", "address": "No.317, Xida Rd."}}}, {"id": "72518c8dc08486fda5211137695d42ba", "name": "\u6e05\u83ef\u5927\u5b78(\u53f0\u9054\u9928)", "latitude": 24.79535, "longitude": 120.99197, "timestamp": "2025-04-17T03:06:55.050963Z", "free_bikes": 3, "empty_slots": 27, "extra": {"uid": "500401016", "district": "\u6771\u5340", "address": "\u5149\u5fa9\u8def\u4e8c\u6bb5101\u865f(\u5357\u5074)", "slots": 30, "normal_bikes": 1, "ebikes": 2, "last_updated": "2025-04-17 07:50:23", "online": true, "youbike_version": 2, "en": {"name": "NTHU(DeltaHall)", "district": "East Dist", "address": "Kwong Fuk Road, Sec 101 (South)"}}}, {"id": "7512bfea493f8ba1201dfdef51a74253", "name": "\u5143\u57f9\u91ab\u4e8b\u79d1\u6280\u5927\u5b78", "latitude": 24.77803, "longitude": 120.94047, "timestamp": "2025-04-17T03:06:55.051523Z", "free_bikes": 3, "empty_slots": 17, "extra": {"uid": "500403006", "district": "\u9999\u5c71\u5340", "address": "\u5143\u57f9\u8857306\u865f(\u6821\u9580\u5c0d\u9762\u6a5f\u8eca\u505c\u8eca\u5834)", "slots": 20, "normal_bikes": 2, "ebikes": 1, "last_updated": "2025-04-16 16:30:24", "online": true, "youbike_version": 2, "en": {"name": "Yuanpei University of Medical Technology", "district": "Xiangshan Dist", "address": "No.306, Yuanpei St.(opposite)"}}}, {"id": "760854655e719f9b6e8ec0582207ee9e", "name": "\u6c11\u5bcc\u570b\u5c0f", "latitude": 24.80753, "longitude": 120.95848, "timestamp": "2025-04-17T03:06:55.051435Z", "free_bikes": 1, "empty_slots": 17, "extra": {"uid": "500402017", "district": "\u5317\u5340", "address": "\u6c11\u5bcc\u8857178\u5df7/\u6c11\u5bcc\u8857178\u5df723\u5f04\u53e3", "slots": 18, "normal_bikes": 0, "ebikes": 1, "last_updated": "2025-04-17 10:40:23", "online": true, "youbike_version": 2, "en": {"name": "Min Fu Primary School", "district": "North Dist", "address": "Ln. 178, Minfu St. & Aly. 23, Ln. 178, Minfu St. Intersection"}}}, {"id": "76c9fdb3445a19e581a128cef73fadad", "name": "\u53e4\u8ce2\u51fa\u5165\u53e3-\u820a\u6e2f\u6a4b\u4e0b", "latitude": 24.84199, "longitude": 120.94046, "timestamp": "2025-04-17T03:06:55.051400Z", "free_bikes": 15, "empty_slots": 14, "extra": {"uid": "500402013", "district": "\u5317\u5340", "address": "\u516c\u9053\u4e94\u8def\u4e94\u6bb5/\u820a\u6e2f\u5927\u6a4b\u4e0b\u4ea4\u53c9\u53e3", "slots": 30, "normal_bikes": 14, "ebikes": 1, "last_updated": "2025-04-16 16:30:24", "online": true, "youbike_version": 2, "en": {"name": "Guxian (Jiugang Bridge)", "district": "North Dist", "address": "Sec. 5, Gongdao 5th Rd. & Jiugang Bridge Intersection"}}}, {"id": "7cacf96d82ce48a64ed266af83ade2b9", "name": "\u5712\u9053\u4e94\u5730\u4e0b\u505c\u8eca\u5834", "latitude": 24.80018, "longitude": 120.99128, "timestamp": "2025-04-17T03:06:55.051316Z", "free_bikes": 1, "empty_slots": 31, "extra": {"uid": "500401064", "district": "\u6771\u5340", "address": "\u5149\u5fa9\u8def\u4e8c\u6bb5690\u865f(\u6c34\u6e90\u8857\u5c0d\u9762\u516c\u5712\u4eba\u884c\u9053)", "slots": 34, "normal_bikes": 0, "ebikes": 1, "last_updated": "2025-04-17 10:24:18", "online": true, "youbike_version": 2, "en": {"name": "Greenway 5 Underground Parking", "district": "East Dist", "address": "Linsen Rd. & Sec. 2, Zhonghua Rd. Intersection (North)"}}}, {"id": "7d58c7e115d187698143c97ba763c2e8", "name": "\u5317\u65b0\u7af9\u706b\u8eca\u7ad9(\u5f8c\u7ad9)", "latitude": 24.8076, "longitude": 120.98482, "timestamp": "2025-04-17T03:06:55.051148Z", "free_bikes": 6, "empty_slots": 23, "extra": {"uid": "500401037", "district": "\u6771\u5340", "address": "\u516b\u5fb7\u8def19\u5df7/\u6771\u5149\u8def\u53e3(\u897f\u5317\u5074)", "slots": 29, "normal_bikes": 4, "ebikes": 2, "last_updated": "2025-04-17 07:30:23", "online": true, "youbike_version": 2, "en": {"name": "North Hsinchu Rear Station", "district": "East Dist", "address": "Ln. 19, Bade Rd. & Dongguang Rd. Intersection(Northwest)"}}}, {"id": "7db81ce3ea75d7a50e90c959af7f10ae", "name": "\u79d1\u5712\u793e\u5340\u9f8d\u5c71\u5716\u66f8\u9928", "latitude": 24.78213, "longitude": 121.01058, "timestamp": "2025-04-17T03:06:55.051253Z", "free_bikes": 3, "empty_slots": 12, "extra": {"uid": "500401056", "district": "\u6771\u5340", "address": "\u79d1\u5b78\u5712\u8def162\u5df75\u5f0413\u865f(\u5c0d\u5074\u4eba\u884c\u9053)", "slots": 15, "normal_bikes": 3, "ebikes": 0, "last_updated": "2025-04-17 08:20:24", "online": true, "youbike_version": 2, "en": {"name": "Hsinchu City Library Longshan Branch", "district": "East Dist", "address": "No. 13, Aly. 5, Ln. 162, Kexueyuan Rd., (Opposite sidewalk)"}}}, {"id": "7e0d378b9699d897c0e2ab09b80782d6", "name": "\u9752\u8349\u6e56(\u7159\u6ce2\u5927\u98ef\u5e97)", "latitude": 24.77454, "longitude": 120.9685, "timestamp": "2025-04-17T03:06:55.051014Z", "free_bikes": 12, "empty_slots": 9, "extra": {"uid": "500401023", "district": "\u6771\u5340", "address": "\u660e\u6e56\u8def773\u865f(\u5c0d\u5074\u4eba\u884c\u9053)", "slots": 23, "normal_bikes": 7, "ebikes": 5, "last_updated": "2025-04-17 02:00:23", "online": true, "youbike_version": 2, "en": {"name": "Green Grass Lake(Lakeshore Hotel)", "district": "East Dist", "address": "Green Grass Lake(Lakeshore Hotel)"}}}, {"id": "858745adc6a4bf3c1eccb14fecd957bf", "name": "\u516c\u9053\u4e94\u4ea4\u6d41\u9053\u53e3", "latitude": 24.7987, "longitude": 121.00598, "timestamp": "2025-04-17T03:06:55.051230Z", "free_bikes": 7, "empty_slots": 8, "extra": {"uid": "500401052", "district": "\u6771\u5340", "address": "\u516c\u9053\u4e94\u8def\u4e8c\u6bb5101\u865f", "slots": 15, "normal_bikes": 3, "ebikes": 4, "last_updated": "2025-04-17 10:20:23", "online": true, "youbike_version": 2, "en": {"name": "Gongdao 5th Rd. Interchange", "district": "East Dist", "address": "No. 101, Sec. 2, Gongdao 5th Rd."}}}, {"id": "895579cf62a3c454d2fc848b4dd061d3", "name": "\u7af9\u5149\u570b\u4e2d(\u7af9\u5149\u570b\u6c11\u904b\u52d5\u4e2d\u5fc3)", "latitude": 24.80881, "longitude": 120.95461, "timestamp": "2025-04-17T03:06:55.051440Z", "free_bikes": 5, "empty_slots": 15, "extra": {"uid": "500402018", "district": "\u5317\u5340", "address": "\u7af9\u5149\u8def352\u865f(\u5c0d\u5074\u4eba\u884c\u9053)", "slots": 20, "normal_bikes": 4, "ebikes": 1, "last_updated": "2025-04-16 23:10:22", "online": true, "youbike_version": 2, "en": {"name": "Zhu Guang Junior High School (Zhuguang Civil Sports Center)", "district": "North Dist", "address": "No. 352, Zhuguang Rd.(opposite)"}}}, {"id": "8e4ac30e8081428e44ef033456b57619", "name": "\u65b0\u7af9\u4e09\u6c11\u516c\u5712", "latitude": 24.81123, "longitude": 120.97962, "timestamp": "2025-04-17T03:06:55.050930Z", "free_bikes": 9, "empty_slots": 11, "extra": {"uid": "500401012", "district": "\u6771\u5340", "address": "\u4e2d\u592e\u8def364-1\u865f(\u7db2\u7403\u5834\u524d\u4eba\u884c\u9053)", "slots": 20, "normal_bikes": 9, "ebikes": 0, "last_updated": "2025-04-17 10:20:23", "online": true, "youbike_version": 2, "en": {"name": "Hsinchu Sanmin Park", "district": "East Dist", "address": "No.364-1, Zhongyang Rd."}}}, {"id": "8f28fece4663711e5b5a98783b3ff089", "name": "\u5efa\u83ef\u570b\u4e2d", "latitude": 24.79422, "longitude": 120.97634, "timestamp": "2025-04-17T03:06:55.051323Z", "free_bikes": 12, "empty_slots": 18, "extra": {"uid": "500401065", "district": "\u6771\u5340", "address": "\u5b78\u5e9c\u8def2\u865f", "slots": 30, "normal_bikes": 8, "ebikes": 4, "last_updated": "2025-04-17 08:10:25", "online": true, "youbike_version": 2, "en": {"name": "Jianhua Junior High School", "district": "East Dist", "address": "No. 2 Xuefu Road"}}}, {"id": "9046423ce0671b5728b99576488f1732", "name": "\u5de5\u7814\u9662\u5149\u5fa9\u9662\u5340", "latitude": 24.80059, "longitude": 120.98809, "timestamp": "2025-04-17T03:06:55.051242Z", "free_bikes": 1, "empty_slots": 19, "extra": {"uid": "500401054", "district": "\u6771\u5340", "address": "\u5149\u5fa9\u8def\u4e8c\u6bb5321\u865f", "slots": 20, "normal_bikes": 1, "ebikes": 0, "last_updated": "2025-04-17 07:21:17", "online": true, "youbike_version": 2, "en": {"name": "ITRI Guangfu Research Center", "district": "East Dist", "address": "No. 321, Sec. 2, Guangfu Rd."}}}, {"id": "961adc50ac7cee83ccca477aa219ce4f", "name": "\u7384\u5958\u5927\u5b78", "latitude": 24.77501, "longitude": 120.944, "timestamp": "2025-04-17T03:06:55.051569Z", "free_bikes": 8, "empty_slots": 12, "extra": {"uid": "500403016", "district": "\u9999\u5c71\u5340", "address": "\u7384\u5958\u8def48\u865f", "slots": 20, "normal_bikes": 3, "ebikes": 5, "last_updated": "2025-04-17 06:31:18", "online": true, "youbike_version": 2, "en": {"name": "Hsuan Chuang University", "district": "Xiangshan Dist", "address": "No. 48, Xuanzhuang Rd."}}}, {"id": "998d3d4a5b6b29b9356d3f3661a90b3b", "name": "\u967d\u660e\u4ea4\u901a\u5927\u5b78(\u535a\u611b\u6821\u5340)", "latitude": 24.79851, "longitude": 120.98308, "timestamp": "2025-04-17T03:06:55.051248Z", "free_bikes": 14, "empty_slots": 6, "extra": {"uid": "500401055", "district": "\u6771\u5340", "address": "\u535a\u611b\u885775\u865f(\u897f\u5074)", "slots": 20, "normal_bikes": 14, "ebikes": 0, "last_updated": "2025-04-17 10:20:23", "online": true, "youbike_version": 2, "en": {"name": "NYCU (Boai Campus)", "district": "East Dist", "address": "No. 75, Bo'ai St.(West)"}}}, {"id": "9bac42e5b2ec737df2a1abc5ffff2634", "name": "\u4e2d\u83ef\u8def\u4e00\u6bb5(\u982d\u524d\u6eaa\u5de6\u5cb8\u51fa\u5165\u53e3)", "latitude": 24.82073, "longitude": 120.99443, "timestamp": "2025-04-17T03:06:55.051154Z", "free_bikes": 5, "empty_slots": 20, "extra": {"uid": "500401038", "district": "\u6771\u5340", "address": "\u4e2d\u83ef\u8def\u4e00\u6bb51\u5df7/\u4e2d\u83ef\u8def\u4e00\u6bb578\u5df718\u5f04\u53e3(\u897f\u5317\u5074)", "slots": 25, "normal_bikes": 5, "ebikes": 0, "last_updated": "2025-04-17 11:00:23", "online": true, "youbike_version": 2, "en": {"name": "Sec. 1, Zhonghua Rd.(Touqian River)", "district": "East Dist", "address": "Ln. 1, Sec. 2, Zhonghua Rd. & Aly. 18, Ln. 78, Sec. 2, Zhonghua Rd. Intersection(Northwest)"}}}, {"id": "9c9c757fce19a72af99842a0573cf0ab", "name": "\u65b0\u7af9\u5e02\u653f\u5e9c", "latitude": 24.80614, "longitude": 120.96926, "timestamp": "2025-04-17T03:06:55.051341Z", "free_bikes": 27, "empty_slots": 13, "extra": {"uid": "500402003", "district": "\u5317\u5340", "address": "\u4e2d\u592e\u8def106\u865f(\u5c0d\u9762\u4eba\u884c\u9053)", "slots": 40, "normal_bikes": 27, "ebikes": 0, "last_updated": "2025-04-17 10:04:18", "online": true, "youbike_version": 2, "en": {"name": "Hsinchu City Government", "district": "North Dist", "address": "No.106, Zhongyang Rd.(opposite)"}}}, {"id": "9ec2d5a63d5f6636baf982376d83db41", "name": "\u8cde\u87f9\u6b65\u9053", "latitude": 24.78398, "longitude": 120.91506, "timestamp": "2025-04-17T03:06:55.051546Z", "free_bikes": 15, "empty_slots": 3, "extra": {"uid": "500403010", "district": "\u9999\u5c71\u5340", "address": "\u4e2d\u83ef\u8def\u4e94\u6bb5318\u865f", "slots": 20, "normal_bikes": 12, "ebikes": 3, "last_updated": "2025-04-16 17:24:18", "online": true, "youbike_version": 2, "en": {"name": "Nature Area With Crabs", "district": "Xiangshan Dist", "address": "No.318, Sec. 5, Zhonghua Rd."}}}, {"id": "a55f54bbf0cbaa29417ab2d01e39bf66", "name": "\u9999\u5c71\u5340\u884c\u653f\u5927\u6a13", "latitude": 24.79398, "longitude": 120.94227, "timestamp": "2025-04-17T03:06:55.051557Z", "free_bikes": 13, "empty_slots": 2, "extra": {"uid": "500403013", "district": "\u9999\u5c71\u5340", "address": "\u80b2\u5fb7\u8857188\u865f", "slots": 15, "normal_bikes": 11, "ebikes": 2, "last_updated": "2025-04-16 18:59:17", "online": true, "youbike_version": 2, "en": {"name": "Hsinchu City Siangshan District Administration Building", "district": "Xiangshan Dist", "address": "No. 188, Yude St."}}}, {"id": "a56c98c008dd992eb9c47ac4caca4007", "name": "\u864e\u6797\u570b\u5c0f", "latitude": 24.805173, "longitude": 120.940541, "timestamp": "2025-04-17T03:06:55.051551Z", "free_bikes": 4, "empty_slots": 11, "extra": {"uid": "500403011", "district": "\u9999\u5c71\u5340", "address": "\u5ef6\u5e73\u8def\u4e8c\u6bb580\u5df7/\u864e\u6797\u885732\u5df7\u53e3(\u6771\u5357\u5074)", "slots": 15, "normal_bikes": 3, "ebikes": 1, "last_updated": "2025-04-17 08:50:23", "online": true, "youbike_version": 2, "en": {"name": "Hu Lin Primary School", "district": "Xiangshan Dist", "address": "Ln. 80, Sec. 2, Yanping Rd.& Ln. 32, Hulin St. Intersection(Southeast)"}}}, {"id": "ae35e507212c5ae7c10bd0e300b0f894", "name": "\u5317\u5340\u5340\u516c\u6240", "latitude": 24.81644, "longitude": 120.97056, "timestamp": "2025-04-17T03:06:55.051382Z", "free_bikes": 10, "empty_slots": 8, "extra": {"uid": "500402010", "district": "\u5317\u5340", "address": "\u570b\u83ef\u885769\u865f(\u5340\u516c\u6240\u524d\u5ee3\u5834)", "slots": 18, "normal_bikes": 6, "ebikes": 4, "last_updated": "2025-04-17 06:45:22", "online": true, "youbike_version": 2, "en": {"name": "North District Office", "district": "North Dist", "address": "No.69, Guohua St."}}}, {"id": "af417e20a8cc3ed17162aa9f0c0af3e0", "name": "\u9999\u5c71\u5929\u540e\u5bae", "latitude": 24.76966, "longitude": 120.91399, "timestamp": "2025-04-17T03:06:55.051534Z", "free_bikes": 5, "empty_slots": 15, "extra": {"uid": "500403008", "district": "\u9999\u5c71\u5340", "address": "\u4e2d\u83ef\u8def\u4e94\u6bb5420\u5df7246\u865f\u65c1", "slots": 20, "normal_bikes": 4, "ebikes": 1, "last_updated": "2025-04-12 12:50:24", "online": true, "youbike_version": 2, "en": {"name": "Xiangshan Tianhou Temple", "district": "Xiangshan Dist", "address": "No.246, Ln. 420, Sec. 5, Zhonghua Rd."}}}, {"id": "af9a75a1e1ed2db5cfc6c66fbc7c487e", "name": "\u7d93\u570b\u6c11\u751f\u8def\u53e3", "latitude": 24.81388, "longitude": 120.97399, "timestamp": "2025-04-17T03:06:55.050914Z", "free_bikes": 14, "empty_slots": 18, "extra": {"uid": "500401010", "district": "\u6771\u5340", "address": "\u6c11\u751f\u8def309\u865f\u65c1\u516c\u5712\u7da0\u5e36", "slots": 32, "normal_bikes": 14, "ebikes": 0, "last_updated": "2025-04-17 08:43:17", "online": true, "youbike_version": 2, "en": {"name": "Jingguo & Minsheng Rd. Intersection", "district": "East Dist", "address": "No.309, Minsheng Rd."}}}, {"id": "b0c8e2e2f3c1799aeacd87c3988b95a8", "name": "\u6e05\u83ef\u5927\u5b78(\u5c0f\u5403\u90e8)", "latitude": 24.79307, "longitude": 120.99335, "timestamp": "2025-04-17T03:06:55.050853Z", "free_bikes": 13, "empty_slots": 37, "extra": {"uid": "500401004", "district": "\u6771\u5340", "address": "\u5149\u5fa9\u8def\u4e8c\u6bb5101\u865f(\u5c0f\u5403\u90e8\u5de6\u5074\u5ee3\u5834)", "slots": 50, "normal_bikes": 9, "ebikes": 4, "last_updated": "2025-04-17 10:04:18", "online": true, "youbike_version": 2, "en": {"name": "NTHU(Food Court)", "district": "East Dist", "address": "No.101, Sec. 2, Guangfu Rd."}}}, {"id": "b945b1069da570a3d55b239ad997519c", "name": "\u9999\u5c71\u706b\u8eca\u7ad9", "latitude": 24.76316, "longitude": 120.91382, "timestamp": "2025-04-17T03:06:55.051517Z", "free_bikes": 7, "empty_slots": 13, "extra": {"uid": "500403005", "district": "\u9999\u5c71\u5340", "address": "\u4e2d\u83ef\u8def\u4e94\u6bb5347\u5df72\u5f0427\u865f(\u706b\u8eca\u7ad9\u524d\u5ee3\u5834)", "slots": 20, "normal_bikes": 7, "ebikes": 0, "last_updated": "2025-04-16 16:00:26", "online": true, "youbike_version": 2, "en": {"name": "Xiangshan Station", "district": "Xiangshan Dist", "address": "No.27, Aly. 2, Ln. 347, Sec. 5, Zhonghua Rd."}}}, {"id": "bda194864231e88240f2fb7d62a60f40", "name": "\u5efa\u529f\u9ad8\u4e2d", "latitude": 24.79702, "longitude": 121.00077, "timestamp": "2025-04-17T03:06:55.051160Z", "free_bikes": 6, "empty_slots": 40, "extra": {"uid": "500401039", "district": "\u6771\u5340", "address": "\u5efa\u529f\u8def60\u865f(\u5c0d\u5074\u4eba\u884c\u9053)", "slots": 47, "normal_bikes": 6, "ebikes": 0, "last_updated": "2025-04-17 07:40:25", "online": true, "youbike_version": 2, "en": {"name": "Chien Kung Senior High School", "district": "East Dist", "address": "No.60, Jiangong Rd.(opposite)"}}}, {"id": "be70a8b3cf706e6e29724df5bf50d9c3", "name": "\u6771\u9580\u5713\u74b0", "latitude": 24.80393, "longitude": 120.97051, "timestamp": "2025-04-17T03:06:55.051044Z", "free_bikes": 0, "empty_slots": 25, "extra": {"uid": "500401028", "district": "\u6771\u5340", "address": "\u52dd\u5229\u8def2\u865f(\u5c0d\u9762\u5713\u74b0\u4eba\u884c\u9053)", "slots": 25, "normal_bikes": 0, "ebikes": 0, "last_updated": "2025-04-17 10:40:23", "online": true, "youbike_version": 2, "en": {"name": "East Gate Roundabout", "district": "East Dist", "address": "No.2, Shengli Rd.(opposite)"}}}, {"id": "bf5afc34bfca2c362ee3ca4fbcdcd318", "name": "\u820a\u793e\u51fa\u5165\u53e3\u505c\u8eca\u5834", "latitude": 24.82444, "longitude": 120.97919, "timestamp": "2025-04-17T03:06:55.051394Z", "free_bikes": 16, "empty_slots": 16, "extra": {"uid": "500402012", "district": "\u5317\u5340", "address": "\u6e73\u96c5\u8857/\u820a\u793e\u5927\u6a4b\u4e0b\u4ea4\u53c9\u53e3", "slots": 35, "normal_bikes": 16, "ebikes": 0, "last_updated": "2025-04-17 10:50:24", "online": true, "youbike_version": 2, "en": {"name": "Jiushe Parking Lot", "district": "North Dist", "address": "Nanya St. & Jiushe Bridge Intersection"}}}, {"id": "c3eca37a332b514bdae8c53f41a20877", "name": "\u967d\u660e\u4ea4\u901a\u5927\u5b78(\u5927\u5b78\u8def)", "latitude": 24.7894, "longitude": 121.00026, "timestamp": "2025-04-17T03:06:55.050868Z", "free_bikes": 1, "empty_slots": 29, "extra": {"uid": "500401005", "district": "\u6771\u5340", "address": "\u5927\u5b78\u8def200\u865f(\u5c0d\u9762\u4eba\u884c\u9053)", "slots": 30, "normal_bikes": 0, "ebikes": 1, "last_updated": "2025-04-17 09:50:26", "online": true, "youbike_version": 2, "en": {"name": "NYCU(Daxue Rd.)", "district": "East Dist", "address": "No.200, Daxue Rd.(opposite)"}}}, {"id": "c5af5784219a2c1954998ca024dc7e76", "name": "\u91d1\u5c71\u8857(\u96c6\u798f\u5bae)", "latitude": 24.77774, "longitude": 121.02194, "timestamp": "2025-04-17T03:06:55.051020Z", "free_bikes": 1, "empty_slots": 29, "extra": {"uid": "500401024", "district": "\u6771\u5340", "address": "\u91d1\u5c71\u885763\u865f(\u5c0d\u9762\u516c\u5712\u7da0\u5730)", "slots": 30, "normal_bikes": 1, "ebikes": 0, "last_updated": "2025-04-17 10:23:18", "online": true, "youbike_version": 2, "en": {"name": "Jinshan St.(Ji Fu Temple)", "district": "East Dist", "address": "No.63, Jinshan St.(opposite)"}}}, {"id": "c8f17f1dffe183aadb3a665d27d12c72", "name": "\u9060\u6771\u5de8\u57ce\u8cfc\u7269\u4e2d\u5fc3", "latitude": 24.80933, "longitude": 120.97426, "timestamp": "2025-04-17T03:06:55.051049Z", "free_bikes": 57, "empty_slots": 15, "extra": {"uid": "500401029", "district": "\u6771\u5340", "address": "\u6c11\u6b0a\u8def163\u865f(\u5c0d\u9762\u4eba\u884c\u9053)", "slots": 72, "normal_bikes": 48, "ebikes": 9, "last_updated": "2025-04-17 10:50:24", "online": true, "youbike_version": 2, "en": {"name": "Far Eastern Big City Shopping Malls", "district": "East Dist", "address": "No.163, Minquan Rd.(opposite)"}}}, {"id": "ca03d2554412b853d307ae8e62e7f32f", "name": "\u57d4\u524d\u5e02\u6c11\u6d3b\u52d5\u4e2d\u5fc3", "latitude": 24.79706, "longitude": 120.94198, "timestamp": "2025-04-17T03:06:55.051580Z", "free_bikes": 6, "empty_slots": 5, "extra": {"uid": "500403018", "district": "\u9999\u5c71\u5340", "address": "\u725b\u57d4\u8def446\u865f", "slots": 11, "normal_bikes": 3, "ebikes": 3, "last_updated": "2025-04-17 09:20:24", "online": true, "youbike_version": 2, "en": {"name": "Puqian Vil Community Center", "district": "Xiangshan Dist", "address": "No. 446, Niupu Rd."}}}, {"id": "ca70e2ac1407e8487fcce4373042212f", "name": "\u8d64\u571f\u5d0e\u516c\u5712", "latitude": 24.79892, "longitude": 120.994, "timestamp": "2025-04-17T03:06:55.051031Z", "free_bikes": 5, "empty_slots": 25, "extra": {"uid": "500401026", "district": "\u6771\u5340", "address": "\u5149\u5fa9\u8def\u4e8c\u6bb5153\u865f(\u5c0d\u5074\u4eba\u884c\u9053)", "slots": 30, "normal_bikes": 3, "ebikes": 2, "last_updated": "2025-04-17 08:50:23", "online": true, "youbike_version": 2, "en": {"name": "Chi Tu Qi Park", "district": "East Dist", "address": "No.153, Sec. 2, Guangfu Rd.(opposite)"}}}, {"id": "d0a6f30a5676de5348fe52600d6bf7f4", "name": "\u516c\u9053\u4e94\u5efa\u4e2d\u8def\u53e3", "latitude": 24.80335, "longitude": 120.99651, "timestamp": "2025-04-17T03:06:55.051277Z", "free_bikes": 3, "empty_slots": 12, "extra": {"uid": "500401061", "district": "\u6771\u5340", "address": "\u516c\u9053\u4e94\u8def\u4e8c\u6bb5/\u5efa\u4e2d\u8def\u53e3(\u6771\u5074)", "slots": 15, "normal_bikes": 2, "ebikes": 1, "last_updated": "2025-04-17 08:30:23", "online": true, "youbike_version": 2, "en": {"name": "Gongdao 5th & Jianzhong Rd. Intersection", "district": "East Dist", "address": "Gongdao 5th Rd. & Jianzhong Rd. Intersection (East)"}}}, {"id": "d26f7c2b828e92a3897e8f786022de19", "name": "\u95dc\u57d4\u516c\u5712", "latitude": 24.79116, "longitude": 121.01749, "timestamp": "2025-04-17T03:06:55.051218Z", "free_bikes": 5, "empty_slots": 10, "extra": {"uid": "500401050", "district": "\u6771\u5340", "address": "\u57d4\u9802\u4e00\u8def201\u865f(\u5c0d\u5074\u516c\u5712)", "slots": 15, "normal_bikes": 5, "ebikes": 0, "last_updated": "2025-04-17 08:50:23", "online": true, "youbike_version": 2, "en": {"name": "Guanpu Park", "district": "East Dist", "address": "No. 201, Puding 1st Rd. (opposite side park)"}}}, {"id": "dbd000c7a40c429c29d01677399d9133", "name": "\u6e05\u5927\u591c\u5e02", "latitude": 24.79848, "longitude": 120.99746, "timestamp": "2025-04-17T03:06:55.051235Z", "free_bikes": 2, "empty_slots": 16, "extra": {"uid": "500401053", "district": "\u6771\u5340", "address": "\u5efa\u65b0\u8def/\u5efa\u529f\u4e00\u8def\u53e3(\u897f\u5357\u5074)", "slots": 18, "normal_bikes": 1, "ebikes": 1, "last_updated": "2025-04-17 05:59:17", "online": true, "youbike_version": 2, "en": {"name": "NTHU Night Market", "district": "East Dist", "address": "Jianxin Rd. & Jiangong 1st Rd.Intersection.(Southwest)"}}}, {"id": "dc4e229f664c27755eb9f036d2eb7a48", "name": "\u5149\u83ef\u570b\u4e2d", "latitude": 24.81949, "longitude": 120.97289, "timestamp": "2025-04-17T03:06:55.051452Z", "free_bikes": 11, "empty_slots": 4, "extra": {"uid": "500402020", "district": "\u5317\u5340", "address": "\u6e73\u96c5\u8857/\u6e73\u96c5\u8857126\u5df722\u5f04\u53e3(\u5357\u5074)", "slots": 15, "normal_bikes": 10, "ebikes": 1, "last_updated": "2025-04-17 05:28:17", "online": true, "youbike_version": 2, "en": {"name": "Guanghua Junior High School", "district": "North Dist", "address": "Nanya St&Aly. 22, Ln. 126, Nanya St(south)"}}}, {"id": "df986f9d025902773682bc200a75b415", "name": "\u65b0\u6e90\u5efa\u529f\u4e00\u8def\u53e3", "latitude": 24.80277, "longitude": 120.9932, "timestamp": "2025-04-17T03:06:55.050982Z", "free_bikes": 1, "empty_slots": 12, "extra": {"uid": "500401018", "district": "\u6771\u5340", "address": "\u65b0\u6e90\u8857138\u865f(\u5c0d\u9762\u4eba\u884c\u9053)", "slots": 15, "normal_bikes": 0, "ebikes": 1, "last_updated": "2025-04-17 10:59:18", "online": true, "youbike_version": 2, "en": {"name": "Xinyuan & Jiangong 1st Rd. Intersection", "district": "East Dist", "address": "No.138, Xinyuan St.(opposite)"}}}, {"id": "dfa5a69102ca558cdd8c9c219ed6145c", "name": "\u91d1\u5c71\u5341\u516b\u8857\u505c\u8eca\u5834", "latitude": 24.77719, "longitude": 121.0251, "timestamp": "2025-04-17T03:06:55.051213Z", "free_bikes": 0, "empty_slots": 20, "extra": {"uid": "500401049", "district": "\u6771\u5340", "address": "\u91d1\u5c71\u5341\u516b\u8857/\u91d1\u5c71\u5317\u4e8c\u8857\u53e3(\u6771\u5357\u5074)", "slots": 20, "normal_bikes": 0, "ebikes": 0, "last_updated": "2025-04-17 08:52:17", "online": true, "youbike_version": 2, "en": {"name": "Jinshan 18th Street parking lot", "district": "East Dist", "address": "Jinshan 18th St. & Jinshan N. 2nd St. Intersection. (Southeast)"}}}, {"id": "e1b19d9d6f1b5c9b99e4c37aff739fbc", "name": "\u80b2\u8ce2\u570b\u4e2d", "latitude": 24.79048, "longitude": 120.96508, "timestamp": "2025-04-17T03:06:55.051177Z", "free_bikes": 1, "empty_slots": 16, "extra": {"uid": "500401042", "district": "\u6771\u5340", "address": "\u5357\u5927\u8def750\u4e4b1\u865f(\u5c0d\u5074\u4eba\u884c\u9053)", "slots": 19, "normal_bikes": 1, "ebikes": 0, "last_updated": "2025-04-17 10:10:23", "online": true, "youbike_version": 2, "en": {"name": "Yu Hsien Junior High School", "district": "East Dist", "address": "No.750-1, Nanda Rd.(opposite)"}}}, {"id": "e476f1b75999d8b073d8ce8ed3858a02", "name": "\u5357\u6e2f\u8cde\u9ce5\u5340", "latitude": 24.74289, "longitude": 120.89443, "timestamp": "2025-04-17T03:06:55.051540Z", "free_bikes": 10, "empty_slots": 10, "extra": {"uid": "500403009", "district": "\u9999\u5c71\u5340", "address": "\u5357\u6e2f\u885752\u5df7100\u4e4b1\u865f(\u5c0d\u5074)", "slots": 20, "normal_bikes": 6, "ebikes": 4, "last_updated": "2025-04-17 09:10:24", "online": true, "youbike_version": 2, "en": {"name": "Nangang Bird Watching Area", "district": "Xiangshan Dist", "address": "No.100-1, Ln. 52, Nangang St.(opposite)"}}}, {"id": "e69242fc275f8a0830742d40e3fe3d80", "name": "\u65b0\u838a\u706b\u8eca\u7ad9", "latitude": 24.78811, "longitude": 121.02183, "timestamp": "2025-04-17T03:06:55.050955Z", "free_bikes": 63, "empty_slots": 33, "extra": {"uid": "500401015", "district": "\u6771\u5340", "address": "\u95dc\u6771\u8def310\u865f(\u8eca\u7ad9\u51fa\u53e3\u53f3\u5074\u4eba\u884c\u9053)", "slots": 99, "normal_bikes": 63, "ebikes": 0, "last_updated": "2025-04-17 10:30:23", "online": true, "youbike_version": 2, "en": {"name": "Xinzhuang Station", "district": "East Dist", "address": "No.130, Guandong Rd."}}}, {"id": "eab8ca9f0197134e6d925e6b56cdc3fc", "name": "\u5149\u6b66\u570b\u4e2d\u7ad9(\u5149\u5fa9\u8def)", "latitude": 24.78562, "longitude": 121.01261, "timestamp": "2025-04-17T03:06:55.051194Z", "free_bikes": 3, "empty_slots": 21, "extra": {"uid": "500401046", "district": "\u6771\u5340", "address": "\u5149\u5fa9\u8def\u4e00\u6bb5482\u865f(\u5317\u5074)", "slots": 25, "normal_bikes": 1, "ebikes": 2, "last_updated": "2025-04-17 01:43:18", "online": true, "youbike_version": 2, "en": {"name": "Guang Wu Junior High School Station (Guangfu Rd.)", "district": "East Dist", "address": "No. 482, Sec. 1, Guangfu Rd. (North)"}}}, {"id": "ec4778c5a2e1b2cec83c93804b97deb8", "name": "\u820a\u793e\u570b\u5c0f", "latitude": 24.82323, "longitude": 120.97324, "timestamp": "2025-04-17T03:06:55.051446Z", "free_bikes": 0, "empty_slots": 0, "extra": {"uid": "500402019", "district": "\u5317\u5340", "address": "\u91d1\u7af9\u8def98\u865f(\u5c0d\u5074\u4eba\u884c\u9053)", "slots": 12, "normal_bikes": 0, "ebikes": 0, "last_updated": "2025-01-16 09:09:19", "online": false, "youbike_version": 2, "en": {"name": "JION SHEH PRIMARY SCHOOL", "district": "North Dist", "address": "No. 98, Jinzhu Rd., North Dist. (Opposite sidewalk)"}}}, {"id": "ecdf2498af3537f918dc0c2f9bc76fe2", "name": "\u4e09\u59d3\u6a4b\u706b\u8eca\u7ad9", "latitude": 24.78699, "longitude": 120.92856, "timestamp": "2025-04-17T03:06:55.051511Z", "free_bikes": 1, "empty_slots": 19, "extra": {"uid": "500403004", "district": "\u9999\u5c71\u5340", "address": "\u5143\u57f9\u885732\u5df730\u865f(\u8eca\u7ad9\u51fa\u53e3\u524d\u5ee3\u5834)", "slots": 20, "normal_bikes": 1, "ebikes": 0, "last_updated": "2025-04-17 10:10:23", "online": true, "youbike_version": 2, "en": {"name": "Sanxingqiao Station", "district": "Xiangshan Dist", "address": "No.30, Ln. 32, Yuanpei St."}}}, {"id": "ed6d789c28212d79640b74ab95885a22", "name": "\u65b0\u7af9\u8f49\u904b\u7ad9", "latitude": 24.8009, "longitude": 120.97319, "timestamp": "2025-04-17T03:06:55.050889Z", "free_bikes": 23, "empty_slots": 73, "extra": {"uid": "500401007", "district": "\u6771\u5340", "address": "\u6771\u5357\u88571\u5df76\u865f(\u8f49\u904b\u7ad9\u5c0d\u9762\u4eba\u884c\u5ee3\u5834)", "slots": 96, "normal_bikes": 23, "ebikes": 0, "last_updated": "2025-04-17 10:20:23", "online": true, "youbike_version": 2, "en": {"name": "Hsinchu Bus Station", "district": "East Dist", "address": "No.6, Ln. 1, Dongnan St.(opposite)"}}}, {"id": "eea2db5ece0f4202b9acadeb70a005d8", "name": "\u9999\u5c71\u570b\u5c0f", "latitude": 24.79645, "longitude": 120.94452, "timestamp": "2025-04-17T03:06:55.051494Z", "free_bikes": 11, "empty_slots": 7, "extra": {"uid": "500403001", "district": "\u9999\u5c71\u5340", "address": "\u725b\u57d4\u6771\u8def260\u865f(\u6821\u9580\u53f3\u5074\u4eba\u884c\u9053)", "slots": 18, "normal_bikes": 10, "ebikes": 1, "last_updated": "2025-04-17 08:10:23", "online": true, "youbike_version": 2, "en": {"name": "Hsiangshan Primary School", "district": "Xiangshan Dist", "address": "No.260, Niupu E. Rd."}}}, {"id": "f076dc7a14351087f97d76c10d9448b1", "name": "\u65b0\u7af9\u706b\u8eca\u7ad9(\u524d\u7ad9\u4e00)", "latitude": 24.80239, "longitude": 120.97138, "timestamp": "2025-04-17T03:06:55.051038Z", "free_bikes": 4, "empty_slots": 95, "extra": {"uid": "500401027", "district": "\u6771\u5340", "address": "\u4e2d\u6b63\u8def1\u865f(\u706b\u8eca\u7ad9\u524d\u5ee3\u5834)", "slots": 99, "normal_bikes": 3, "ebikes": 1, "last_updated": "2025-04-17 10:50:24", "online": true, "youbike_version": 2, "en": {"name": "Hsinchu Railway Station (Front#1)", "district": "East Dist", "address": "No.1, Zhongzheng Rd."}}}, {"id": "f2d1179a268a7dc808b6803f4bcdd6a7", "name": "\u4e2d\u83ef\u5927\u5b78", "latitude": 24.75691, "longitude": 120.95255, "timestamp": "2025-04-17T03:06:55.051574Z", "free_bikes": 8, "empty_slots": 7, "extra": {"uid": "500403017", "district": "\u9999\u5c71\u5340", "address": "\u4e94\u798f\u8def\u4e8c\u6bb5707\u865f", "slots": 15, "normal_bikes": 5, "ebikes": 3, "last_updated": "2025-04-17 05:24:17", "online": true, "youbike_version": 2, "en": {"name": "Chung Hua University", "district": "Xiangshan Dist", "address": "No. 707, Sec. 2, Wufu Rd."}}}, {"id": "f3175bd1d77fec2cd2ac86995fc81c06", "name": "\u53f0\u5927\u65b0\u7af9\u5206\u9662", "latitude": 24.81601, "longitude": 120.97953, "timestamp": "2025-04-17T03:06:55.051428Z", "free_bikes": 17, "empty_slots": 2, "extra": {"uid": "500402016", "district": "\u5317\u5340", "address": "\u9435\u9053\u8def\u4e8c\u6bb553\u865f(\u5c0d\u5074\u4eba\u884c\u9053)", "slots": 20, "normal_bikes": 10, "ebikes": 7, "last_updated": "2025-04-17 10:50:24", "online": true, "youbike_version": 2, "en": {"name": "National Taiwan University Hospital Hsin-Chu Branch", "district": "North Dist", "address": "No.53, Sec. 2, Tiedao Rd.(opposite)"}}}, {"id": "f4cbc7720e716c8b870fd5ed656ca9ac", "name": "\u91d1\u96c5\u5e02\u6c11\u6d3b\u52d5\u4e2d\u5fc3", "latitude": 24.82538, "longitude": 120.96652, "timestamp": "2025-04-17T03:06:55.051459Z", "free_bikes": 6, "empty_slots": 7, "extra": {"uid": "500402021", "district": "\u5317\u5340", "address": "\u91d1\u96c5\u516d\u885728\u865f", "slots": 13, "normal_bikes": 3, "ebikes": 3, "last_updated": "2025-04-17 08:10:23", "online": true, "youbike_version": 2, "en": {"name": "Jinya Vil Community Center", "district": "North Dist", "address": "No. 28, Jinya 6th St."}}}, {"id": "f86b827dfbd9dd3ae5f300373114fd89", "name": "\u6148\u96f2\u8def\u505c\u8eca\u5834", "latitude": 24.79007, "longitude": 121.01066, "timestamp": "2025-04-17T03:06:55.051188Z", "free_bikes": 2, "empty_slots": 22, "extra": {"uid": "500401044", "district": "\u6771\u5340", "address": "\u9f8d\u5c71\u897f\u8def38\u865f(\u5c0d\u5074\u4eba\u884c\u9053)", "slots": 25, "normal_bikes": 2, "ebikes": 0, "last_updated": "2025-04-17 09:13:17", "online": true, "youbike_version": 2, "en": {"name": "Ciyun Rd. Parking Lot", "district": "East Dist", "address": "No.38, Longshan W. Rd.(opposite)"}}}, {"id": "fdf141d9612ca9ebefb8483394772604", "name": "\u65b0\u7af9\u548c\u5e73\u516c\u5712", "latitude": 24.79912, "longitude": 120.95243, "timestamp": "2025-04-17T03:06:55.051499Z", "free_bikes": 0, "empty_slots": 20, "extra": {"uid": "500403002", "district": "\u9999\u5c71\u5340", "address": "\u7d93\u570b\u8def\u4e09\u6bb578\u5df718\u865f(\u5c0d\u9762\u516c\u5712\u4eba\u884c\u9053)", "slots": 20, "normal_bikes": 0, "ebikes": 0, "last_updated": "2025-04-17 11:05:17", "online": true, "youbike_version": 2, "en": {"name": "Hsinchu Peace Park", "district": "Xiangshan Dist", "address": "No.18, Ln. 78, Sec. 3, Jingguo Rd.(opposite)"}}}]}