{"id": "zena-by-bike", "name": "Zena By Bike", "location": {"latitude": 44.40430089372731, "longitude": 8.92908986230462, "city": "Genova", "country": "IT"}, "href": "/v2/networks/zena-by-bike", "company": ["Bicincitta Italia S.r.l."], "system": "Weelo", "stations": [{"id": "1b2636ec0f1a154f304313b44ce6bc9d", "name": "04. De Ferrari", "latitude": 44.40765747891035, "longitude": 8.934372093917887, "timestamp": "2025-05-03T03:25:39.250447+00:00Z", "free_bikes": 8, "empty_slots": 4, "extra": {"uid": 1055, "address": "Piazza De Ferrari", "has_ebikes": true, "ebikes": 0, "normal_bikes": 8, "status": 0, "slots": 12}}, {"id": "22384597da2334e37b16c5c0d2293041", "name": "15. Marina", "latitude": 44.40363584520559, "longitude": 8.931037033103962, "timestamp": "2025-05-03T03:25:39.250471+00:00Z", "free_bikes": 3, "empty_slots": 3, "extra": {"uid": 1508, "address": "via della Marina c/o ascensore", "has_ebikes": true, "ebikes": 0, "normal_bikes": 3, "status": 0, "slots": 6}}, {"id": "2fa2dd0e4dafa824e672528c9858798b", "name": "03. Caricamento", "latitude": 44.40846528664851, "longitude": 8.92850637534711, "timestamp": "2025-05-03T03:25:39.250444+00:00Z", "free_bikes": 8, "empty_slots": 4, "extra": {"uid": 1054, "address": "Palazzo San Giorgio", "has_ebikes": true, "ebikes": 0, "normal_bikes": 8, "status": 0, "slots": 12}}, {"id": "3b920bce5fb6389ade5adaf88cd050d1", "name": "08. Questura", "latitude": 44.40085750893948, "longitude": 8.945303354878206, "timestamp": "2025-05-03T03:25:39.250454+00:00Z", "free_bikes": 3, "empty_slots": 3, "extra": {"uid": 1427, "address": "Via A. Diaz", "has_ebikes": true, "ebikes": 0, "normal_bikes": 3, "status": 0, "slots": 6}}, {"id": "484829d030be8b6b5c6e736d4adba735", "name": "13. Di Negro", "latitude": 44.4138819112404, "longitude": 8.911719545956657, "timestamp": "2025-05-03T03:25:39.250466+00:00Z", "free_bikes": 4, "empty_slots": 2, "extra": {"uid": 1506, "address": "Via Buozzi lato civ. 59/p.za Di Negro", "has_ebikes": true, "ebikes": 0, "normal_bikes": 4, "status": 0, "slots": 6}}, {"id": "4b028ed303ce8f7f1de7cb4f4c8b56c4", "name": "14. Darsena", "latitude": 44.41449838819857, "longitude": 8.923935670990431, "timestamp": "2025-05-03T03:25:39.250469+00:00Z", "free_bikes": 6, "empty_slots": 0, "extra": {"uid": 1507, "address": "via Gramsci fr. civ. 31", "has_ebikes": true, "ebikes": 0, "normal_bikes": 6, "status": 0, "slots": 6}}, {"id": "66baaa7559d57237e56e0ac8a59b27fc", "name": "07. Zecca", "latitude": 44.41329735929789, "longitude": 8.930001876651772, "timestamp": "2025-05-03T03:25:39.250452+00:00Z", "free_bikes": 2, "empty_slots": 4, "extra": {"uid": 1426, "address": "Largo della Zecca", "has_ebikes": true, "ebikes": 0, "normal_bikes": 2, "status": 0, "slots": 6}}, {"id": "79f7b18ad11b004b0fb3c4f62d008331", "name": "06. Brignole", "latitude": 44.40629115348983, "longitude": 8.946496206745906, "timestamp": "2025-05-03T03:25:39.250449+00:00Z", "free_bikes": 0, "empty_slots": 20, "extra": {"uid": 1057, "address": "Piazza Verdi", "has_ebikes": true, "ebikes": 0, "normal_bikes": 0, "status": 2, "slots": 20}}, {"id": "7f38049a8832b14853339e49d082a57e", "name": "12. Fiumara", "latitude": 44.41295820878395, "longitude": 8.88113470478936, "timestamp": "2025-05-03T03:25:39.250464+00:00Z", "free_bikes": 4, "empty_slots": 2, "extra": {"uid": 1505, "address": "via Paolo Mantovani/rotonda donne di Teheran", "has_ebikes": true, "ebikes": 0, "normal_bikes": 4, "status": 0, "slots": 6}}, {"id": "b9650b8e8cc1ccd38730edc1e142d21c", "name": "16. Rossetti", "latitude": 44.396190464147544, "longitude": 8.945230086981041, "timestamp": "2025-05-03T03:25:39.250473+00:00Z", "free_bikes": 3, "empty_slots": 5, "extra": {"uid": 1509, "address": "Piazza Rossetti lato civ. 2", "has_ebikes": true, "ebikes": 0, "normal_bikes": 3, "status": 0, "slots": 8}}, {"id": "d6e3b7b453b809da7b6fc50fe1721d88", "name": "09. San Benigno", "latitude": 44.40919041930292, "longitude": 8.900814056396486, "timestamp": "2025-05-03T03:25:39.250456+00:00Z", "free_bikes": 2, "empty_slots": 4, "extra": {"uid": 1428, "address": "Via di Francia / WTC", "has_ebikes": true, "ebikes": 0, "normal_bikes": 2, "status": 0, "slots": 6}}, {"id": "eeba741379009f6a7002682790bf815f", "name": "10. Vittorio Veneto", "latitude": 44.411939885362706, "longitude": 8.888470433968337, "timestamp": "2025-05-03T03:25:39.250459+00:00Z", "free_bikes": 2, "empty_slots": 4, "extra": {"uid": 1429, "address": "Piazza Vittorio Veneto", "has_ebikes": true, "ebikes": 0, "normal_bikes": 2, "status": 0, "slots": 6}}, {"id": "f5e50d585ea1f3a8c5ff92175b139820", "name": "11. Stadio", "latitude": 44.414870210305324, "longitude": 8.951750881579983, "timestamp": "2025-05-03T03:25:39.250461+00:00Z", "free_bikes": 2, "empty_slots": 8, "extra": {"uid": 1114, "address": "via Jean Monnet fr. via Cal\u00ec", "has_ebikes": true, "ebikes": 0, "normal_bikes": 2, "status": 0, "slots": 10}}, {"id": "f9f7767e1ac62342b98345912f5c6632", "name": "01. Matitone", "latitude": 44.41085836919639, "longitude": 8.906806090243549, "timestamp": "2025-05-03T03:25:39.250437+00:00Z", "free_bikes": 3, "empty_slots": 3, "extra": {"uid": 1052, "address": "Via di Francia, 1", "has_ebikes": true, "ebikes": 0, "normal_bikes": 3, "status": 0, "slots": 6}}]}